     3.04           OBSERVATION DATA    M                   RINEX VERSION / TYPE
sbf2rin-15.6.1                          20230214 063052 UTC PGM / RUN BY / DATE 
SEPT                                                        MARKER NAME         
Unknown                                                     MARKER NUMBER       
INS                 Institute of Navigaion                  OBSERVER / AGENCY   
3046472             SEPT POLARX5TR      5.4.0               REC # / TYPE / VERS 
Unknown             Unknown                                 ANT # / TYPE        
  -481819.0042  5507217.8101  3170372.5484                  APPROX POSITION XYZ 
        0.0000        0.0000        0.0000                  ANTENNA: DELTA H/E/N
G   18 C1C L1C D1C S1C C1W S1W C2W L2W D2W S2W C2L L2L D2L  SYS / # / OBS TYPES 
       S2L C1L L1L D1L S1L                                  SYS / # / OBS TYPES 
E    4 C1C L1C D1C S1C                                      SYS / # / OBS TYPES 
R    8 C1C L1C D1C S1C C2C L2C D2C S2C                      SYS / # / OBS TYPES 
SEPTENTRIO RECEIVERS OUTPUT ALIGNED CARRIER PHASES.         COMMENT             
NO FURTHER PHASE SHIFT APPLIED IN THE RINEX ENCODER.        COMMENT             
G L1C                                                       SYS / PHASE SHIFT   
G L2W                                                       SYS / PHASE SHIFT   
G L2L  0.00000                                              SYS / PHASE SHIFT   
G L1L  0.00000                                              SYS / PHASE SHIFT   
E L1C  0.00000                                              SYS / PHASE SHIFT   
R L1C                                                       SYS / PHASE SHIFT   
R L2C                                                       SYS / PHASE SHIFT   
     1.000                                                  INTERVAL            
  2023     1     8    10    00    0.0000000     GPS         TIME OF FIRST OBS   
  2023     1     8    14    00    0.0000000     GPS         TIME OF LAST OBS    
    40                                                      # OF SATELLITES     
 C1C    0.000 C2C    0.000                                  GLONASS COD/PHS/BIS 
DBHZ                                                        SIGNAL STRENGTH UNIT
    18                                                      LEAP SECONDS        
 13 R01  1 R02 -4 R03  5 R11  0 R12 -1 R13 -2 R14 -7 R15  0 GLONASS SLOT / FRQ #
    R17  4 R21  4 R22 -3 R23  3 R24  2                      GLONASS SLOT / FRQ #
                                                            END OF HEADER       
> 2023 01 08 10 00  0.0000000  0 25
E01  25115317.751 7 131981885.88007      -908.827 7        42.500
E04  26092840.313 6 137118801.84406     -2560.453 6        40.563
E09  25911533.303 6 136166026.58906      -863.618 6        41.375
E12  27243127.608 6 143163601.06206      3068.447 6        38.500
E14  24290455.874 6 127647206.58106     -2659.642 6        40.063
E24  27548931.019 6 144770607.08406      1596.275 6        38.250
E26  26083223.196 6 137068264.04606      -614.976 6        41.625
E31  24415130.154 7 128302375.38707       696.718 7        43.875
E33  24720474.882 7 129906971.59807      1839.867 7        43.125
G01  21817698.342 7 114652779.28807      2659.621 7        45.313    21817698.391 5        33.188    21817699.888 5  89339835.23305      2072.432 5        33.188    21817699.973 7  89339831.23207      2072.452 7        42.938    21817698.653 7 114652774.78807      2659.668 7        43.813
G07  20055824.997 8 105394070.90108       376.555 8        49.188    20055825.010 6        41.938    20055823.271 6  82125243.44906       293.419 6        41.938    20055823.394 7  82125243.45007       293.440 7        47.938    20055825.114 7 105394072.39807       376.613 7        47.500
G08  22224828.415 7 116792261.04507     -2972.684 7        45.000    22224828.450 5        32.625    22224829.690 5  91006965.24805     -2316.382 5        32.625    22224829.980 7  91006958.25107     -2316.287 7        42.625    22224828.459 7 116792257.53907     -2972.584 7        43.313
G09  23349603.614 7 122702994.47307     -3123.651 7        42.625    23349603.649 4        28.000    23349604.163 4  95612725.24704     -2434.010 4        28.000    23349604.272 6  95612720.23506     -2433.825 6        40.375    23349603.321 6 122702999.97406     -3123.556 6        41.063
G14  22527614.999 7 118383413.92007      1766.643 7        44.438    22527615.025 5        31.813    22527613.438 5  92246812.27905      1376.605 5        31.813    22527613.626 7  92246806.28907      1376.499 7        42.313    22527614.510 7 118383410.42307      1766.685 7        42.813
G17  22539505.816 7 118445902.33107      2676.784 7        43.750    22539505.869 5        30.188    22539504.153 5  92295502.96205      2085.805 5        30.188    22539504.227 6  92295502.95906      2085.969 6        41.563    22539505.797 7 118445899.83307      2676.763 7        42.063
G21  21358838.087 7 112241453.22607       102.694 7        46.250    21358838.122 5        34.750    21358836.759 5  87460866.01705        80.025 5        34.750    21358837.079 7  87460867.02107        79.968 7        43.500    21358838.490 7 112241451.72307       102.683 7        44.563
G30  21431520.644 7 112623400.50507      2305.042 7        46.875    21431520.679 5        35.938    21431521.703 5  87758497.37005      1796.133 5        35.938    21431522.056 7  87758494.37407      1796.174 7        44.250    21431520.568 7 112623404.00107      2305.090 7        45.188
R02  23193459.640 6 123764745.80006     -2990.263 6        38.563    23193460.998 6  96261470.94806     -2325.868 6        41.563
R03  23226474.838 6 124333143.50506      -797.100 6        38.063    23226475.953 6  96703557.51106      -619.983 6        41.438
R11  21952794.688 7 117309081.96107     -1778.991 7        42.375    21952796.272 7  91240399.06507     -1383.693 7        44.188
R12  20114643.022 7 107448811.98107       862.245 7        46.250    20114644.332 7  83571303.48907       670.668 7        47.438
R13  22107141.036 7 118050900.37807      2679.739 7        42.000    22107142.228 7  91817370.93407      2084.254 7        43.813
R21  22376204.880 6 119739588.62506     -3580.789 6        41.250    22376206.212 7  93130801.36907     -2785.166 7        43.188
R22  19636060.319 7 104818624.43007      -546.068 7        47.500    19636061.997 8  81525601.27508      -424.716 8        48.438
R23  20956316.708 7 112102161.72807      3725.944 7        44.875    20956318.016 7  87190578.09007      2897.919 7        46.125
> 2023 01 08 10 05  0.0000000  0 25
E01  25167558.395 7 132256412.34907      -921.838 7        42.563
E04  26239667.941 6 137890385.06006     -2582.556 6        40.500
E09  25964226.755 6 136442932.47806      -981.935 6        41.188
E12  27067790.500 6 142242198.82506      3072.940 6        39.125
E14  24443852.177 6 128453308.88406     -2713.895 6        39.875
E24  27457523.109 6 144290256.57906      1606.112 6        38.563
E26  26122313.151 6 137273682.24506      -754.481 6        41.688
E31  24375508.189 7 128094161.14207       691.116 7        44.188
E33  24618564.206 7 129371426.95607      1729.227 7        43.563
G01  21669517.632 7 113874083.44807      2529.643 7        45.625    21669517.676 5        33.500    21669518.880 5  88733059.24505      1971.154 5        33.500    21669518.896 7  88733055.25607      1971.035 7        42.875    21669517.700 7 113874078.95307      2529.559 7        43.875
G07  20039035.059 8 105305838.88708       210.617 8        49.125    20039035.076 6        41.750    20039033.300 6  82056491.22206       164.117 6        41.750    20039033.511 7  82056491.22407       164.125 7        47.938    20039035.143 7 105305840.38407       210.706 7        47.375
G08  22396028.490 7 117691923.33307     -3024.031 7        44.688    22396028.530 5        32.063    22396029.753 5  91708000.79305     -2356.380 5        32.063    22396029.668 7  91707993.79207     -2356.408 7        42.500    22396028.426 7 117691919.83607     -3024.037 7        42.875
G09  23528540.060 7 123643313.80707     -3143.851 7        42.188    23528540.100 4        26.813    23528541.166 4  96345441.60804     -2449.746 4        26.813    23528541.302 6  96345436.59406     -2449.713 6        39.813    23528540.314 6 123643319.30306     -3143.814 6        40.375
G14  22427347.618 7 117856506.95107      1745.854 7        44.625    22427347.644 5        32.063    22427346.362 5  91836235.41105      1360.406 5        32.063    22427346.635 7  91836229.41307      1360.426 7        42.438    22427347.653 7 117856503.45407      1745.807 7        42.938
G17  22389749.148 7 117658926.45907      2568.751 7        44.063    22389749.165 5        30.875    22389747.488 5  91682275.00105      2001.624 5        30.875    22389747.336 7  91682274.99507      2001.726 7        42.063    22389749.330 7 117658923.96207      2568.709 7        42.313
G21  21358517.551 7 112239767.21107       -91.895 7        46.250    21358517.586 5        34.688    21358516.046 5  87459552.23205       -71.606 5        34.688    21358516.444 7  87459553.23007       -71.635 7        43.688    21358517.733 7 112239765.70907       -91.879 7        44.500
G30  21302937.389 7 111947690.96007      2198.008 7        47.188    21302937.411 6        36.375    21302938.399 6  87231970.44206      1712.733 6        36.375    21302938.637 7  87231967.44407      1712.774 7        44.438    21302937.278 7 111947694.45907      2198.097 7        45.500
R02  23363182.653 6 124670416.67206     -3045.428 6        38.125    23363182.766 6  96965881.61806     -2368.492 6        41.375
R03  23276809.114 6 124602586.96406      -998.135 6        38.313    23276810.009 6  96913124.64006      -776.352 6        41.188
R11  22055311.065 7 117856896.51807     -1873.618 7        42.125    22055312.558 7  91666477.02907     -1457.188 7        43.875
R12  20068327.870 7 107201404.44807       785.744 7        46.688    20068329.354 7  83378875.40907       611.035 7        47.438
R13  21956307.061 7 117245454.57307      2688.902 7        42.500    21956308.317 7  91190913.07607      2091.443 7        44.125
R21  22580681.968 6 120833783.83706     -3711.770 6        40.688    22580682.923 7  93981842.08507     -2886.987 7        42.375
R22  19674275.510 7 105022617.52907      -813.425 7        47.563    19674276.769 8  81684262.57208      -632.718 8        48.375
R23  20751629.293 7 111007224.45307      3571.130 7        45.000    20751631.165 7  86338960.19607      2777.566 7        46.438
> 2023 01 08 10 10  0.0000000  0 24
E01  25220620.180 7 132535254.16107      -937.446 7        42.313
E04  26387595.725 6 138667751.53706     -2598.762 6        40.000
E09  26023579.952 6 136754835.99106     -1096.820 6        40.875
E12  26892413.891 6 141320586.79606      3070.155 6        39.250
E14  24600223.095 6 129275043.97306     -2763.581 6        39.000
E24  27365577.638 6 143807080.25706      1615.288 6        38.563
E26  26169351.844 6 137520872.24306      -893.125 6        41.313
E31  24336249.761 7 127887855.57607       684.200 7        44.125
E33  24523154.222 7 128870043.97707      1612.261 7        43.375
G01  21529115.398 7 113136264.94507      2387.447 7        46.250    21529115.424 5        33.875    21529116.738 5  88158135.72105      1860.348 5        33.875    21529116.577 7  88158131.73107      1860.274 7        43.250    21529115.335 7 113136260.44607      2387.405 7        44.438
G07  20031884.145 8 105268260.07908        39.197 8        49.375    20031884.171 6        41.313    20031882.268 6  82027209.02306        30.543 6        41.313    20031882.185 7  82027209.02507        30.576 7        47.938    20031884.109 7 105268261.57807        39.245 7        47.500
G08  22569966.793 7 118605975.74707     -3068.373 7        44.563    22569966.851 5        31.188    22569968.251 5  92420249.41905     -2390.940 5        31.188    22569968.151 7  92420242.43107     -2390.977 7        42.125    22569966.754 7 118605972.25507     -3068.363 7        42.813
G09  23708384.310 7 124588400.66307     -3155.186 7        42.000    23708384.372 4        26.000    23708385.135 4  97081872.92104     -2458.579 4        26.000    23708385.104 6  97081867.91406     -2458.501 6        39.438    23708384.285 6 124588406.16006     -3155.123 6        40.188
G14  22328296.628 7 117335991.33407      1724.167 7        45.188    22328296.654 5        32.063    22328295.696 5  91430638.81505      1343.506 5        32.063    22328295.484 7  91430632.81107      1343.588 7        42.500    22328296.780 7 117335987.82507      1724.251 7        43.313
G17  22246303.401 7 116905112.81707      2456.020 7        44.813    22246303.454 5        31.250    22246301.477 5  91094887.74005      1913.781 5        31.250    22246301.508 7  91094887.73307      1913.835 7        42.375    22246303.458 7 116905110.31207      2456.104 7        42.875
G21  21369371.668 7 112296805.10807      -288.354 7        46.688    21369371.708 5        34.563    21369369.954 5  87503997.33705      -224.688 5        34.563    21369370.176 7  87503998.33707      -224.786 7        43.625    21369371.543 7 112296803.61207      -288.444 7        44.688
G30  21180733.811 8 111305507.00308      2081.767 8        48.063    21180733.837 6        36.875    21180734.871 6  86731567.34706      1622.156 6        36.875    21180734.997 7  86731564.34707      1622.221 7        44.563    21180733.911 7 111305510.49707      2081.803 7        46.188
R03  23338209.665 6 124931271.66106     -1191.611 6        37.750    23338211.986 6  97168768.28906      -926.896 6        40.938
R11  22163229.538 7 118433583.38707     -1971.306 7        42.000    22163231.271 7  92115011.26607     -1533.271 7        43.625
R12  20026541.787 7 106978190.83107       701.162 7        46.625    20026543.016 7  83205264.80707       545.328 7        47.563
R13  21805126.081 7 116438157.68607      2692.229 7        42.563    21805127.115 7  90563015.50307      2093.898 7        44.563
R21  22792140.812 6 121965349.27606     -3829.679 6        40.000    22792142.622 7  94861948.52307     -2978.577 7        42.250
R22  19727422.832 7 105306323.21307     -1076.982 7        47.313    19727424.203 8  81904922.54108      -837.644 8        48.500
R23  20556032.229 7 109960911.41507      3402.118 7        45.500    20556033.762 7  85525161.16107      2646.067 7        46.750
> 2023 01 08 10 15  0.0000000  0 25
E01  25274603.255 7 132818936.95607      -955.218 7        42.438
E04  26536236.075 6 139448861.94006     -2608.610 6        40.000
E09  26089340.291 6 137100409.47406     -1207.465 6        41.188
E12  26717365.535 6 140400703.03706      3060.102 6        39.750
E14  24759255.403 6 130110763.58906     -2808.244 6        38.813
E24  27273034.283 6 143320761.99306      1625.566 6        39.000
E26  26224220.835 6 137809210.72906     -1029.866 6        41.625
E31  24297385.768 7 127683623.77507       676.102 7        44.500
E33  24434537.892 7 128404362.02907      1490.065 7        43.938
G01  21397113.279 7 112442589.20007      2234.147 7        46.313    21397113.314 5        34.313    21397114.602 5  87617609.15605      1740.898 5        34.313    21397114.630 7  87617605.16307      1740.926 7        43.438    21397113.424 7 112442584.69907      2234.141 7        44.813
G07  20034601.340 8 105282539.90808      -136.242 8        49.000    20034601.371 6        41.188    20034599.611 6  82038336.15606      -106.163 6        41.188    20034599.696 7  82038336.15507      -106.101 7        47.688    20034601.512 7 105282541.40707      -136.226 7        47.500
G08  22746194.063 7 119532056.84107     -3105.448 7        44.188    22746194.112 5        30.625    22746195.567 5  93141871.05005     -2419.833 5        30.625    22746195.216 6  93141864.05106     -2419.743 6        41.813    22746194.052 7 119532053.35107     -3105.474 7        42.625
G09  23888569.600 6 125535281.67206     -3157.031 6        41.438    23888569.635 4        24.938    23888570.422 4  97819702.26604     -2460.028 4        24.938    23888570.303 6  97819697.26506     -2460.102 6        39.188    23888570.018 6 125535287.16306     -3157.025 6        40.000
G13  24385372.240 6 128145993.01406      2012.820 6        39.000    24385372.494 3        21.750    24385370.797 3  99854017.38703      1568.440 3        21.750    24385370.337 6  99854011.35606      1568.632 6        37.938    24385371.811 6 128145988.51006      2012.799 6        37.375
G14  22230456.882 7 116821839.13907      1702.237 7        45.313    22230456.913 5        32.500    22230455.817 5  91030000.73705      1326.423 5        32.500    22230455.740 7  91029994.74507      1326.333 7        42.563    22230456.788 7 116821835.64007      1702.195 7        43.750
G17  22109358.780 7 116185464.53307      2339.878 7        44.813    22109358.829 5        31.875    22109356.964 5  90534122.83005      1823.282 5        31.875    22109357.089 7  90534122.82907      1823.314 7        42.375    22109358.788 7 116185462.03907      2339.799 7        43.250
G21  21391424.587 7 112412695.23707      -485.276 7        46.500    21391424.627 5        34.625    21391423.063 5  87594301.32805      -378.137 5        34.625    21391423.043 7  87594302.33307      -378.186 7        43.625    21391424.806 7 112412693.73607      -485.197 7        44.938
G30  21065374.770 8 110699290.48108      1957.101 8        48.250    21065374.801 6        37.625    21065375.756 6  86259190.83006      1525.014 6        37.625    21065375.693 7  86259187.82807      1524.973 7        44.875    21065374.541 7 110699293.98207      1957.075 7        46.625
R03  23410171.976 6 125316492.07306     -1376.137 6        37.813    23410173.921 6  97468384.13706     -1070.196 6        41.438
R11  22276663.281 6 119039737.08406     -2071.254 6        41.313    22276664.172 7  92586464.14007     -1611.017 7        43.125
R12  19989679.973 7 106781281.08607       609.149 7        47.063    19989681.274 7  83052112.77607       473.783 7        47.500
R13  21653883.497 7 115630533.62707      2689.762 7        43.125    21653885.251 7  89934863.44607      2092.058 7        44.875
R21  23009799.968 6 123130084.71106     -3934.049 6        39.438    23009801.427 7  95767853.85907     -3059.816 7        42.000
R22  19795188.430 7 105668059.44407     -1334.693 7        47.625    19795189.714 8  82186272.93408     -1038.036 8        48.250
R23  20370253.325 7 108967118.69207      3219.866 7        45.750    20370254.741 7  84752211.25407      2504.340 7        47.188
> 2023 01 08 10 20  0.0000000  0 25
E01  25329614.278 7 133108021.78707      -973.600 7        42.063
E04  26685205.517 6 140231701.56006     -2610.449 6        39.188
E09  26161236.732 6 137478226.47906     -1311.751 6        40.750
E12  26543019.748 6 139484508.84806      3045.204 6        39.813
E14  24920643.621 6 130958864.48006     -2846.343 6        38.063
E24  27179841.699 6 142831032.22006      1638.063 6        38.938
E26  26286777.370 6 138137946.69906     -1162.456 6        41.063
E31  24258960.727 7 127481699.34307       668.525 7        44.313
E33  24352988.063 7 127975815.98807      1364.749 7        44.000
G01  21274110.271 7 111796204.36907      2072.066 7        46.188    21274110.315 5        34.313    21274111.678 5  87113932.65505      1614.601 5        34.313    21274111.764 7  87113928.66107      1614.666 7        43.500    21274110.511 7 111796199.86907      2072.129 7        44.813
G07  20047380.454 8 105349693.59808      -313.232 8        48.625    20047380.494 6        40.563    20047378.553 6  82090663.69906      -244.073 6        40.563    20047378.636 7  82090663.70007      -244.122 7        47.438    20047380.337 7 105349695.10107      -313.247 7        47.125
G08  22924279.689 7 120467902.97107     -3133.546 7        43.563    22924279.729 4        29.375    22924281.146 4  93871101.79604     -2441.716 4        29.375    22924281.110 6  93871094.80206     -2441.839 6        41.375    22924279.846 7 120467899.46607     -3133.641 7        42.188
G09  24068544.631 6 126481053.44306     -3147.877 6        40.750    24068544.653 3        23.750    24068544.717 3  98556667.27503     -2452.891 3        23.750    24068544.821 6  98556662.29206     -2452.916 6        38.750    24068544.251 6 126481058.96106     -3147.929 6        39.125
G13  24274748.848 6 127564663.66306      1860.198 6        39.188    24274748.826 3        21.688    24274746.988 3  99401033.45303      1449.509 3        21.688    24274746.864 6  99401027.46506      1449.514 6        38.063    24274748.557 6 127564659.16306      1860.419 6        37.688
G14  22133835.811 7 116314091.61607      1681.338 7        45.313    22133835.833 5        32.313    22133834.544 5  90634353.30405      1310.134 5        32.313    22133834.472 7  90634347.31507      1310.130 7        42.500    22133835.869 7 116314088.10707      1681.538 7        43.688
G17  21979081.587 7 115500852.70507      2222.481 7        44.938    21979081.622 5        31.875    21979079.733 5  90000659.05705      1731.803 5        31.875    21979079.900 7  90000659.06007      1731.803 7        42.438    21979081.704 7 115500850.20107      2222.518 7        43.438
G21  21424650.396 7 112587296.99107      -679.786 7        46.188    21424650.436 5        34.250    21424648.646 5  87730354.63505      -529.703 5        34.250    21424648.822 7  87730355.63807      -529.724 7        43.500    21424650.357 7 112587295.49507      -679.844 7        44.750
G30  20957318.555 8 110131452.05408      1825.878 8        48.188    20957318.590 6        37.688    20957319.668 6  85816719.31606      1422.762 6        37.688    20957319.666 7  85816716.32207      1422.746 7        45.000    20957318.606 7 110131455.55407      1825.857 7        46.688
R03  23492141.641 6 125755282.63606     -1548.908 6        37.500    23492143.707 6  97809665.68106     -1204.577 6        41.063
R11  22395700.926 6 119675838.38906     -2171.128 6        40.938    22395702.271 7  93081209.58207     -1688.518 7        42.750
R12  19958144.317 7 106612823.47007       511.282 7        47.000    19958145.667 7  82921090.17507       397.734 7        47.688
R13  21502896.963 7 114824272.36407      2682.948 7        43.563    21502898.396 7  89307771.33607      2086.729 7        45.125
R21  23232878.839 6 124323819.79406     -4023.178 6        39.000    23232879.910 6  96696314.47206     -3129.176 6        41.625
R22  19877182.952 7 106105751.71707     -1583.287 7        47.250    19877184.144 7  82526700.25807     -1231.504 7        47.875
R23  20194990.106 7 108029579.70607      3027.028 7        46.125    20194991.730 7  84023014.24607      2354.368 7        47.500
> 2023 01 08 10 25  0.0000000  0 24
E01  25385762.970 6 133403085.08606      -993.128 6        41.875
E04  26834123.142 6 141014269.43906     -2604.847 6        38.938
E09  26238976.661 6 137886753.20906     -1410.105 6        40.563
E12  26369749.301 6 138573967.73206      3024.588 6        40.125
E14  25084088.969 6 131817777.41306     -2878.404 6        37.500
E24  27085955.323 6 142337654.77506      1651.920 6        39.000
E26  26356851.826 6 138506191.56206     -1291.273 6        40.938
E31  24221029.241 7 127282368.35507       660.773 7        44.375
E33  24278753.736 7 127585712.02707      1235.885 7        44.125
G01  21160675.550 7 111200101.00607      1901.035 7        46.313    21160675.581 5        34.813    21160676.926 5  86649436.52305      1481.318 5        34.813    21160677.019 7  86649432.51807      1481.318 7        44.000    21160675.721 7 111200096.50407      1901.083 7        44.813
G07  20070372.497 8 105470517.85508      -491.866 8        48.375    20070372.537 6        40.313    20070370.617 6  82184812.46206      -383.280 6        40.313    20070370.742 7  82184812.46207      -383.252 7        47.563    20070372.500 7 105470519.34807      -491.777 7        46.938
G08  23103809.471 7 121411338.07607     -3154.051 7        42.938    23103809.506 4        28.688    23103810.782 4  94606246.02404     -2457.706 4        28.688    23103810.953 6  94606239.04506     -2457.846 6        41.125    23103809.587 6 121411334.58206     -3154.135 6        41.500
G09  24247767.100 6 127422874.07706     -3128.622 6        39.938    24247767.144 3        23.188    24247767.197 3  99290553.47703     -2437.891 3        23.188    24247767.262 6  99290548.49306     -2437.920 6        38.813    24247766.915 6 127422879.57106     -3128.564 6        38.563
G13  24173029.118 6 127030122.86106      1703.267 6        39.313    24173029.110 3        22.188    24173027.028 3  98984508.14103      1327.217 3        22.188    24173027.306 6  98984502.13206      1327.242 6        38.563    24173029.170 6 127030118.35606      1703.183 6        38.000
G14  22038452.082 7 115812847.11807      1660.896 7        45.250    22038452.095 5        32.813    22038450.994 5  90243773.16705      1294.201 5        32.813    22038451.385 7  90243767.17507      1294.176 7        43.000    22038452.096 7 115812843.62507      1660.854 7        43.875
G17  21855607.870 7 114851996.42907      2103.675 7        45.063    21855607.901 5        32.563    21855606.448 5  89495056.75705      1639.219 5        32.563    21855606.457 7  89495056.75707      1639.338 7        42.813    21855608.510 7 114851993.93007      2103.680 7        43.688
G21  21468968.310 7 112820189.21307      -871.695 7        46.063    21468968.345 5        34.313    21468966.666 5  87911829.08505      -679.251 5        34.313    21468966.831 7  87911830.08907      -679.288 7        43.688    21468968.229 7 112820187.71407      -871.674 7        44.563
G30  20857012.030 8 109604337.32708      1687.697 8        48.063    20857012.061 6        38.125    20857013.072 6  85405980.55806      1315.080 6        38.125    20857013.089 7  85405977.56407      1315.035 7        45.625    20857012.004 7 109604340.82507      1687.744 7        46.625
R11  22520407.202 6 120342230.03206     -2270.852 6        40.438    22520408.651 7  93599514.21207     -1766.293 7        42.813
R12  19932337.447 7 106474968.52107       407.180 7        46.813    19932338.984 7  82813869.65007       316.696 7        47.813
R13  21352509.705 7 114021212.84207      2670.485 7        43.875    21352511.439 7  88683169.47907      2076.998 7        45.625
R21  23460602.867 6 125542422.37906     -4097.774 6        38.375    23460604.702 6  97644116.47506     -3187.174 6        41.250
R22  19972947.176 7 106616947.87007     -1822.406 7        46.813    19972948.771 7  82924297.24707     -1417.477 7        47.625
R23  20030901.667 7 107151816.40007      2823.583 7        46.688    20030903.014 7  83340309.44607      2196.120 7        47.625
> 2023 01 08 10 30  0.0000000  0 24
E01  25443165.935 6 133704739.71306     -1017.091 6        41.688
E04  26982616.934 6 141794608.48906     -2595.036 6        38.625
E05  27775744.071 6 145962522.02106       562.462 6        36.813
E09  26322254.470 6 138324381.55606     -1505.231 6        40.188
E12  26197932.694 6 137671065.00106      2994.834 6        40.188
E24  26991341.302 6 141840454.75606      1664.007 6        39.188
E26  26434255.471 6 138912950.97306     -1418.755 6        40.563
E31  24183660.589 7 127085994.06807       649.396 7        44.375
E33  24212062.229 7 127235245.13407      1101.119 7        44.188
G01  21057348.150 7 110657112.77107      1718.575 7        46.500    21057348.190 5        35.375    21057349.691 5  86226328.79705      1339.150 5        35.375    21057350.042 7  86226324.80307      1339.141 7        44.063    21057348.535 7 110657108.27107      1718.638 7        44.875
G07  20103690.540 8 105645605.65708      -674.431 8        48.188    20103690.580 6        40.125    20103688.732 6  82321244.50906      -525.531 6        40.125    20103688.706 7  82321244.50707      -525.490 7        47.000    20103690.531 7 105645607.15407      -674.347 7        46.438
G08  23284391.665 7 122360303.57907     -3170.174 7        42.563    23284391.718 4        27.875    23284393.025 4  95345699.66104     -2470.257 4        27.875    23284393.083 6  95345692.65106     -2470.208 6        40.313    23284391.617 6 122360300.07606     -3170.084 6        40.938
G09  24425714.176 6 128357994.70506     -3102.678 6        39.563    24425714.202 3        23.063    24425714.576 3 100019218.90003     -2417.671 3        23.063    24425715.006 6 100019213.90106     -2417.683 6        38.250    24425714.428 6 128358000.21406     -3102.683 6        37.688
G13  24080497.350 6 126543866.11906      1539.000 6        39.750    24080497.452 3        22.750    24080495.739 3  98605606.77603      1199.225 3        22.750    24080495.696 6  98605600.79606      1199.074 6        38.250    24080497.258 6 126543861.62406      1538.932 6        38.188
G14  21944341.046 7 115318289.84807      1637.243 7        45.500    21944341.072 5        33.250    21944339.696 5  89858403.86005      1275.774 5        33.250    21944339.853 7  89858397.85607      1275.802 7        42.875    21944340.974 7 115318286.35407      1637.238 7        43.875
G17  21739051.082 7 114239485.00407      1980.739 7        45.375    21739051.108 5        32.938    21739049.407 5  89017775.11505      1543.433 5        32.938    21739049.708 7  89017775.11807      1543.408 7        42.688    21739051.284 7 114239482.50207      1980.754 7        43.688
G21  21524250.860 7 113110702.53007     -1063.304 7        46.063    21524250.891 5        34.313    21524249.466 5  88138203.09505      -828.553 5        34.313    21524249.556 7  88138204.10207      -828.589 7        43.438    21524251.160 7 113110701.03307     -1063.372 7        44.313
G30  20764890.011 8 109120233.45508      1539.631 8        48.000    20764890.046 6        38.563    20764891.111 6  85028756.75406      1199.712 6        38.563    20764891.072 7  85028753.76007      1199.700 7        45.688    20764890.143 7 109120236.95507      1539.673 7        46.375
R11  22650823.507 6 121039135.96806     -2373.841 6        40.438    22650825.340 7  94141552.14807     -1846.275 7        42.500
R12  19912664.916 7 106369879.33107       293.496 7        47.188    19912665.910 8  82732133.60908       228.249 8        48.000
R13  21203098.721 7 113223367.16607      2648.628 7        44.250    21203100.315 7  88062622.84007      2059.957 7        45.500
R22  20081961.919 7 107198876.10807     -2054.126 7        46.313    20081963.227 7  83376908.09907     -1597.612 7        47.438
R23  19878604.858 7 106337131.91307      2607.106 7        47.188    19878606.702 7  82706665.94607      2027.791 7        47.938
R24  23455193.950 6 125425460.41306      4387.080 6        37.688    23455194.793 6  97553139.94706      3412.165 6        41.063
> 2023 01 08 10 35  0.0000000  0 24
E01  25501940.162 6 134013600.03206     -1041.968 6        41.375
E04  27130317.182 6 142570779.22806     -2577.858 6        38.250
E05  27747246.438 6 145812766.92406       436.488 6        36.625
E09  26410745.763 6 138789406.46406     -1593.500 6        40.000
E12  26027944.415 6 136777771.21006      2959.846 6        40.313
E24  26895972.682 6 141339290.49206      1677.665 6        39.313
E26  26518774.770 6 139357101.67206     -1541.197 6        40.500
E31  24146932.256 7 126892985.48207       637.720 7        44.375
E33  24153112.344 7 126925461.46607       964.168 7        44.250
G01  20964627.470 7 110169861.59807      1528.984 7        46.875    20964627.510 5        35.750    20964628.926 5  85846652.54805      1191.412 5        35.750    20964629.046 7  85846648.55207      1191.375 7        44.063    20964627.694 7 110169857.09007      1529.037 7        44.813
G07  20147401.239 8 105875307.32008      -856.534 8        48.188    20147401.279 6        39.813    20147399.509 6  82500232.81106      -667.429 6        39.813    20147399.541 7  82500232.80507      -667.323 7        46.750    20147401.311 7 105875308.81607      -856.450 7        46.125
G08  23465651.379 7 123312831.37007     -3178.393 7        42.313    23465651.428 4        27.063    23465652.857 4  96087929.09904     -2476.661 4        27.063    23465653.402 6  96087922.10206     -2476.702 6        39.875    23465651.700 6 123312827.87306     -3178.492 6        40.188
G09  24601876.620 6 129283734.65106     -3066.833 6        39.250    24601876.642 3        22.125    24601877.397 3 100740574.68603     -2389.740 3        22.125    24601877.023 6 100740569.69906     -2389.712 6        38.063    24601876.793 6 129283740.14706     -3066.729 6        36.938
G13  23997399.699 6 126107182.44806      1372.111 6        40.125    23997399.707 3        23.500    23997397.056 3  98265333.78003      1069.181 3        23.500    23997397.505 6  98265327.77706      1069.276 6        38.375    23997399.686 6 126107177.92906      1372.342 6        38.063
G14  21851548.542 7 114830662.32907      1614.005 7        45.875    21851548.573 5        33.625    21851547.348 5  89478434.35405      1257.662 5        33.625    21851547.368 7  89478428.36407      1257.617 7        42.938    21851548.529 7 114830658.83007      1613.890 7        43.750
G17  21629491.624 7 113663745.29807      1857.970 7        45.813    21629491.659 5        33.438    21629489.763 5  88569146.76405      1447.769 5        33.438    21629489.807 7  88569146.77207      1447.732 7        42.938    21629491.647 7 113663742.80407      1857.865 7        43.688
G21  21590320.094 7 113457898.32907     -1250.126 7        46.125    21590320.134 5        34.313    21590318.585 5  88408745.26805      -974.128 5        34.313    21590318.701 7  88408746.27107      -974.181 7        43.313    21590320.136 7 113457896.83007     -1250.152 7        44.000
G30  20681367.528 8 108681319.44808      1385.790 8        48.125    20681367.568 6        38.938    20681368.598 6  84686745.83006      1079.832 6        38.938    20681368.583 7  84686742.83107      1079.934 7        46.063    20681367.550 7 108681322.94707      1385.837 7        46.125
R11  22786962.930 6 121766623.61106     -2475.371 6        40.000    22786964.435 7  94707375.85707     -1925.335 7        42.063
R12  19899523.514 7 106299682.29907       174.020 7        47.313    19899524.958 7  82677535.90807       135.225 7        47.625
R13  21055067.369 7 112432886.87307      2620.551 7        44.563    21055068.746 7  87447804.81307      2038.269 7        45.688
R22  20203649.295 7 107848450.43507     -2273.878 7        46.250    20203650.310 7  83882132.57107     -1768.584 7        47.500
R23  19738664.925 7 105588548.49507      2382.429 7        47.188    19738666.780 8  82124434.39508      1853.013 8        48.313
R24  23210322.870 6 124116027.89906      4340.894 6        38.125    23210324.626 6  96534692.42706      3376.242 6        41.313
> 2023 01 08 10 40  0.0000000  0 25
E01  25562206.117 6 134330300.87606     -1069.909 6        41.313
E04  27276863.908 6 143340887.41806     -2555.524 6        37.875
E05  27725974.025 6 145700979.03006       308.665 6        36.688
E09  26504113.467 6 139280057.64206     -1676.682 6        39.875
E10  27873025.102 6 146473735.46606      3131.460 6        36.625
E12  25860160.478 6 135896059.50706      2916.939 6        40.750
E24  26799834.410 6 140834079.32206      1690.146 6        39.563
E26  26610176.660 6 139837422.69806     -1660.428 6        40.250
E31  24110935.062 7 126703819.72607       623.063 7        44.563
E33  24102078.350 7 126657275.58107       823.217 7        44.313
G01  20882971.841 7 109740757.72007      1330.423 7        47.125    20882971.881 6        36.000    20882973.155 6  85512285.88106      1036.693 6        36.000    20882973.310 7  85512281.88907      1036.611 7        44.188    20882971.886 7 109740753.22607      1330.344 7        45.250
G07  20201528.696 8 106159747.90008     -1039.882 8        48.188    20201528.731 6        39.500    20201526.762 6  82721874.81406      -810.294 6        39.500    20201526.918 7  82721874.82007      -810.318 7        46.625    20201528.568 7 106159749.39707     -1039.830 7        46.375
G08  23647237.438 6 124267070.10106     -3182.192 6        41.938    23647237.460 4        26.063    23647238.621 4  96831491.74804     -2479.630 4        26.063    23647238.800 6  96831484.76406     -2479.737 6        39.500    23647237.229 6 124267066.62306     -3182.313 6        40.125
G13  23923942.917 6 125721165.57706      1200.734 6        40.313    23923942.939 3        23.750    23923940.997 3  97964541.40403       935.637 3        23.750    23923940.948 6  97964535.39706       935.587 6        38.563    23923942.819 6 125721161.08306      1200.686 6        38.563
G14  21760136.979 7 114350291.59907      1588.114 7        46.125    21760137.014 5        33.938    21760135.842 5  89104119.49105      1237.491 5        33.938    21760135.886 7  89104113.49207      1237.499 7        43.188    21760137.037 7 114350288.09607      1588.182 7        44.188
G17  21526983.924 7 113125064.45207      1733.058 7        46.000    21526983.955 5        33.875    21526982.275 5  88149395.44805      1350.431 5        33.875    21526982.289 7  88149395.44707      1350.496 7        43.188    21526984.034 7 113125061.94907      1733.153 7        44.250
G19  24647249.040 6 129522162.88806      3116.541 6        39.313    24647249.174 3        21.750    24647245.719 3 100926349.53903      2428.478 3        21.750    24647245.673 6 100926341.55306      2428.396 6        38.063    24647248.461 6 129522160.38906      3116.357 6        37.375
G21  21666952.631 7 113860604.27007     -1433.910 7        46.063    21666952.648 5        33.938    21666950.986 5  88722542.09505     -1117.333 5        33.938    21666951.042 7  88722543.10107     -1117.287 7        43.313    21666952.683 7 113860602.77607     -1433.994 7        44.313
G30  20606839.194 8 108289670.32608      1223.998 8        48.188    20606839.234 6        39.188    20606840.222 6  84381564.68606       953.764 6        39.188    20606840.349 7  84381561.69107       953.781 7        46.375    20606839.156 7 108289673.82707      1223.966 7        46.438
R11  22928812.404 6 122524625.26006     -2577.954 6        39.375    22928814.021 7  95296932.70607     -2005.155 7        42.125
R12  19893305.671 7 106266466.85307        46.212 7        47.250    19893306.924 8  82651701.66308        35.947 8        48.000
R13  20908847.600 7 111652081.71707      2583.283 7        45.000    20908848.736 7  86840511.89607      2009.237 7        46.063
R22  20337383.351 7 108562332.47407     -2483.456 7        46.000    20337384.585 7  84437374.14807     -1931.602 7        47.375
R23  19611592.337 7 104908795.05807      2147.802 7        47.125    19611594.054 8  81595737.26308      1670.542 8        48.813
R24  22968386.934 6 122822287.63306      4281.922 6        39.063    22968388.382 6  95528449.98506      3330.255 6        41.438
> 2023 01 08 10 45  0.0000000  0 25
E01  25624085.715 6 134655479.09106     -1098.371 6        41.750
E04  27421903.081 6 144103073.68306     -2524.913 6        37.938
E05  27711914.983 6 145627097.10406       183.653 6        37.188
E09  26602007.626 6 139794493.74106     -1751.887 6        40.125
E10  27694042.380 6 145533175.67106      3137.593 6        37.250
E12  25694952.241 6 135027884.99806      2869.580 6        41.313
E24  26702918.776 6 140324785.79006      1704.802 6        40.125
E26  26708209.510 6 140352589.74906     -1773.338 6        40.438
E31  24075770.142 7 126519026.44507       608.423 7        45.000
E33  24059105.320 7 126431450.91007       681.720 7        44.875
G01  20812792.636 7 109371963.21507      1126.984 7        47.375    20812792.676 6        36.250    20812793.830 6  85224913.53106       878.170 6        36.250    20812793.972 7  85224909.52307       878.280 7        44.375    20812792.677 7 109371958.71607      1127.000 7        45.375
G07  20266049.770 8 106498809.42708     -1220.561 8        48.125    20266049.805 6        39.063    20266047.961 6  82986078.59906      -951.086 6        39.063    20266048.138 7  82986078.59907      -951.078 7        46.500    20266049.929 7 106498810.93007     -1220.540 7        46.313
G08  23828816.139 6 125221272.86706     -3178.282 6        41.438    23828816.197 4        25.125    23828817.163 4  97575026.36304     -2476.588 4        25.125    23828817.384 6  97575019.37106     -2476.629 6        39.250    23828815.990 6 125221269.37706     -3178.303 6        39.438
G13  23860294.111 6 125386689.17406      1028.673 6        40.625    23860294.173 3        23.438    23860292.307 3  97703910.42903       801.564 3        23.438    23860291.728 6  97703904.43606       801.604 6        38.938    23860293.924 6 125386684.69006      1028.468 6        38.500
G14  21670182.532 7 113877577.25807      1562.905 7        46.188    21670182.563 5        34.063    21670181.293 5  88735770.64505      1217.848 5        34.063    21670181.279 7  88735764.65207      1217.787 7        43.563    21670182.613 7 113877573.75607      1562.832 7        44.250
G17  21431553.928 7 112623575.97807      1610.054 7        46.125    21431553.972 5        34.063    21431552.118 5  87758625.19805      1254.591 5        34.063    21431552.192 7  87758625.19907      1254.599 7        43.563    21431554.026 7 112623573.47307      1610.111 7        44.250
G19  24470830.091 6 128595077.58906      3063.118 6        39.750    24470830.225 3        22.500    24470827.237 3 100203945.40103      2386.841 3        22.500    24470826.958 6 100203937.39906      2387.009 6        38.625    24470830.380 6 128595075.08606      3063.497 6        37.813
G21  21753880.519 7 114317414.21507     -1610.747 7        46.000    21753880.541 5        33.563    21753878.985 5  89078497.89305     -1255.128 5        33.563    21753879.006 7  89078498.90007     -1255.120 7        43.250    21753880.782 7 114317412.71707     -1610.768 7        44.063
G30  20541673.758 8 107947223.72708      1057.849 8        48.188    20541673.793 6        39.188    20541674.780 6  84114723.17506       824.298 6        39.188    20541674.776 7  84114720.17907       824.294 7        46.750    20541673.690 7 107947227.22707      1057.860 7        46.250
R11  23076330.771 6 123312918.61606     -2677.288 6        39.063    23076332.228 6  95910049.73506     -2082.365 6        41.875
R12  19894389.109 7 106272255.26507       -86.041 7        47.063    19894390.561 7  82656203.74807       -66.958 7        47.813
R13  20764898.567 7 110883399.91307      2539.640 7        44.875    20764899.561 7  86242648.26507      1975.267 7        46.563
R22  20482496.326 7 109336956.10707     -2678.781 7        45.625    20482497.515 7  85039859.18507     -2083.484 7        46.938
R23  19497834.793 7 104300268.35807      1907.778 7        47.313    19497836.283 8  81122438.71308      1483.778 8        49.188
R24  22730040.503 6 121547742.67306      4213.058 6        40.063    22730042.062 7  94537137.21407      3276.848 7        42.000
> 2023 01 08 10 50  0.0000000  0 25
E01  25687699.530 6 134989772.55206     -1130.095 6        41.375
E04  27565089.000 6 144855520.86906     -2489.836 6        37.438
E05  27705031.766 6 145590926.49406        58.142 6        36.875
E09  26704066.164 6 140330814.54906     -1821.947 6        39.500
E10  27514945.978 6 144592017.48006      3136.479 6        37.563
E12  25532688.074 6 134175181.80806      2814.565 6        41.438
E24  26605230.052 6 139811427.52706      1717.950 6        40.000
E26  26812604.425 6 140901187.59206     -1882.601 6        39.938
E31  24041548.497 7 126339189.96307       590.661 7        44.813
E33  24024309.717 7 126248599.18807       537.522 7        44.688
G01  20754450.969 7 109065375.29407       916.520 7        47.125    20754451.009 6        36.750    20754452.133 6  84986013.84506       714.167 6        36.750    20754452.098 7  84986009.85307       714.110 7        44.375    20754450.830 7 109065370.79107       916.546 7        45.813
G07  20340897.086 7 106892133.45307     -1400.724 7        47.938    20340897.117 6        39.000    20340895.040 6  83292564.84106     -1091.474 6        39.000    20340895.137 7  83292564.84207     -1091.523 7        45.813    20340896.906 7 106892134.95407     -1400.809 7        46.563
G08  24010075.942 6 126173802.25506     -3170.468 6        40.500    24010075.995 4        24.750    24010077.438 4  98317257.05104     -2470.499 4        24.750    24010078.058 6  98317250.06006     -2470.568 6        38.813    24010076.633 6 126173798.76106     -3170.589 6        39.188
G13  23806576.083 6 125104401.51506       853.428 6        40.438    23806576.123 4        24.563    23806574.545 4  97483946.01704       665.017 4        24.563    23806574.854 6  97483940.02306       665.189 6        38.750    23806576.283 6 125104397.01906       853.570 6        38.938
G14  21581775.962 7 113412997.06707      1534.586 7        46.000    21581775.988 5        34.625    21581774.561 5  88373760.09405      1195.785 5        34.625    21581774.683 7  88373754.10007      1195.724 7        43.438    21581775.775 7 113412993.56407      1534.591 7        44.563
G17  21343198.697 7 112159265.16607      1486.019 7        45.938    21343198.741 5        34.688    21343196.662 5  87396824.55505      1157.937 5        34.688    21343196.646 7  87396824.56207      1157.937 7        43.375    21343198.492 7 112159262.66507      1486.056 7        44.625
G19  24297612.861 6 127684814.01006      3005.071 6        39.750    24297612.923 3        23.438    24297609.972 3  99494649.09203      2341.614 3        23.438    24297610.388 6  99494641.10806      2341.556 6        38.250    24297612.643 6 127684811.50506      3005.192 6        38.563
G21  21850796.058 7 114826707.90907     -1782.997 7        45.438    21850796.089 5        33.688    21850794.340 5  89475350.11805     -1389.352 5        33.688    21850794.609 7  89475351.11307     -1389.262 7        42.813    21850796.026 7 114826706.42107     -1783.060 7        44.000
G30  20486210.911 7 107655764.76607       884.864 7        47.813    20486210.946 6        39.875    20486211.950 6  83887612.28506       689.504 6        39.875    20486212.081 7  83887609.28507       689.500 7        46.688    20486210.942 7 107655768.26407       884.853 7        46.500
R11  23229448.058 6 124131129.41606     -2776.526 6        38.438    23229448.703 6  96546435.90606     -2159.446 6        41.563
R12  19903136.931 7 106318985.03607      -225.874 7        47.313    19903138.389 7  82692549.12307      -175.725 7        47.938
R13  20623702.950 7 110129425.04707      2485.984 7        45.438    20623704.648 7  85656223.36307      1933.510 7        46.813
R22  20638285.916 7 110168571.34207     -2862.560 7        45.500    20638286.952 7  85686671.03507     -2226.423 7        46.625
R23  19397773.651 7 103765008.22607      1660.281 7        47.063    19397775.177 8  80706125.26108      1291.363 8        49.563
R24  22495935.978 6 120295876.89206      4131.434 6        40.313    22495936.922 7  93563463.81907      3213.438 7        42.313
> 2023 01 08 10 55  0.0000000  0 25
E01  25753170.643 6 135333827.45106     -1164.416 6        41.438
E04  27706086.860 6 145596468.76606     -2449.135 6        36.938
E05  27705264.634 6 145592150.90706       -66.313 6        37.250
E09  26809919.894 6 140887080.97206     -1885.528 6        39.438
E10  27336078.689 6 143652064.01406      3128.759 6        38.375
E12  25373733.219 6 133339867.72606      2752.808 6        41.938
E24  26506783.888 6 139294088.76006      1730.494 6        40.250
E26  26923078.212 6 141481730.66306     -1987.060 6        40.000
E31  24008393.099 7 126164958.83407       570.135 7        45.000
E33  23997780.813 7 126109188.79407       391.416 7        44.938
G01  20708256.006 7 108822619.53007       700.748 7        47.500    20708256.050 6        36.625    20708257.206 6  84796853.50106       546.034 6        36.625    20708257.194 7  84796849.49907       546.103 7        44.375    20708256.037 7 108822615.01907       700.833 7        45.938
G07  20425958.381 8 107339133.91808     -1579.112 8        48.250    20425958.407 6        38.313    20425956.405 6  83640876.88406     -1230.485 6        38.313    20425956.551 7  83640876.89007     -1230.473 7        45.375    20425958.205 7 107339135.42507     -1579.170 7        46.563
G08  24190729.919 6 127123142.42706     -3158.050 6        40.188    24190729.968 3        23.688    24190731.159 3  99057002.62503     -2460.831 3        23.688    24190730.845 6  99056995.63606     -2460.777 6        38.625    24190729.881 6 127123138.91306     -3157.772 6        38.750
G13  23762871.544 6 124874729.90806       677.232 6        40.750    23762871.575 4        24.250    23762869.600 4  97304981.11504       527.713 4        24.250    23762869.399 6  97304975.11906       527.500 6        38.750    23762871.176 6 124874725.41306       677.101 6        39.000
G14  21495025.443 7 112957119.79007      1503.965 7        46.313    21495025.469 5        34.625    21495024.077 5  88018531.03905      1171.917 5        34.625    21495024.321 7  88018525.03907      1171.880 7        43.625    21495025.230 7 112957116.28507      1503.923 7        44.500
G17  21261889.371 7 111731983.38307      1362.363 7        46.375    21261889.411 5        34.875    21261887.745 5  87063877.70105      1061.585 5        34.875    21261887.927 7  87063877.70107      1061.536 7        43.688    21261889.503 7 111731980.88007      1362.347 7        44.688
G19  24127798.771 6 126792436.84806      2943.235 6        40.563    24127798.864 3        23.750    24127796.157 3  98799290.26303      2293.434 3        23.750    24127796.021 6  98799282.26806      2293.352 6        38.875    24127798.845 6 126792434.34406      2943.293 6        38.813
G21  21957355.029 7 115386679.96907     -1949.355 7        45.500    21957355.046 5        33.000    21957353.442 5  89911691.97205     -1518.974 5        33.000    21957353.601 7  89911692.97107     -1518.982 7        42.688    21957355.216 7 115386678.47007     -1949.397 7        43.875
G30  20440760.148 8 107416919.43908       706.303 8        48.125    20440760.174 6        39.625    20440761.238 6  83701499.03506       550.366 6        39.625    20440761.338 7  83701496.04507       550.354 7        46.875    20440760.229 7 107416922.94307       706.356 7        46.500
R11  23388066.836 6 124978742.00106     -2874.054 6        38.000    23388068.761 6  97205690.14706     -2235.542 6        41.250
R12  19919894.608 7 106408501.12007      -372.106 7        46.938    19919895.869 7  82762172.74107      -289.495 7        47.813
R13  20485771.158 7 109392878.37807      2422.498 7        45.438    20485772.624 7  85083353.72007      1884.161 7        46.875
R22  20804023.737 7 111053291.80507     -3033.688 7        45.125    20804025.167 7  86374786.94707     -2359.552 7        46.313
R23  19311721.199 7 103304686.15907      1407.440 7        47.375    19311722.783 8  80348096.97908      1094.692 8        49.813
R24  22266718.590 6 119070150.16006      4037.907 6        41.188    22266720.181 7  92610120.79707      3140.611 7        42.938
> 2023 01 08 11 00  0.0000000  0 23
E01  25820621.131 6 135688280.48406     -1199.588 6        41.438
E05  27712528.355 6 145630320.55406      -188.141 6        37.000
E09  26919192.302 6 141461310.26006     -1941.825 6        39.500
E10  27157785.065 6 142715123.75606      3115.921 6        38.750
E12  25218445.271 7 132523823.96407      2685.828 7        42.250
E24  26407606.595 6 138772909.08506      1743.626 6        40.625
E26  27039334.090 6 142092659.17506     -2085.119 6        39.875
E31  23976437.721 7 125997030.41307       548.447 7        45.063
E33  23979577.366 7 126013529.39707       245.752 7        45.063
G01  20674459.916 7 108645020.93907       482.218 7        47.688    20674459.960 6        36.750    20674461.386 6  84658464.98106       375.754 6        36.750    20674461.753 7  84658460.98607       375.734 7        44.438    20674460.167 7 108645016.44207       482.155 7        45.938
G07  20521077.377 8 107838987.62908     -1753.143 8        48.250    20521077.408 6        37.938    20521075.429 6  84030373.27606     -1366.085 6        37.938    20521075.632 7  84030373.28907     -1366.135 7        44.938    20521077.264 7 107838989.12907     -1753.132 7        46.500
G08  24370508.245 6 128067886.03806     -3139.952 6        39.875    24370508.271 3        22.875    24370509.435 3  99793166.48103     -2446.724 3        22.875    24370509.486 6  99793159.48506     -2446.781 6        38.250    24370508.549 6 128067882.55306     -3140.241 6        38.000
G13  23729214.926 6 124697862.34006       501.541 6        40.938    23729214.966 4        24.500    23729212.584 4  97167162.22504       390.811 4        24.500    23729212.771 6  97167156.23706       390.668 6        38.688    23729214.588 6 124697857.84806       501.520 6        39.125
G14  21410054.030 7 112510592.82207      1472.083 7        46.438    21410054.070 5        34.875    21410052.691 5  87670587.94105      1147.081 5        34.875    21410052.699 7  87670581.94607      1146.967 7        43.750    21410053.996 7 112510589.32107      1472.104 7        44.813
G17  21187571.267 7 111341438.87907      1241.019 7        46.563    21187571.302 5        35.063    21187569.540 5  86759557.30205       967.032 5        35.063    21187569.549 7  86759557.30107       966.991 7        43.813    21187571.396 7 111341436.38007      1241.019 7        44.813
G19  23961576.122 6 125918931.49906      2879.208 6        41.063    23961576.180 4        24.625    23961573.628 4  98118636.72804      2243.539 4        24.625    23961574.000 6  98118628.72506      2243.534 6        38.750    23961576.266 6 125918928.99606      2879.213 6        39.250
G21  22073180.121 7 115995345.20707     -2107.742 7        45.375    22073180.147 5        32.813    22073178.617 5  90385976.57005     -1642.396 5        32.813    22073178.349 7  90385977.57507     -1642.384 7        42.625    22073180.284 7 115995343.70907     -2107.748 7        43.688
G30  20405594.845 8 107232124.30408       524.489 8        48.250    20405594.871 6        39.875    20405595.863 6  83557502.81906       408.693 6        39.875    20405596.166 7  83557499.82307       408.681 7        46.938    20405594.799 7 107232127.80607       524.474 7        46.500
R12  19944983.755 7 106542522.27307      -522.692 7        46.875    19944984.974 7  82866411.40007      -406.546 7        47.750
R13  20351634.847 7 108676595.36707      2350.537 7        46.188    20351635.831 7  84526244.69807      1828.245 7        46.938
R22  20978961.406 7 111987121.22207     -3190.136 7        44.625    20978962.871 7  87101098.70507     -2481.176 7        46.250
R23  19239915.025 7 102920572.08907      1152.277 7        47.375    19239916.782 8  80049341.58208       896.199 8        50.000
R24  22043026.280 6 117873968.30106      3934.311 6        41.938    22043027.958 7  91679757.12907      3060.065 7        43.750
> 2023 01 08 11 05  0.0000000  0 23
E01  25890169.030 6 136053756.60206     -1237.414 6        40.688
E05  27726711.977 6 145704856.19306      -308.355 6        36.875
E09  27031499.122 6 142051486.16406     -1991.469 6        38.813
E10  26980409.309 6 141783007.99606      3096.897 6        38.688
E12  25067174.363 7 131728889.87407      2612.520 7        42.125
E24  26307736.371 6 138248087.27106      1755.177 6        40.250
E26  27161063.336 6 142732350.40606     -2178.412 6        39.250
E31  23945823.262 7 125836150.43507       523.670 7        44.563
E33  23969728.490 7 125961773.07007        99.304 7        44.688
G01  20653256.263 7 108533593.45307       260.256 7        47.750    20653256.316 6        36.750    20653257.368 6  84571638.35906       202.797 6        36.750    20653257.336 7  84571634.36007       202.768 7        44.313    20653256.200 7 108533588.95107       260.256 7        45.750
G07  20626053.708 8 108390642.31108     -1923.895 8        48.063    20626053.743 6        37.188    20626051.818 6  84460234.06406     -1499.139 6        37.188    20626051.912 7  84460234.06707     -1499.081 7        44.625    20626053.755 7 108390643.81307     -1923.921 7        46.000
G08  24549165.606 6 129006735.77606     -3118.454 6        39.313    24549165.641 3        22.063    24549166.939 3 100524737.68903     -2429.976 3        22.063    24549166.718 6 100524730.70306     -2429.800 6        37.938    24549165.662 6 129006732.27906     -3118.301 6        37.250
G13  23705596.027 6 124573746.46906       326.133 6        41.000    23705596.067 4        24.563    23705594.328 4  97070448.55004       254.134 4        24.563    23705594.042 6  97070442.56806       254.052 6        38.875    23705596.195 6 124573741.97406       326.049 6        39.000
G14  21327000.646 7 112074144.50007      1437.126 7        46.563    21327000.677 5        35.125    21326999.403 5  87330498.33105      1119.839 5        35.125    21326999.518 7  87330492.33107      1119.888 7        43.750    21327000.637 7 112074141.00607      1437.142 7        44.688
G17  21120162.831 7 110987204.01907      1120.857 7        46.813    21120162.866 5        35.375    21120160.872 5  86483530.12905       873.395 5        35.375    21120161.106 7  86483530.12407       873.375 7        43.875    21120162.879 7 110987201.53007      1120.710 7        44.813
G19  23799117.605 6 125065203.22506      2811.854 6        41.500    23799117.627 4        25.250    23799114.657 4  97453393.91004      2191.059 4        25.250    23799114.638 6  97453385.91006      2191.014 6        38.938    23799117.088 6 125065200.73506      2811.785 6        39.438
G21  22197863.526 7 116650560.12007     -2259.208 7        45.250    22197863.570 5        32.375    22197861.889 5  90896533.64005     -1760.422 5        32.375    22197861.729 7  90896534.63807     -1760.450 7        42.313    22197863.661 7 116650558.61607     -2259.071 7        43.250
G30  20380949.506 8 107102612.64208       338.361 8        48.313    20380949.537 6        39.938    20380950.628 6  83456584.63206       263.658 6        39.938    20380950.768 7  83456581.63707       263.650 7        46.875    20380949.518 7 107102616.14907       338.340 7        46.375
R12  19978699.319 7 106722626.71707      -678.817 7        46.813    19978701.088 7  83006492.63407      -527.990 7        47.500
R13  20221842.435 7 107983515.04207      2268.232 7        46.125    20221844.257 7  83987182.22207      1764.151 7        47.188
R22  21162336.833 7 112965989.07907     -3333.447 7        44.250    21162337.749 7  87862440.36707     -2592.719 7        45.875
R23  19182515.684 7 102613523.45007       894.439 7        47.688    19182517.164 8  79810525.97108       695.671 8        50.063
R24  21825484.154 7 116710670.74907      3819.250 7        42.188    21825485.240 7  90774970.11707      2970.511 7        43.938
> 2023 01 08 11 10  0.0000000  0 23
E01  25961928.569 6 136430855.19906     -1277.694 6        40.500
E05  27747679.793 6 145815042.65006      -426.467 6        36.688
E09  27146449.816 6 142655557.84006     -2035.170 6        38.500
E10  26804294.036 6 140857516.62606      3071.190 6        39.063
E12  24920259.501 7 130956846.30307      2532.817 7        42.250
E24  26207220.424 6 137719873.38006      1765.524 6        40.500
E26  27287944.835 6 143399118.73506     -2266.407 6        38.938
E31  23916698.826 7 125683100.78907       495.576 7        44.563
E33  23968231.332 7 125953905.22907       -47.358 7        44.563
G01  20644774.202 7 108489021.18307        35.986 7        47.813    20644774.264 6        36.938    20644775.551 6  84536906.71106        28.033 6        36.938    20644775.753 7  84536902.71707        28.029 7        44.688    20644774.318 7 108489016.68907        36.013 7        46.250
G07  20740643.272 7 108992815.30807     -2090.490 7        47.563    20740643.303 6        36.688    20740641.587 6  84929459.76906     -1628.961 6        36.688    20740641.561 7  84929459.76907     -1628.949 7        44.500    20740643.383 7 108992816.80907     -2090.469 7        46.000
G08  24726473.384 6 129938494.03506     -3093.303 6        38.938    24726473.437 3        21.813    24726474.491 3 101250783.08503     -2410.386 3        21.813    24726474.726 6 101250776.10306     -2410.542 6        38.188    24726473.607 6 129938490.53706     -3093.355 6        37.688
G13  23691958.013 6 124502079.33306       151.229 6        41.188    23691958.066 4        24.438    23691956.533 4  97014604.01504       117.833 4        24.438    23691956.919 6  97014598.02706       117.882 6        39.125    23691958.214 6 124502074.82406       151.382 6        39.625
G14  21246017.424 7 111648574.38807      1398.796 7        46.938    21246017.455 5        35.625    21246016.065 5  86998885.24305      1089.967 5        35.625    21246016.163 7  86998879.23907      1090.020 7        44.188    21246017.390 7 111648570.88107      1398.859 7        45.375
G17  21059555.703 7 110668712.13707      1002.156 7        47.063    21059555.729 5        35.938    21059553.856 5  86235354.62905       780.897 5        35.938    21059554.028 7  86235354.62907       780.934 7        44.250    21059555.712 7 110668709.64307      1002.172 7        45.563
G19  23640576.545 7 124232065.43007      2741.384 7        42.000    23640576.546 4        26.000    23640573.678 4  96804195.61604      2136.143 4        26.000    23640573.813 6  96804187.62806      2136.045 6        39.500    23640576.496 6 124232062.93406      2741.310 6        40.438
G21  22330968.798 7 117350033.26207     -2403.322 7        45.000    22330968.829 5        32.125    22330967.337 5  91441577.63505     -1872.727 5        32.125    22330967.125 7  91441578.64207     -1872.731 7        42.500    22330969.010 7 117350031.76007     -2403.322 7        43.500
G30  20367015.978 8 107029391.00908       148.707 8        48.438    20367016.018 6        40.125    20367017.013 6  83399528.80806       115.871 6        40.125    20367016.951 7  83399525.81207       115.839 7        47.188    20367016.089 7 107029394.51907       148.618 7        46.813
R12  20021305.119 7 106950218.12107      -839.804 7        46.688    20021306.484 7  83183508.16207      -653.301 7        47.563
R13  20096961.914 7 107316655.96907      2175.109 7        46.625    20096962.859 7  83468514.03707      1691.722 7        47.438
R22  21353377.377 7 113985778.82007     -3463.557 7        43.813    21353378.477 7  88655610.16407     -2693.911 7        45.750
R23  19139601.412 7 102383961.85707       635.275 7        47.625    19139603.038 8  79631978.05508       494.120 8        50.313
R24  21614695.712 7 115583491.82907      3692.863 7        43.000    21614697.243 7  89898275.40807      2872.314 7        44.625
> 2023 01 08 11 15  0.0000000  0 22
E01  26036014.329 6 136820179.68606     -1318.835 6        40.875
E05  27775276.666 6 145960066.40106      -540.591 6        37.000
E09  27263656.219 6 143271481.27206     -2070.647 6        38.813
E10  26629785.283 6 139940466.80206      3040.742 6        39.938
E12  24778032.991 7 130209441.92507      2448.416 7        42.813
E24  26106123.391 6 137188604.07106      1775.493 6        40.938
E26  27419654.676 6 144091258.63806     -2347.487 6        39.000
E31  23889226.024 7 125538730.22807       465.680 7        44.938
E33  23975058.074 7 125989779.86407      -192.234 7        44.875
G01  20649087.553 8 108511686.62508      -187.789 8        48.063    20649087.593 6        36.938    20649088.611 6  84554568.08706      -146.325 6        36.938    20649088.780 7  84554564.09007      -146.341 7        44.500    20649087.415 7 108511682.12307      -187.736 7        45.938
G07  20864566.693 7 109644037.44407     -2250.684 7        47.188    20864566.719 5        35.938    20864565.014 5  85436905.58305     -1753.780 5        35.938    20864564.877 7  85436905.59307     -1753.866 7        44.188    20864566.950 7 109644038.94607     -2250.668 7        45.125
G13  23688202.166 6 124482342.40706       -19.953 6        41.313    23688202.233 4        24.938    23688200.604 4  96999224.58504       -15.544 4        24.938    23688200.436 6  96999218.59506       -15.597 6        39.000    23688202.587 6 124482337.89606       -19.880 6        39.250
G14  21167276.026 7 111234786.10707      1358.590 7        47.375    21167276.052 6        36.063    21167274.825 6  86676452.81206      1058.645 6        36.063    21167274.816 7  86676446.81707      1058.629 7        44.188    21167276.115 7 111234782.60907      1358.569 7        45.375
G17  21005623.801 7 110385298.63807       887.108 7        47.563    21005623.823 6        36.250    21005622.113 6  86014512.93006       691.257 6        36.250    21005622.127 7  86014512.93407       691.257 7        44.250    21005624.170 7 110385296.14007       887.045 7        45.438
G19  23486096.927 7 123420271.64507      2669.616 7        42.438    23486096.928 4        26.688    23486094.510 4  96171629.02204      2080.228 4        26.688    23486094.625 6  96171621.03406      2080.134 6        39.875    23486097.255 6 123420269.15706      2669.579 6        40.438
G21  22472042.374 7 118091379.11507     -2538.177 7        45.000    22472042.400 5        31.813    22472040.671 5  92019249.73105     -1977.796 5        31.813    22472040.825 7  92019250.73007     -1977.800 7        42.188    22472042.338 7 118091377.61807     -2538.287 7        42.938
G30  20363946.357 8 107013260.76308       -42.088 8        48.563    20363946.388 6        40.063    20363947.540 6  83386959.77606       -32.791 6        40.063    20363947.608 7  83386956.78107       -32.849 7        47.063    20363946.381 7 107013264.26207       -42.088 7        46.563
R12  20073034.778 7 107226549.21207     -1003.557 7        46.438    20073036.354 7  83398432.33507      -780.636 7        47.500
R13  19977574.240 7 106679134.13107      2072.678 7        46.938    19977575.529 7  82972663.71407      1612.087 7        47.688
R22  21551315.787 7 115042387.68007     -3578.892 7        43.500    21551316.863 7  89477417.05107     -2783.524 7        45.500
R23  19111176.580 8 102231908.42508       377.999 8        48.063    19111178.167 8  79513714.26108       294.020 8        50.563
R24  21411252.329 7 114495585.81607      3557.449 7        43.375    21411253.382 7  89052126.26007      2766.972 7        44.938
> 2023 01 08 11 20  0.0000000  0 21
E01  26112532.405 6 137222284.56706     -1362.657 6        40.375
E09  27382722.290 6 143897178.17906     -2099.912 6        38.188
E10  26457221.839 6 139033638.86906      3003.410 6        39.813
E12  24640811.365 7 129488336.95807      2357.603 7        42.938
E24  26004516.201 6 136654654.90906      1783.422 6        40.813
E26  27555856.664 6 144807005.03006     -2423.559 6        38.500
E31  23863569.070 7 125403902.12307       432.111 7        44.688
E33  23990146.955 7 126069073.36907      -336.517 7        44.625
G01  20666201.070 7 108601619.92707      -412.032 7        47.688    20666201.105 6        36.750    20666202.379 6  84624645.97906      -321.068 6        36.750    20666202.476 7  84624641.98507      -321.092 7        44.500    20666201.145 7 108601615.42807      -412.011 7        45.938
G07  20997501.802 7 110342615.90907     -2405.855 7        46.688    20997501.828 5        35.250    20997500.044 5  85981252.43305     -1874.696 5        35.250    20997499.982 7  85981252.42807     -1874.688 7        43.938    20997501.821 7 110342617.40707     -2405.818 7        44.875
G13  23694180.282 6 124513756.29106      -189.234 6        41.188    23694180.344 4        24.938    23694178.677 4  97023702.93004      -147.455 4        24.938    23694178.361 6  97023696.94606      -147.602 6        39.063    23694180.529 6 124513751.80206      -189.355 6        39.188
G14  21090958.860 7 110833736.95807      1314.132 7        47.500    21090958.891 6        36.438    21090957.639 6  86363946.97006      1023.995 6        36.438    21090957.783 7  86363940.97307      1023.991 7        44.375    21090958.859 7 110833733.45907      1314.127 7        45.688
G17  20958214.448 7 110136160.40307       773.909 7        47.625    20958214.474 6        36.500    20958212.625 6  85820379.23306       603.050 6        36.500    20958212.622 7  85820379.23707       603.001 7        44.313    20958214.544 7 110136157.89907       773.998 7        45.813
G19  23335802.321 7 122630465.34207      2594.963 7        42.625    23335802.356 4        27.563    23335799.453 4  95556195.53004      2022.053 4        27.563    23335799.314 6  95556187.52006      2022.102 6        40.188    23335802.057 6 122630462.85106      2594.989 6        40.813
G21  22620606.526 7 118872089.05907     -2665.533 7        44.563    22620606.557 5        31.313    22620604.814 5  92627595.12605     -2077.042 5        31.313    22620604.931 7  92627596.12707     -2076.998 7        42.188    22620606.396 7 118872087.55107     -2665.538 7        42.688
G30  20371843.349 8 107054759.20308      -235.105 8        48.313    20371843.375 6        39.938    20371844.422 6  83419296.21906      -183.203 6        39.938    20371844.374 7  83419293.22207      -183.223 7        47.125    20371843.352 7 107054762.70807      -235.158 7        46.438
R12  20134082.544 7 107552656.28107     -1171.322 7        46.313    20134084.080 7  83652071.16107      -911.087 7        47.313
R13  19864269.866 7 106074095.18307      1958.772 7        47.188    19864271.019 8  82502077.85508      1523.472 8        48.125
R22  21755382.062 7 116131706.70507     -3681.436 7        43.000    21755383.184 7  90324665.16907     -2863.285 7        45.000
R23  19097161.301 8 102156934.57108       121.884 8        48.125    19097162.884 8  79455401.25908        94.791 8        50.438
R24  21215712.783 7 113449954.49207      3411.411 7        43.750    21215714.666 7  88238857.45907      2653.307 7        45.250
> 2023 01 08 11 25  0.0000000  0 21
E01  26191586.806 6 137637718.98106     -1407.199 6        40.688
E09  27503256.987 6 144530590.91806     -2121.731 6        38.188
E10  26286943.001 6 138138818.67106      2961.202 6        40.563
E12  24508901.031 7 128795143.37607      2262.698 7        43.500
E24  25902487.310 6 136118489.12606      1790.601 6        41.500
E26  27696214.425 6 145544589.79006     -2492.710 6        38.563
E31  23839903.406 7 125279538.47007       396.330 7        45.063
E33  24013412.847 7 126191336.01207      -478.208 7        45.000
G01  20696063.584 7 108758548.56507      -633.883 7        47.438    20696063.619 6        36.563    20696064.842 6  84746928.02706      -493.931 6        36.563    20696064.986 7  84746924.03107      -493.890 7        44.375    20696063.775 7 108758544.06607      -633.931 7        45.500
G07  21139095.340 7 111086695.08807     -2553.574 7        46.313    21139095.380 5        34.688    21139093.584 5  86561054.38505     -1989.798 5        34.688    21139093.734 7  86561054.38307     -1989.745 7        43.625    21139095.380 7 111086696.58707     -2553.601 7        44.500
G13  23709704.171 6 124595333.91206      -353.953 6        40.813    23709704.229 4        24.500    23709702.031 4  97087269.90504      -275.812 4        24.500    23709702.227 6  97087263.91006      -275.750 6        38.938    23709704.212 6 124595329.41306      -353.911 6        39.000
G14  21017266.847 7 110446483.23007      1266.958 7        47.625    21017266.887 6        36.750    21017265.706 6  86062190.81106       987.244 6        36.750    21017266.013 7  86062184.81107       987.236 7        44.438    21017266.962 7 110446479.73307      1266.910 7        45.750
G17  20917158.946 7 109920412.47107       664.862 7        47.563    20917158.977 6        36.750    20917157.206 6  85652263.95406       518.078 6        36.750    20917157.392 7  85652263.95807       518.115 7        44.500    20917159.062 7 109920409.97407       664.883 7        45.750
G19  23189801.239 7 121863226.76107      2519.511 7        42.813    23189801.261 4        28.125    23189798.848 4  94958347.27704      1963.264 4        28.125    23189798.543 6  94958339.28006      1963.329 6        40.500    23189801.361 6 121863224.26006      2519.605 6        40.938
G21  22776173.283 7 119689598.47907     -2783.072 7        44.125    22776173.309 5        30.875    22776171.624 5  93264615.45205     -2168.619 5        30.875    22776171.629 6  93264616.46206     -2168.677 6        41.938    22776173.329 7 119689596.99307     -2783.104 7        42.250
G30  20390766.177 8 107154199.65008      -427.818 8        48.063    20390766.208 6        39.688    20390767.274 6  83496782.27106      -333.356 6        39.688    20390767.285 7  83496779.27307      -333.385 7        46.938    20390766.267 7 107154203.15207      -427.881 7        46.250
R12  20204608.627 7 107929391.70107     -1340.653 7        46.188    20204610.054 7  83945087.59007     -1042.722 7        47.500
R13  19757648.074 7 105504740.53307      1835.104 7        47.688    19757649.333 8  82059246.44508      1427.390 8        48.250
R22  21964818.929 7 117249695.89907     -3769.583 7        42.250    21964820.339 7  91194212.32707     -2931.965 7        44.250
R23  19097401.162 8 102158219.11708      -129.796 8        48.188    19097402.844 8  79456400.34308      -100.994 8        50.625
R24  21028618.794 7 112449474.31507      3256.928 7        44.500    21028620.076 7  87460706.18707      2533.220 7        45.750
> 2023 01 08 11 30  0.0000000  0 22
E01  26273272.564 6 138066980.61606     -1454.473 6        40.250
E09  27624865.212 6 145169647.09306     -2137.228 6        37.563
E10  26119281.284 6 137257749.51406      2912.120 6        40.438
E12  24382590.189 7 128131375.31607      2161.801 7        43.500
E24  25800133.508 6 135580616.05106      1794.989 6        41.438
E26  27840384.083 6 146302208.07906     -2556.922 6        37.938
E31  23818406.728 7 125166573.52907       356.491 7        44.813
E33  24044738.672 7 126355954.49007      -618.623 7        44.625
G01  20738558.464 7 108981860.77407      -854.195 7        47.188    20738558.495 6        36.625    20738559.803 6  84920937.53506      -665.603 6        36.625    20738559.817 7  84920933.53207      -665.570 7        44.375    20738558.549 7 108981856.27707      -854.122 7        45.188
G07  21288957.781 7 111874228.58507     -2695.208 7        46.063    21288957.816 5        34.313    21288956.255 5  87174716.84605     -2100.162 5        34.313    21288956.244 7  87174716.85307     -2100.199 7        43.438    21288958.053 7 111874230.08307     -2695.202 7        44.125
G13  23734539.906 6 124725845.63406      -515.135 6        40.938    23734539.973 4        25.063    23734537.594 4  97188967.33904      -401.396 4        25.063    23734537.702 6  97188961.34406      -401.388 6        39.063    23734539.662 6 124725841.13506      -515.141 6        38.875
G14  20946411.358 7 110074134.87307      1214.996 7        47.813    20946411.398 6        37.500    20946410.213 6  85772049.22406       946.754 6        37.500    20946410.568 7  85772043.23107       946.729 7        44.688    20946411.371 7 110074131.37407      1214.990 7        45.813
G17  20882267.249 7 109737055.53707       558.342 7        47.875    20882267.280 6        37.375    20882265.484 6  85509388.41206       435.072 6        37.375    20882265.539 7  85509388.41407       435.064 7        44.625    20882267.378 7 109737053.03707       558.321 7        45.750
G19  23048185.270 7 121119030.41307      2441.689 7        43.250    23048185.278 4        29.250    23048182.835 4  94378454.00604      1902.615 4        29.250    23048183.109 6  94378446.00606      1902.611 6        41.000    23048185.789 6 121119027.91206      2441.742 6        41.063
G21  22938239.650 7 120541263.38207     -2892.881 7        43.938    22938239.672 5        30.688    22938238.041 5  93928250.44205     -2254.189 5        30.688    22938238.053 6  93928251.43706     -2254.210 6        41.875    22938239.681 6 120541261.89006     -2892.950 6        41.813
G30  20420722.956 8 107311623.97808      -621.366 8        48.063    20420722.987 6        39.875    20420724.093 6  83619450.56906      -484.177 6        39.875    20420724.092 7  83619447.57507      -484.202 7        46.813    20420723.042 7 107311627.47907      -621.329 7        46.000
R12  20284727.225 7 108357371.89007     -1512.536 7        46.063    20284728.696 7  84277961.06207     -1176.475 7        47.375
R13  19658306.667 7 104974263.10007      1699.843 7        47.938    19658308.253 8  81646652.88808      1322.055 8        48.313
R14  23382221.024 6 124640394.25706      3673.675 6        38.000    23382222.279 6  96942533.05006      2857.311 6        41.563
R22  22178879.111 6 118392362.78606     -3845.704 6        41.875    22178880.181 7  92082953.24307     -2991.103 7        43.625
R23  19111664.368 8 102234518.30508      -377.743 8        48.000    19111665.980 8  79515744.15308      -293.808 8        50.438
R24  20850470.364 7 111496833.63007      3092.783 7        44.500    20850471.547 7  86719763.43307      2405.498 7        46.063
> 2023 01 08 11 35  0.0000000  0 22
E01  26357681.445 6 138510551.04806     -1503.077 6        40.250
E09  27747158.773 6 145812305.31606     -2146.156 6        37.375
E10  25954566.070 6 136392165.60206      2857.331 6        40.813
E12  24262154.322 7 127498480.99907      2056.458 7        44.063
E24  25697567.968 6 135041630.74006      1797.616 6        41.688
E26  27988025.338 6 147078065.71806     -2614.822 6        37.813
E31  23799266.241 7 125065988.65407       313.326 7        44.875
E33  24083985.452 7 126562196.90207      -756.005 7        44.813
G01  20793514.169 7 109270654.13807     -1070.698 7        47.000    20793514.204 6        36.250    20793515.371 6  85145971.31906      -834.310 6        36.250    20793515.427 7  85145967.32307      -834.343 7        44.313    20793514.138 7 109270649.64307     -1070.687 7        45.750
G07  21446674.303 7 112703033.59007     -2829.043 7        45.688    21446674.338 5        33.688    21446672.623 5  87820538.92505     -2204.441 5        33.688    21446672.766 7  87820538.91807     -2204.379 7        43.063    21446674.541 7 112703035.09407     -2829.053 7        44.313
G13  23768416.425 6 124903867.82606      -671.026 6        40.813    23768416.465 4        24.625    23768414.120 4  97327685.93304      -522.877 4        24.625    23768414.091 6  97327679.92906      -522.832 6        38.938    23768416.112 6 124903863.34806      -671.142 6        39.500
G14  20878620.451 8 109717890.83508      1159.072 8        48.063    20878620.486 6        37.750    20878619.244 6  85494456.46006       903.177 6        37.750    20878619.357 7  85494450.46707       903.173 7        44.938    20878620.434 7 109717887.33307      1159.156 7        46.563
G17  20853337.172 7 109585025.35107       455.633 7        47.938    20853337.207 6        37.500    20853335.143 6  85390923.32406       355.042 6        37.500    20853335.142 7  85390923.32507       355.071 7        44.750    20853336.907 7 109585022.85307       455.659 7        46.438
G19  22911032.445 7 120398284.49407      2362.874 7        43.500    22911032.453 4        29.875    22911029.438 4  93816833.80304      1841.201 4        29.875    22911029.664 6  93816825.81106      1841.094 6        41.375    22911032.113 6 120398281.99206      2362.901 6        41.938
G21  23106298.384 7 121424417.36507     -2993.526 7        43.563    23106298.401 5        30.000    23106296.677 5  94616422.37005     -2332.622 5        30.000    23106297.152 6  94616423.35906     -2332.482 6        41.625    23106298.316 7 121424415.86307     -2993.436 7        42.125
G30  20461677.241 7 107526839.33507      -813.395 7        47.938    20461677.285 6        39.500    20461678.222 6  83787150.84406      -633.810 6        39.500    20461678.436 7  83787147.84307      -633.827 7        46.688    20461677.255 7 107526842.84007      -813.469 7        46.500
R12  20374516.392 7 108837008.57307     -1685.307 7        45.563    20374517.488 7  84651011.81107     -1310.786 7        47.063
R13  19566844.944 7 104485863.16307      1554.217 7        47.438    19566846.426 8  81266786.26508      1208.773 8        48.625
R14  23174872.443 6 123535111.15006      3693.419 6        38.875    23174873.858 6  96082868.40706      2872.518 6        41.938
R22  22396834.807 6 119555823.60606     -3908.768 6        41.313    22396836.217 7  92987867.18707     -3040.062 7        42.875
R23  19139650.775 7 102384224.95007      -619.463 7        47.813    19139652.148 8  79632182.64208      -481.792 8        50.438
R24  20681738.907 7 110594553.55507      2920.932 7        44.813    20681740.844 7  86017990.02707      2271.819 7        46.125
> 2023 01 08 11 40  0.0000000  0 23
E01  26444890.997 6 138968841.18006     -1552.285 6        39.875
E09  27869747.376 6 146456510.36106     -2147.244 6        36.938
E10  25793115.120 6 135543734.97906      2798.012 6        40.813
E12  24147845.476 7 126897784.74407      1947.658 7        44.250
E24  25594910.800 6 134502163.25706      1798.452 6        41.375
E26  28138789.076 6 147870336.03606     -2666.063 6        37.188
E31  23782666.538 7 124978756.61807       267.734 7        44.563
E33  24130982.476 7 126809168.54107      -889.693 7        44.375
G01  20860695.972 7 109623697.41707     -1282.003 7        47.063    20860696.012 5        35.875    20860697.199 5  85421069.97005      -998.971 5        35.875    20860697.298 7  85421065.97407      -999.033 7        44.125    20860696.113 7 109623692.92107     -1281.982 7        45.313
G06  24286230.838 6 127625002.69206      3807.000 6        39.000    24286230.905 3        22.000    24286231.602 3  99448059.18303      2966.502 3        22.000    24286231.883 6  99448058.17606      2966.448 6        37.875    24286230.562 6 127625005.19106      3806.900 6        37.250
G07  21611796.536 7 113570755.73007     -2954.286 7        45.625    21611796.576 5        32.938    21611794.625 5  88496686.04005     -2302.050 5        32.938    21611794.384 7  88496686.03407     -2301.947 7        42.750    21611796.479 7 113570757.22907     -2954.218 7        43.750
G13  23811017.985 6 125127742.82406      -820.390 6        41.063    23811018.016 4        24.500    23811016.038 4  97502133.97504      -639.269 4        24.500    23811016.649 6  97502127.96706      -639.261 6        38.750    23811018.207 6 125127738.30906      -820.358 6        39.125
G14  20814128.365 8 109378983.44108      1099.700 8        48.313    20814128.400 6        37.813    20814127.264 6  85230372.76506       856.905 6        37.813    20814127.407 7  85230366.76607       856.860 7        44.938    20814128.446 7 109378979.94307      1099.642 7        46.500
G17  20830145.252 8 109463152.51708       357.642 8        48.125    20830145.287 6        37.625    20830143.528 6  85295957.47206       278.678 6        37.625    20830143.412 7  85295957.47607       278.686 7        44.875    20830145.311 7 109463150.01807       357.610 7        46.313
G19  22778396.677 7 119701280.82107      2283.817 7        44.000    22778396.685 5        30.250    22778394.160 5  93273714.04705      1779.598 5        30.250    22778394.255 6  93273706.05306      1779.647 6        41.688    22778396.641 7 119701278.33607      2283.770 7        42.063
G21  23279831.016 7 122336337.73407     -3084.280 7        43.375    23279831.051 4        29.000    23279829.389 4  95327009.66304     -2403.339 4        29.000    23279829.565 6  95327010.67206     -2403.413 6        41.000    23279831.022 6 122336336.25106     -3084.417 6        41.438
G30  20513537.441 8 107799367.38608     -1002.850 8        48.250    20513537.481 6        39.125    20513538.577 6  83999510.35506      -781.450 6        39.125    20513538.707 7  83999507.35907      -781.487 7        46.375    20513537.545 7 107799370.89307     -1002.945 7        46.313
R12  20474002.488 7 109368446.76507     -1857.447 7        45.813    20474004.031 7  85064352.62407     -1444.685 7        46.875
R13  19483848.628 7 104042666.85707      1398.862 7        47.438    19483849.961 8  80922078.00608      1088.025 8        49.313
R14  22966632.423 6 122425068.61606      3705.855 6        39.563    22966633.207 7  95219501.97107      2882.199 7        42.063
R22  22617970.993 6 120736264.99106     -3958.743 6        40.563    22617972.336 7  93905988.26307     -3078.944 7        42.375
R23  19180985.555 7 102605340.01107      -853.292 7        47.563    19180987.266 8  79804161.01908      -663.639 8        49.938
R24  20522851.778 7 109744911.51307      2742.434 7        45.125    20522853.152 7  85357157.31407      2132.988 7        46.375
> 2023 01 08 11 45  0.0000000  0 24
E01  26534978.568 6 139442255.30506     -1603.816 6        39.750
E09  27992249.791 6 147100266.44706     -2143.261 6        36.688
E10  25635244.691 6 134714120.98506      2731.983 6        41.125
E12  24039903.914 7 126330547.73807      1833.403 7        44.563
E24  25492300.878 6 133962945.93706      1795.866 6        41.875
E26  28292336.990 6 148677234.74606     -2712.350 6        36.563
E31  23768803.212 7 124905904.16207       217.474 7        44.688
E33  24185543.192 7 127095886.84907     -1021.038 7        44.188
G01  20939823.284 7 110039513.86507     -1489.046 7        46.625    20939823.315 5        35.438    20939824.439 5  85745082.77805     -1160.295 5        35.438    20939824.366 7  85745078.78307     -1160.214 7        44.125    20939823.091 7 110039509.36407     -1489.030 7        44.938
G03  24594125.621 6 129243000.89106      2245.897 6        39.063    24594125.634 3        21.750    24594126.313 3 100708836.30103      1750.041 3        21.750    24594126.378 6 100708834.31106      1750.050 6        38.063    24594125.832 6 129242998.39606      2245.928 6        37.188
G06  24069424.042 6 126485675.79206      3787.209 6        39.625    24069424.122 3        22.688    24069424.799 3  98560271.97403      2951.072 3        22.688    24069425.228 6  98560270.97606      2951.257 6        38.375    24069424.097 6 126485678.30306      3787.220 6        37.938
G07  21783859.246 7 114474952.62307     -3072.173 7        45.063    21783859.290 5        32.375    21783857.537 5  89201255.03705     -2393.905 5        32.375    21783857.474 7  89201255.03707     -2393.880 7        42.750    21783859.446 7 114474954.12607     -3072.125 7        43.438
G13  23862000.798 6 125395658.67906      -964.520 6        40.750    23862000.829 4        24.375    23861998.805 4  97710899.56404      -751.582 4        24.375    23861999.090 6  97710893.56406      -751.562 6        38.938    23862001.046 6 125395654.17706      -964.551 6        38.875
G14  20753188.263 8 109058740.39708      1034.648 8        48.125    20753188.307 6        38.000    20753187.075 6  84980832.72406       806.219 6        38.000    20753187.170 7  84980826.72607       806.215 7        45.313    20753188.126 7 109058736.89607      1034.643 7        46.438
G17  20812464.932 8 109370240.97608       262.594 8        48.063    20812464.958 6        37.500    20812463.006 6  85223558.86006       204.619 6        37.500    20812463.367 7  85223558.85907       204.578 7        45.000    20812464.892 7 109370238.47307       262.636 7        46.313
G19  22650326.009 7 119028263.66007      2202.995 7        44.125    22650326.040 5        30.750    22650323.326 5  92749285.07905      1716.619 5        30.750    22650323.338 7  92749277.08007      1716.599 7        42.063    22650325.900 7 119028261.15907      2203.000 7        42.313
G21  23458324.813 7 123274328.85907     -3167.331 7        42.875    23458324.844 4        28.250    23458323.165 4  96057911.83804     -2468.046 4        28.250    23458323.239 6  96057912.83506     -2467.915 6        40.625    23458324.949 6 123274327.36706     -3167.362 6        41.125
G30  20576172.120 8 108128514.50708     -1190.770 8        48.125    20576172.160 6        38.813    20576173.270 6  84255988.62706      -927.873 6        38.813    20576173.304 7  84255985.62807      -927.787 7        46.313    20576172.186 7 108128518.00407     -1190.660 7        46.313
R12  20583175.874 7 109951631.42107     -2030.127 7        45.563    20583177.427 7  85517940.68807     -1578.983 7        46.750
R13  19409896.845 7 103647769.23307      1232.304 7        47.438    19409898.321 8  80614935.40908       958.401 8        49.563
R14  22757957.763 6 121312718.44206      3708.521 6        40.313    22757958.964 7  94354340.70607      2884.496 7        42.438
R22  22841603.133 6 121930030.52506     -3997.679 6        39.813    22841604.410 7  94834472.57007     -3109.360 7        42.000
R23  19235240.991 7 102895569.43907     -1080.018 7        47.250    19235242.593 8  80029895.01008      -839.985 8        49.938
R24  20374198.471 7 108949996.57907      2556.182 7        45.688    20374200.192 7  84738890.12807      1988.200 7        46.563
> 2023 01 08 11 50  0.0000000  0 23
E01  26628008.151 6 139931127.44606     -1655.541 6        39.875
E10  25481258.164 6 133904915.47306      2661.828 6        41.875
E11  27627371.082 6 145182814.04706      3069.708 6        36.875
E12  23938544.815 7 125797901.21507      1716.710 7        44.938
E24  25389886.269 7 133424752.60707      1791.541 7        42.188
E31  23757869.190 7 124848446.21207       164.819 7        44.938
E33  24247453.823 7 127421229.19907     -1147.374 7        44.188
G01  21030560.204 7 110516339.40207     -1688.790 7        46.438    21030560.235 5        35.250    21030561.291 5  86116635.13805     -1315.940 5        35.250    21030561.425 7  86116631.13607     -1315.915 7        44.063    21030560.113 7 110516334.90807     -1688.900 7        45.000
G03  24466972.444 6 128574805.33606      2206.941 6        39.125    24466972.445 3        22.375    24466972.940 3 100188164.41603      1719.691 3        22.375    24466973.059 6 100188162.44906      1719.564 6        38.188    24466972.346 6 128574802.84606      2206.847 6        37.875
G06  23853948.059 6 125353342.13906      3759.846 6        40.125    23853948.126 3        23.938    23853949.288 3  97677934.05303      2929.755 3        23.938    23853948.917 6  97677933.05106      2929.853 6        38.813    23853948.329 6 125353344.62806      3760.057 6        38.688
G07  21962373.279 7 115413049.83307     -3180.389 7        44.563    21962373.296 5        31.750    21962371.476 5  89932239.87605     -2478.226 5        31.750    21962371.635 7  89932239.88407     -2478.344 7        42.375    21962373.373 7 115413051.34107     -3180.484 7        43.188
G13  23920981.012 6 125705602.45606     -1100.699 6        40.375    23920981.052 4        24.188    23920979.382 4  97952414.18604      -857.687 4        24.188    23920979.425 6  97952408.20406      -857.904 6        38.750    23920981.140 6 125705597.94206     -1100.630 6        39.125
G14  20696057.807 8 108758518.08308       965.939 8        48.000    20696057.851 6        38.313    20696056.615 6  84746893.25206       752.675 6        38.313    20696056.748 7  84746887.25007       752.724 7        45.500    20696057.859 7 108758514.58207       966.012 7        46.625
G17  20800053.233 7 109305018.76307       172.854 7        47.938    20800053.255 6        37.750    20800051.642 6  85172736.34706       134.691 6        37.750    20800051.694 7  85172736.35007       134.757 7        45.188    20800053.517 7 109305016.26207       172.896 7        46.500
G19  22526845.729 7 118379371.31907      2122.835 7        44.188    22526845.751 5        31.125    22526843.119 5  92243654.67305      1654.153 5        31.125    22526843.101 7  92243646.68307      1654.104 7        42.188    22526845.909 7 118379368.81807      2122.924 7        42.625
G21  23641262.840 7 124235676.36807     -3240.286 7        42.375    23641262.898 4        27.625    23641261.390 4  96807013.78104     -2524.898 4        27.625    23641261.443 6  96807014.78206     -2524.780 6        40.188    23641263.267 6 124235674.88306     -3240.334 6        40.938
G30  20649397.458 8 108513316.77508     -1374.034 8        48.063    20649397.489 6        38.625    20649398.639 6  84555834.54206     -1070.676 6        38.625    20649398.721 7  84555831.53907     -1070.574 7        45.938    20649397.673 7 108513320.27507     -1374.071 7        46.563
R12  20701976.748 7 110586243.30707     -2200.376 7        45.063    20701977.822 7  86011527.70107     -1711.420 7        46.563
R13  19345546.619 7 103304143.13507      1056.855 7        47.313    19345548.127 8  80347670.65208       822.081 8        49.750
R14  22549337.488 6 120200654.98306      3703.536 6        40.938    22549338.469 7  93489402.45107      2880.520 7        42.875
R22  23067066.968 6 123133570.41806     -4024.177 6        39.313    23067068.418 6  95770559.13806     -3129.849 6        41.750
R23  19301926.781 7 103252294.30707     -1296.628 7        46.938    19301928.724 8  80307347.68208     -1008.514 8        49.750
R24  20236120.167 7 108211628.55607      2365.305 7        45.813    20236121.662 7  84164603.88407      1839.703 7        46.688
> 2023 01 08 11 55  0.0000000  0 23
E01  26724033.190 6 140435742.86806     -1709.311 6        39.438
E10  25331447.809 6 133117657.14706      2585.320 6        41.938
E11  27452689.645 6 144264857.12106      3048.514 6        37.063
E12  23843961.972 7 125300865.13707      1595.828 7        44.813
E24  25287826.061 7 132888422.28207      1783.023 7        42.313
E31  23750059.286 7 124807405.01207       107.755 7        44.750
E33  24316480.350 7 127783966.26107     -1270.610 7        43.938
G01  21132524.743 7 111052167.98007     -1882.616 7        46.438    21132524.774 5        35.000    21132526.149 5  86534163.89605     -1466.978 5        35.000    21132526.217 7  86534159.89307     -1466.925 7        43.563    21132524.889 7 111052163.47707     -1882.527 7        44.500
G03  24342368.411 6 127920007.37306      2156.220 6        39.750    24342368.451 3        23.313    24342369.340 3  99677932.23603      1680.180 3        23.313    24342368.907 6  99677930.24406      1680.266 6        38.125    24342368.282 6 127920004.87706      2156.157 6        37.813
G06  23640301.975 6 124230624.42206      3722.835 6        41.000    23640302.037 4        24.750    23640302.898 4  96803089.07104      2900.919 4        24.750    23640303.024 6  96803088.08006      2900.824 6        38.750    23640301.925 6 124230626.92406      3722.946 6        39.000
G07  22146831.145 7 116382381.60207     -3280.750 7        44.313    22146831.149 5        31.188    22146829.153 5  90687563.32405     -2556.433 5        31.188    22146829.341 6  90687563.33006     -2556.322 6        41.938    22146830.854 7 116382383.09807     -3280.724 7        42.375
G13  23987545.059 6 126055399.22106     -1230.540 6        40.438    23987545.072 3        23.938    23987543.402 3  98224983.09303      -958.871 3        23.938    23987543.588 6  98224977.09806      -958.867 6        38.438    23987545.128 6 126055394.72106     -1230.383 6        38.500
G14  20643004.141 8 108479718.98908       891.469 8        48.125    20643004.172 6        38.625    20643002.920 6  84529647.19406       694.652 6        38.625    20643003.018 7  84529641.19807       694.602 7        45.500    20643004.000 7 108479715.49307       891.412 7        46.250
G17  20792661.463 8 109266173.87908        86.372 8        48.063    20792661.489 6        38.000    20792659.697 6  85142467.60106        67.303 6        38.000    20792659.731 7  85142467.60407        67.237 7        44.875    20792661.556 7 109266171.37807        86.393 7        46.188
G19  22407967.633 7 117754663.27307      2041.450 7        44.563    22407967.641 5        31.688    22407965.065 5  91756869.17705      1590.744 5        31.688    22407965.159 7  91756861.18207      1590.695 7        42.063    22407967.866 7 117754660.78107      2041.308 7        42.625
G21  23828133.207 7 125217685.26707     -3305.475 7        42.188    23828133.265 4        26.875    23828131.552 4  97572215.52304     -2575.687 4        26.875    23828131.469 6  97572216.51006     -2575.523 6        39.438    23828133.087 6 125217683.75806     -3305.349 6        40.250
G30  20732985.142 8 108952572.24808     -1554.009 8        48.188    20732985.168 6        38.563    20732986.140 6  84898111.52906     -1210.920 6        38.563    20732986.101 7  84898108.53607     -1210.920 7        45.313    20732985.163 7 108952575.75207     -1553.988 7        46.313
R12  20830300.135 7 111271724.37607     -2369.498 7        44.875    20830301.401 7  86544679.63807     -1842.951 7        45.938
R13  19291330.913 7 103014634.04807       871.212 7        47.375    19291332.454 8  80122496.91508       677.580 8        49.813
R14  22341289.245 6 119091638.73706      3687.886 6        41.625    22341290.175 7  92626834.26407      2868.355 7        43.250
R22  23293723.764 6 124343477.49606     -4040.640 6        38.438    23293724.902 6  96711597.99106     -3142.662 6        41.563
R23  19380504.416 7 103672628.65107     -1504.321 7        47.125    19380505.617 8  80634274.38308     -1170.044 8        49.438
R24  20108907.774 7 107531367.38407      2168.583 7        46.063    20108909.394 7  83635511.85607      1686.663 7        46.938
> 2023 01 08 12 00  0.0000000  0 23
E01  26823099.152 6 140956338.52206     -1762.076 6        39.000
E10  25186096.049 6 132353828.32306      2505.406 6        41.750
E11  27279332.213 6 143353857.82606      3023.385 6        37.250
E12  23756328.012 7 124840346.01307      1473.312 7        44.438
E24  25186292.713 7 132354861.17507      1772.781 7        42.000
E31  23745568.888 7 124783807.38807        48.478 7        44.375
E33  24392370.913 7 128182774.35207     -1387.907 7        43.250
G01  21245294.559 7 111644777.35007     -2067.321 7        46.250    21245294.594 5        34.563    21245295.892 5  86995937.42305     -1610.891 5        34.563    21245296.009 7  86995933.43007     -1610.969 7        43.563    21245294.753 7 111644772.85207     -2067.447 7        44.250
G03  24220908.251 6 127281730.31506      2096.623 6        40.125    24220908.238 3        23.563    24220909.071 3  99180573.48103      1633.728 3        23.563    24220909.229 6  99180571.50206      1633.748 6        38.563    24220908.410 6 127281727.80906      2096.539 6        38.188
G06  23428986.737 6 123120155.63806      3678.294 6        41.688    23428986.790 4        25.813    23428987.829 4  95937788.70804      2866.211 4        25.813    23428987.797 6  95937787.71606      2866.117 6        39.313    23428986.708 6 123120158.14106      3678.273 6        39.625
G07  22336711.227 7 117380209.88907     -3370.501 7        43.938    22336711.244 5        30.438    22336709.617 5  91465091.86005     -2626.368 5        30.438    22336709.500 6  91465091.85406     -2626.315 6        41.750    22336711.254 6 117380211.39306     -3370.559 6        41.938
G13  24061252.135 6 126442730.61006     -1351.022 6        40.125    24061252.161 3        23.625    24061250.257 3  98526799.74803     -1052.745 3        23.625    24061250.003 6  98526793.75906     -1052.651 6        38.500    24061252.279 6 126442726.12606     -1351.043 6        38.250
G14  20594301.812 8 108223786.93908       813.364 8        48.188    20594301.843 6        38.750    20594300.677 6  84330219.61506       633.794 6        38.750    20594300.724 7  84330213.61307       633.819 7        45.938    20594301.918 7 108223783.43607       813.369 7        46.125
G17  20790034.453 8 109252368.57608         5.828 8        48.125    20790034.479 6        37.938    20790032.646 6  85131710.21106         4.537 6        37.938    20790032.660 7  85131710.22207         4.476 7        45.188    20790034.448 7 109252366.08007         5.786 7        46.063
G19  22293689.533 7 117154126.41807      1961.568 7        44.813    22293689.564 5        31.938    22293686.700 5  91288918.36605      1528.495 5        31.938    22293686.748 7  91288910.36807      1528.466 7        42.313    22293689.268 7 117154123.91507      1961.600 7        42.813
G21  24018428.578 6 126217695.27306     -3360.506 6        41.750    24018428.609 4        25.875    24018427.134 4  98351444.08304     -2618.576 4        25.875    24018427.344 6  98351445.09306     -2618.552 6        39.375    24018428.781 6 126217693.77206     -3360.464 6        39.875
G30  20826663.182 8 109444854.09108     -1727.525 8        48.313    20826663.213 6        38.125    20826664.272 6  85281707.76306     -1346.119 6        38.125    20826664.427 7  85281704.77307     -1346.205 7        45.063    20826663.213 7 109444857.59007     -1727.540 7        46.313
R12  20967998.046 7 112007283.43307     -2534.240 7        44.750    20967999.546 7  87116781.11407     -1971.050 7        46.000
R13  19247753.672 7 102781933.00207       678.141 7        47.313    19247755.093 8  79941507.19908       527.464 8        50.063
R14  22134360.427 7 117988595.35907      3663.429 7        42.063    22134361.703 7  91768911.61207      2849.301 7        43.875
R22  23520963.578 6 125556497.76406     -4045.118 6        38.000    23520964.606 6  97655058.19706     -3146.099 6        40.938
R23  19470390.185 7 104153459.36707     -1699.968 7        47.313    19470391.758 8  81008253.82108     -1322.135 8        49.250
R24  19992802.822 7 106910502.43607      1969.412 7        46.438    19992804.642 7  83152616.88507      1531.711 7        46.938
> 2023 01 08 12 05  0.0000000  0 22
E01  26925240.991 6 141493097.49506     -1815.221 6        38.750
E10  25045472.306 7 131614845.72507      2421.405 7        42.000
E11  27107596.290 6 142451379.59206      2993.368 6        37.750
E12  23675792.512 7 124417129.09307      1348.863 7        44.563
E24  25085470.722 7 131825038.21207      1759.748 7        42.125
E31  23744592.300 7 124778675.86707       -13.716 7        44.438
E33  24474857.210 7 128616242.08407     -1499.940 7        43.063
G01  21368409.469 7 112291749.98007     -2243.228 7        46.125    21368409.500 5        34.000    21368410.779 5  87500071.93605     -1747.969 5        34.000    21368410.719 7  87500067.93707     -1747.986 7        43.125    21368409.514 7 112291745.48907     -2243.343 7        44.063
G03  24103186.294 6 126663095.86206      2027.077 6        40.438    24103186.320 3        23.813    24103186.623 3  98698520.64303      1579.533 3        23.813    24103186.677 6  98698518.66906      1579.307 6        38.438    24103186.241 6 126663093.36306      2027.030 6        38.500
G06  23220503.010 7 122024566.79107      3625.202 7        42.250    23220503.059 4        26.563    23220504.209 4  95084083.10304      2824.833 4        26.563    23220504.331 6  95084082.09406      2824.959 6        39.500    23220503.169 6 122024569.27506      3625.501 6        40.125
G07  22531482.092 7 118403736.96307     -3450.393 7        43.375    22531482.132 4        29.250    22531480.238 4  92262645.41804     -2688.622 4        29.250    22531480.621 6  92262645.42106     -2688.639 6        41.125    22531482.177 6 118403738.46406     -3450.351 6        41.375
G13  24141635.222 6 126865147.65206     -1462.571 6        40.000    24141635.253 3        23.000    24141633.236 3  98855955.87403     -1139.666 3        23.000    24141633.397 6  98855949.87706     -1139.637 6        38.500    24141635.174 6 126865143.14506     -1462.524 6        38.125
G14  20550231.379 8 107992195.38708       730.860 8        48.250    20550231.410 6        38.750    20550230.221 6  84149758.65706       569.501 6        38.750    20550230.277 7  84149752.66407       569.534 7        46.063    20550231.526 7 107992191.88807       730.881 7        46.125
G17  20791914.380 8 109262247.47608       -69.808 8        48.125    20791914.424 6        37.875    20791912.517 6  85139408.04906       -54.400 6        37.875    20791912.591 7  85139408.04707       -54.330 7        45.125    20791914.301 7 109262244.97407       -69.761 7        46.125
G19  22183994.155 7 116577675.70207      1882.606 7        45.063    22183994.186 5        32.188    22183991.812 5  90839735.98405      1466.970 5        32.188    22183991.763 7  90839727.98507      1467.023 7        42.375    22183994.218 7 116577673.20607      1882.632 7        42.938
G21  24211651.703 6 127233088.88206     -3406.335 6        41.313    24211651.756 4        24.875    24211650.207 4  99142659.88804     -2654.283 4        24.875    24211650.375 6  99142660.86206     -2654.062 6        38.813    24211651.668 6 127233087.37906     -3406.387 6        39.375
G30  20930119.514 8 109988519.46708     -1894.724 8        48.125    20930119.545 6        37.563    20930120.305 6  85705343.11406     -1476.404 6        37.563    20930120.370 7  85705340.11707     -1476.392 7        44.625    20930119.405 7 109988522.96907     -1894.745 7        46.125
R12  21114879.254 7 112791897.17907     -2694.681 7        44.313    21114880.913 7  87727036.25507     -2095.872 7        46.125
R13  19215283.305 7 102608543.92607       477.647 7        47.438    19215284.741 8  79806649.02408       371.483 8        50.125
R14  21929131.155 7 116894608.12307      3629.154 7        42.625    21929132.705 7  90918032.65307      2822.609 7        44.438
R23  19570967.799 7 104691480.45007     -1883.792 7        47.375    19570969.436 8  81426714.66108     -1465.184 8        48.625
R24  19887993.647 7 106350041.43907      1767.781 7        46.875    19887995.575 7  82716702.76007      1374.983 7        47.063
> 2023 01 08 12 10  0.0000000  0 22
E01  27030481.640 6 142046140.17806     -1870.540 6        39.125
E10  24909831.225 7 130902047.64907      2330.955 7        42.688
E11  26937774.178 6 141558957.55906      2956.346 6        38.500
E12  23602479.755 7 124031867.82707      1220.408 7        45.063
E24  24985554.766 7 131299976.51707      1741.182 7        42.875
E31  23747321.212 7 124793015.89107       -81.269 7        44.938
E33  24563654.301 7 129082873.59007     -1608.882 7        43.375
G01  21501375.472 7 112990491.26507     -2412.287 7        45.688    21501375.498 5        33.688    21501376.846 5  88044545.65905     -1879.708 5        33.688    21501376.851 7  88044541.65807     -1879.708 7        43.375    21501375.743 7 112990486.77507     -2412.324 7        43.563
G03  23989791.008 6 126067202.72806      1944.946 6        40.563    23989791.000 4        24.500    23989792.008 4  98234188.33304      1515.547 4        24.500    23989792.183 6  98234186.33006      1515.534 6        39.000    23989791.454 6 126067200.21906      1945.057 6        38.563
G06  23015348.216 7 120946470.50907      3561.705 7        42.563    23015348.256 4        28.000    23015349.265 4  94244008.06704      2775.359 4        28.000    23015349.254 6  94244007.05906      2775.293 6        40.625    23015348.162 6 120946473.00606      3561.637 6        40.500
G07  22730601.095 7 119450113.76407     -3522.729 7        42.688    22730601.108 4        28.250    22730599.198 4  93078003.95404     -2744.983 4        28.250    22730599.229 6  93078003.94706     -2745.000 6        40.813    22730601.091 6 119450115.25506     -3522.660 6        40.563
G13  24228205.739 6 127320080.31206     -1567.645 6        39.563    24228205.765 3        23.063    24228203.903 3  99210448.86203     -1221.542 3        23.063    24228204.128 6  99210442.86706     -1221.632 6        38.688    24228206.027 6 127320075.80806     -1567.514 6        37.500
G14  20511075.995 8 107786431.44408       641.246 8        48.000    20511076.021 6        39.063    20511074.709 6  83989423.10806       499.668 6        39.063    20511074.806 7  83989417.10707       499.705 7        46.500    20511075.728 7 107786427.94407       641.240 7        45.938
G17  20798040.710 8 109294441.72808      -142.937 8        48.000    20798040.750 6        38.063    20798038.859 6  85164494.47506      -111.384 6        38.063    20798038.919 7  85164494.47507      -111.289 7        45.438    20798040.607 7 109294439.22907      -142.942 7        45.875
G19  22078852.453 7 116025151.83307      1802.141 7        45.063    22078852.475 5        32.563    22078849.934 5  90409197.89305      1404.266 5        32.563    22078850.107 7  90409189.88807      1404.401 7        42.813    22078852.764 7 116025149.32307      1802.199 7        43.063
G21  24407312.866 6 128261294.61206     -3445.800 6        40.563    24407312.933 4        24.313    24407311.105 4  99943859.14204     -2685.043 4        24.313    24407311.489 6  99943860.15706     -2685.219 6        38.813    24407312.746 6 128261293.11006     -3445.848 6        38.625
G30  21043001.030 7 110581716.64807     -2057.588 7        47.563    21043001.056 6        36.938    21043002.066 6  86167574.67706     -1603.315 6        36.938    21043002.186 7  86167571.67607     -1603.336 7        44.750    21043000.945 7 110581720.14307     -2057.520 7        45.375
R12  21270709.633 7 113624312.86307     -2852.746 7        44.063    21270711.045 7  88374470.66607     -2218.811 7        45.875
R13  19194347.319 7 102496746.26207       267.755 7        47.750    19194348.604 8  79719695.27008       208.271 8        50.250
R14  21726206.541 7 115812903.74807      3581.568 7        43.250    21726207.738 7  90076707.00407      2785.664 7        44.750
R23  19681587.352 7 105283220.67907     -2057.950 7        47.563    19681588.964 8  81886957.06008     -1600.636 8        48.250
R24  19794611.688 7 105850685.53907      1562.263 7        47.188    19794613.247 7  82328314.84207      1215.052 7        47.438
> 2023 01 08 12 15  0.0000000  0 22
E01  27138832.655 6 142615528.29806     -1925.897 6        38.688
E10  24779412.831 7 130216693.81307      2236.543 7        42.750
E11  26770152.062 6 140678099.38206      2914.285 6        39.063
E12  23536489.485 7 123685086.43807      1090.504 7        45.000
E24  24886750.630 7 130780757.01207      1718.922 7        42.938
E31  23753943.234 7 124827815.48707      -151.955 7        44.938
E33  24658464.340 7 129581104.36607     -1712.469 7        43.000
G01  21643671.326 7 113738260.47107     -2571.940 7        45.500    21643671.370 5        33.250    21643672.525 5  88627222.95605     -2004.105 5        33.250    21643672.428 7  88627218.95507     -2004.093 7        42.875    21643671.295 7 113738255.96407     -2571.883 7        43.688
G03  23881307.613 6 125497116.80706      1853.052 6        41.125    23881307.621 4        25.125    23881308.357 4  97789965.52604      1443.932 4        25.125    23881308.642 6  97789963.52606      1443.883 6        39.063    23881307.553 6 125497114.30606      1853.099 6        39.250
G06  22814014.847 7 119888456.56907      3489.533 7        43.125    22814014.900 4        29.063    22814015.909 4  93419581.60904      2719.116 4        29.063    22814016.245 6  93419580.61506      2718.944 6        40.938    22814015.030 6 119888459.05706      3489.633 6        41.375
G07  22933519.931 7 120516460.07207     -3585.432 7        42.250    22933519.975 4        26.938    22933518.246 4  93908923.14904     -2793.843 4        26.938    22933518.112 6  93908923.14906     -2793.847 6        40.063    22933520.015 6 120516461.56306     -3585.332 6        40.375
G13  24320456.704 6 127804859.64406     -1663.408 6        39.500    24320456.744 3        22.625    24320454.585 3  99588198.97903     -1296.166 3        22.625    24320454.417 6  99588192.99306     -1296.289 6        38.375    24320456.684 6 127804855.14606     -1663.482 6        37.563
G14  20477120.008 8 107607991.53608       546.818 8        48.125    20477120.039 6        39.250    20477118.674 6  83850379.01706       426.088 6        39.250    20477118.871 7  83850373.02207       426.055 7        46.438    20477119.979 7 107607988.04107       546.718 7        46.125
G17  20808153.764 8 109347585.36008      -211.384 8        48.063    20808153.786 6        38.125    20808151.743 6  85205905.08806      -164.715 6        38.125    20808151.815 7  85205905.09707      -164.706 7        45.313    20808153.677 7 109347582.86707      -211.379 7        46.188
G19  21978221.461 7 115496331.68807      1722.690 7        45.313    21978221.483 5        32.938    21978218.819 5  89997130.24105      1342.356 5        32.938    21978218.755 7  89997122.24407      1342.274 7        42.625    21978221.612 7 115496329.18307      1722.742 7        43.563
G21  24604933.946 6 129299801.53206     -3477.015 6        40.313    24604933.963 3        23.688    24604932.483 3 100753085.32003     -2709.358 3        23.688    24604932.590 6 100753086.32206     -2709.358 6        38.625    24604934.146 6 129299800.03306     -3477.083 6        38.438
G30  21164919.970 7 111222405.86407     -2213.242 7        47.125    21164920.010 6        36.313    21164921.178 6  86666813.02006     -1724.613 6        36.313    21164921.294 7  86666810.01707     -1724.449 7        44.375    21164920.110 7 111222409.35307     -2213.126 7        45.313
R12  21435212.901 7 114503060.58507     -3005.394 7        43.813    21435214.256 7  89057941.10607     -2337.566 7        45.250
R13  19185326.323 7 102448574.12107        51.669 7        47.875    19185327.562 8  79682228.05108        40.166 8        50.125
R14  21526217.261 7 114746850.59307      3522.713 7        43.688    21526218.779 7  89247554.55007      2739.929 7        45.438
R23  19801577.656 7 105925088.16107     -2219.847 7        47.250    19801579.280 7  82386187.30907     -1726.560 7        47.938
R24  19712732.586 7 105412839.84407      1355.894 7        47.438    19712733.666 7  81987768.17307      1054.572 7        47.938
> 2023 01 08 12 20  0.0000000  0 23
E01  27250293.198 6 143201259.13606     -1979.892 6        38.750
E10  24654439.545 7 129559955.55007      2140.029 7        43.313
E11  26605010.850 6 139810276.15606      2869.260 6        39.500
E12  23477895.414 7 123377173.42307       961.078 7        45.250
E24  24789273.600 7 130268511.63407      1694.318 7        43.375
E31  23764641.375 7 124884034.81707      -224.327 7        45.063
E33  24758977.923 7 130109307.17607     -1808.978 7        43.063
G01  21794751.377 7 114532191.77007     -2720.238 7        45.000    21794751.430 5        32.563    21794752.608 5  89245870.71505     -2119.657 5        32.563    21794752.589 7  89245866.72307     -2119.694 7        42.813    21794751.458 7 114532187.27007     -2720.274 7        43.438
G03  23778307.964 6 124955850.70106      1752.728 6        41.063    23778308.013 4        25.313    23778308.695 4  97368199.71404      1365.754 4        25.313    23778309.105 6  97368197.73506      1365.619 6        39.188    23778308.234 6 124955848.20206      1752.733 6        39.688
G06  22616988.800 7 118853076.77507      3410.492 7        43.563    22616988.840 4        29.750    22616989.655 4  92612792.14404      2657.522 4        29.750    22616989.685 6  92612791.15206      2657.612 6        41.813    22616988.760 7 118853079.26207      3410.660 7        42.000
G07  23139686.857 6 121599874.05006     -3636.742 6        41.625    23139686.901 4        25.813    23139685.052 4  94753141.82904     -2833.825 4        25.813    23139685.343 6  94753141.84106     -2833.870 6        39.625    23139686.696 6 121599875.55106     -3636.789 6        39.813
G13  24417861.710 6 128316729.86806     -1748.440 6        39.063    24417861.711 3        21.938    24417859.900 3  99987058.88503     -1362.425 3        21.938    24417859.992 6  99987052.88406     -1362.425 6        38.313    24417862.034 6 128316725.35406     -1748.424 6        37.313
G14  20448647.225 7 107458366.70607       448.848 7        47.938    20448647.260 6        39.188    20448645.999 6  83733788.23206       349.752 6        39.188    20448645.998 7  83733782.23307       349.777 7        46.688    20448647.319 7 107458363.21107       448.833 7        46.250
G17  20821994.727 8 109420321.23708      -273.856 8        48.000    20821994.758 6        37.938    20821992.926 6  85262582.38606      -213.390 6        37.938    20821992.992 7  85262582.38907      -213.398 7        45.375    20821994.748 7 109420318.73607      -273.787 7        46.250
G19  21882046.509 7 114990929.52907      1645.735 7        45.375    21882046.540 5        32.938    21882044.024 5  89603310.36705      1282.387 5        32.938    21882044.055 7  89603302.37007      1282.367 7        42.938    21882046.684 7 114990927.02907      1645.798 7        43.688
G21  24804049.936 6 130346162.75306     -3498.466 6        39.688    24804049.976 3        22.688    24804048.148 3 101568431.71503     -2726.094 3        22.688    24804048.093 6 101568432.73806     -2726.016 6        38.500    24804050.112 6 130346161.26006     -3498.619 6        38.000
G30  21295454.934 7 111908371.39707     -2359.626 7        46.625    21295454.969 5        35.563    21295456.034 5  87201331.61405     -1838.670 5        35.563    21295456.070 7  87201328.62107     -1838.768 7        44.250    21295455.071 7 111908374.90407     -2359.684 7        45.000
R12  21608075.453 7 115426459.92507     -3150.568 7        43.375    21608076.528 7  89776140.58307     -2450.446 7        44.938
R13  19188549.655 7 102465786.63907      -168.283 7        47.563    19188550.752 8  79695615.54808      -130.845 8        50.250
R14  21329820.441 7 113699943.88807      3453.570 7        44.438    21329821.483 7  88433293.77107      2686.156 7        45.688
R17  23223483.248 6 124273548.97106      3545.953 6        37.688    23223484.724 6  96657208.00006      2757.822 6        41.375
R23  19930250.330 7 106613400.57507     -2367.858 7        46.938    19930251.773 7  82921541.40307     -1841.646 7        47.688
R24  19642374.578 7 105036604.80707      1151.413 7        47.125    19642376.163 8  81695140.91808       895.502 8        48.375
> 2023 01 08 12 25  0.0000000  0 23
E01  27364854.547 6 143803281.98306     -2033.504 6        38.125
E10  24535120.140 7 128932927.98607      2039.763 7        43.438
E11  26442625.512 6 138956935.12806      2819.064 6        39.563
E12  23426749.220 7 123108397.78707       830.758 7        45.250
E24  24693351.548 7 129764437.99607      1665.536 7        43.438
E31  23779595.182 7 124962617.62907      -299.952 7        44.875
E33  24864878.629 7 130665819.81607     -1900.110 7        42.688
G01  21954054.911 7 115369336.70707     -2858.902 7        44.875    21954054.946 5        32.125    21954056.005 5  89898191.44205     -2227.720 5        32.125    21954056.056 7  89898187.43607     -2227.593 7        42.625    21954054.696 7 115369332.20707     -2858.844 7        43.063
G03  23681356.056 6 124446364.26106      1642.346 6        41.750    23681356.118 4        25.688    23681356.522 4  96971197.28904      1279.758 4        25.688    23681356.886 6  96971195.29506      1279.832 6        39.438    23681356.165 6 124446361.74206      1642.587 6        40.000
G06  22424749.025 7 117842851.28907      3322.932 7        44.125    22424749.060 5        30.625    22424750.156 5  91825603.44905      2589.294 5        30.625    22424750.307 7  91825602.44407      2589.306 7        42.000    22424749.049 7 117842853.77807      3323.080 7        42.313
G07  23348551.096 6 122697462.85806     -3678.588 6        41.125    23348551.131 4        24.875    23348549.225 4  95608405.83104     -2866.432 4        24.875    23348548.949 6  95608405.82806     -2866.469 6        39.250    23348551.104 6 122697464.36906     -3678.893 6        39.438
G13  24519888.084 6 128852881.96906     -1823.991 6        38.875    24519888.085 3        21.750    24519886.506 3 100404839.74303     -1421.288 3        21.750    24519886.430 6 100404833.75106     -1421.304 6        37.938    24519888.488 6 128852877.50406     -1824.364 6        37.125
G14  20425941.823 8 107339049.01608       345.865 8        48.063    20425941.849 6        39.063    20425940.638 6  83640813.40006       269.506 6        39.063    20425940.665 7  83640807.40207       269.563 7        46.688    20425941.745 7 107339045.52307       345.918 7        46.313
G17  20839312.955 8 109511328.34008      -332.055 8        48.063    20839312.986 6        37.750    20839311.006 6  85333497.00406      -258.748 6        37.750    20839311.131 7  85333497.01307      -258.838 7        45.250    20839312.914 7 109511325.84707      -332.108 7        46.313
G19  21790266.111 7 114508620.26807      1569.868 7        45.563    21790266.142 5        33.188    21790263.569 5  89227484.95905      1223.274 5        33.188    21790263.934 7  89227476.95907      1223.323 7        43.063    21790266.251 7 114508617.76507      1569.895 7        44.000
G21  25004211.653 6 131398019.80106     -3512.481 6        39.250    25004211.720 3        21.938    25004210.311 3 102388060.57803     -2736.990 3        21.938    25004210.408 6 102388061.59206     -2737.023 6        38.125    25004211.919 6 131398018.31206     -3512.544 6        37.625
G30  21434157.035 7 112637256.39207     -2498.202 7        46.438    21434157.084 5        34.813    21434158.200 5  87769293.94205     -1946.655 5        34.813    21434158.434 7  87769290.93907     -1946.532 7        43.938    21434157.212 7 112637259.89407     -2498.118 7        44.688
R12  21788948.446 7 116392651.49407     -3289.333 7        42.625    21788950.125 7  90527622.92207     -2558.445 7        44.500
R13  19204293.893 7 102549861.23807      -392.758 7        47.750    19204295.195 8  79761006.90008      -305.474 8        50.125
R14  21137695.724 7 112675811.24707      3372.002 7        44.438    21137697.192 7  87636746.14807      2622.677 7        46.188
R17  23027407.646 6 123224309.04906      3448.138 6        38.688    23027409.644 6  95841132.49106      2681.864 6        41.438
R23  20066909.778 7 107344437.66607     -2503.538 7        46.500    20066911.591 7  83490125.81007     -1947.200 7        47.688
R24  19583503.214 7 104721793.33807       947.761 7        47.313    19583504.646 8  81450287.54208       737.118 8        48.500
> 2023 01 08 12 30  0.0000000  0 21
E01  27482489.402 6 144421458.48106     -2087.305 6        38.250
E10  24421640.127 7 128336586.14107      1935.787 7        44.000
E11  26283258.387 6 138119455.59906      2763.712 6        40.188
E12  23383071.344 7 122878869.61907       699.719 7        45.625
E24  24599216.822 7 129269757.04107      1631.993 7        43.938
E31  23798972.576 7 125064446.07807      -378.988 7        45.063
E33  24975838.251 7 131248915.99907     -1985.930 7        42.688
G01  22121001.762 7 116246649.20607     -2987.735 7        44.625    22121001.806 5        32.000    22121002.983 5  90581811.56505     -2328.105 5        32.000    22121002.925 7  90581807.57107     -2328.187 7        42.563    22121001.776 7 116246644.71207     -2987.803 7        42.313
G03  23590993.896 6 123971508.00906      1522.158 6        41.813    23590993.892 4        26.500    23590994.600 4  96601179.43104      1186.101 4        26.500    23590994.680 6  96601177.42506      1186.117 6        39.875    23590993.920 6 123971505.49806      1522.305 6        39.625
G06  22237760.359 7 116860217.83907      3226.907 7        44.563    22237760.394 5        31.938    22237761.273 5  91059915.03405      2514.473 5        31.938    22237761.355 7  91059914.03107      2514.489 7        42.500    22237760.099 7 116860220.33107      3226.865 7        42.125
G07  23559558.258 6 123806315.76906     -3711.590 6        40.500    23559558.232 4        24.313    23559556.732 4  96472447.06404     -2892.148 4        24.313    23559557.225 6  96472447.06806     -2892.275 6        39.063    23559558.673 6 123806317.27606     -3711.689 6        38.063
G14  20409278.107 8 107251481.12308       237.475 8        48.188    20409278.124 6        39.750    20409276.998 6  83572578.67206       185.046 6        39.750    20409277.025 7  83572572.67207       185.103 7        46.875    20409278.212 7 107251477.62407       237.512 7        45.750
G17  20859857.434 8 109619292.05708      -386.602 8        48.063    20859857.460 6        38.250    20859855.769 6  85417624.57006      -301.253 6        38.250    20859855.676 7  85417624.57107      -301.273 7        45.438    20859857.605 7 109619289.55607      -386.597 7        45.625
G19  21702804.610 7 114049006.63007      1494.905 7        45.813    21702804.636 5        34.000    21702802.057 5  88869344.45405      1164.861 5        34.000    21702802.072 7  88869336.46307      1164.787 7        43.375    21702804.551 7 114049004.14207      1494.816 7        43.563
G30  21580547.231 7 113406541.41307     -2628.600 7        46.250    21580547.266 5        34.875    21580548.298 5  88368736.80905     -2048.260 5        34.875    21580548.142 7  88368733.81507     -2048.305 7        43.750    21580547.357 7 113406544.91407     -2628.590 7        43.875
R12  21977445.653 7 117399569.11707     -3421.730 7        42.125    21977446.648 7  91310781.06207     -2661.312 7        44.250
R13  19232772.672 7 102701935.42907      -621.126 7        47.500    19232773.606 8  79879286.81908      -483.086 8        50.125
R14  20950538.427 7 111678158.02707      3277.225 7        45.125    20950539.920 7  86860793.63507      2548.932 7        46.188
R17  22837010.662 6 122205457.15706      3343.613 6        39.063    22837012.474 6  95048692.11506      2600.517 6        41.563
R23  20210852.572 7 108114432.66207     -2627.348 7        46.063    20210853.837 7  84089010.79607     -2043.476 7        47.125
R24  19536023.338 7 104467897.93307       745.718 7        47.063    19536025.088 8  81252813.32808       579.994 8        48.313
> 2023 01 08 12 35  0.0000000  0 21
E01  27603164.640 6 145055608.99606     -2139.493 6        37.625
E10  24314170.099 7 127771827.29107      1829.630 7        44.000
E11  26127167.224 6 137299191.06406      2704.635 6        40.188
E12  23346861.993 7 122688587.55107       569.646 7        45.625
E24  24507114.585 7 128785756.25607      1594.656 7        43.938
E31  23822937.354 7 125190381.66107      -460.336 7        44.875
E33  25091526.617 7 131856862.10607     -2065.318 7        42.250
G01  22295007.418 7 117161055.66207     -3105.779 7        44.438    22295007.467 5        30.875    22295008.806 5  91294336.07005     -2420.087 5        30.875    22295008.887 7  91294332.07307     -2420.087 7        42.063    22295007.546 7 117161051.16807     -3105.899 7        42.375
G03  23507748.704 7 123534052.21907      1393.367 7        42.313    23507748.735 4        26.625    23507749.511 4  96260304.77304      1085.741 4        26.625    23507749.891 6  96260302.76906      1085.847 6        39.688    23507748.810 6 123534049.72406      1393.310 6        40.250
G06  22056476.449 7 115907566.57907      3123.682 7        45.125    22056476.484 5        32.000    22056477.756 5  90317589.36805      2434.034 5        32.000    22056477.533 7  90317588.36907      2433.928 7        42.313    22056476.849 7 115907569.07807      3123.588 7        43.000
G07  23772163.798 6 124923562.51206     -3734.386 6        39.875    23772163.763 3        22.813    23772161.753 3  97343028.93803     -2909.907 3        22.813    23772161.620 6  97343028.94506     -2909.890 6        38.500    23772163.951 6 124923564.03206     -3734.486 6        37.750
G14  20398928.081 8 107197091.32108       124.996 8        48.313    20398928.107 6        39.313    20398926.981 6  83530196.99906        97.400 6        39.313    20398927.076 7  83530190.99907        97.449 7        46.563    20398928.188 7 107197087.81407       125.065 7        46.188
G17  20883390.908 8 109742959.67208      -436.425 8        48.313    20883390.939 6        37.750    20883388.967 6  85513988.93706      -340.072 6        37.750    20883389.051 7  85513988.94007      -340.039 7        45.000    20883390.856 7 109742957.17107      -436.488 7        46.188
G19  21619582.542 7 113611672.62407      1421.787 7        46.250    21619582.582 5        33.813    21619580.131 5  88528564.70105      1107.886 5        33.813    21619580.177 7  88528556.70807      1107.787 7        43.250    21619582.874 7 113611670.13207      1421.697 7        44.125
G30  21734127.355 7 114213609.37207     -2749.592 7        46.188    21734127.395 5        33.875    21734128.134 5  88997620.93205     -2142.535 5        33.875    21734128.339 7  88997617.94307     -2142.572 7        43.125    21734127.251 7 114213612.87107     -2749.529 7        44.188
R12  22173152.915 6 118445002.21806     -3545.852 6        41.688    22173154.262 7  92123895.69007     -2757.794 7        43.375
R13  19274140.679 7 102922839.09207      -851.064 7        47.500    19274142.145 8  80051100.77408      -661.972 8        50.125
R14  20769063.980 7 110710796.19207      3170.368 7        45.438    20769065.628 7  86108401.08707      2465.813 7        46.313
R17  22652638.348 6 121218842.57606      3233.774 6        39.563    22652640.548 7  94281325.19207      2515.154 7        42.063
R23  20361379.171 7 108919652.00807     -2738.068 7        46.000    20361381.232 7  84715292.50807     -2129.625 7        46.938
R24  19499791.168 7 104274148.55207       547.306 7        47.188    19499792.924 8  81102119.35508       425.691 8        48.500
> 2023 01 08 12 40  0.0000000  0 21
E01  27726828.307 6 145705466.39006     -2192.485 6        37.500
E10  24212856.539 7 127239420.78707      1719.600 7        44.438
E11  25974595.027 6 136497418.06906      2639.856 6        40.313
E12  23318090.821 7 122537394.03607       438.685 7        45.875
E24  24417292.610 7 128313739.22507      1551.402 7        44.313
E31  23851639.632 7 125341212.99907      -545.530 7        45.000
E33  25211605.458 7 132487880.38407     -2140.276 7        42.000
G01  22475477.294 7 118109430.48007     -3214.868 7        43.875    22475477.338 5        30.000    22475478.525 5  92033329.43205     -2505.092 5        30.000    22475478.630 6  92033325.43506     -2504.948 6        41.813    22475477.430 7 118109425.98707     -3214.952 7        42.125
G03  23432120.856 7 123136622.57507      1254.871 7        42.375    23432120.857 4        26.750    23432121.268 4  95950619.32704       977.822 4        26.750    23432120.912 6  95950617.33106       977.633 6        40.063    23432120.534 6 123136620.07606      1254.945 6        40.688
G06  21881333.437 7 114987181.50807      3011.214 7        45.250    21881333.499 5        32.375    21881334.214 5  89600406.18605      2346.401 5        32.375    21881334.175 7  89600405.19307      2346.368 7        42.688    21881333.270 7 114987184.00707      3011.351 7        43.438
G07  23985820.495 6 126046337.61806     -3749.121 6        38.813    23985820.526 3        21.938    23985818.531 3  98217918.61903     -2921.397 3        21.938    23985819.163 6  98217918.62906     -2921.340 6        38.063    23985820.725 6 126046339.13006     -3749.252 6        37.375
G14  20395149.565 8 107177235.35708         6.690 8        48.125    20395149.600 6        39.063    20395148.492 6  83514724.81206         5.213 6        39.063    20395148.613 7  83514718.81207         5.221 7        46.750    20395149.765 7 107177231.85407         6.742 7        46.375
G17  20909678.520 8 109881102.23608      -483.758 8        48.000    20909678.542 6        37.438    20909676.625 6  85621632.48706      -376.954 6        37.438    20909676.634 7  85621632.49007      -376.942 7        45.125    20909678.514 7 109881099.73007      -483.700 7        46.375
G19  21540510.411 7 113196144.03307      1348.836 7        46.063    21540510.451 5        33.938    21540507.652 5  88204776.17805      1051.041 5        33.938    21540507.903 7  88204768.19107      1050.935 7        43.375    21540510.344 7 113196141.54207      1348.789 7        44.375
G30  21894374.864 7 115055717.21207     -2862.754 7        45.563    21894374.913 5        33.063    21894375.937 5  89653808.85305     -2230.718 5        33.063    21894376.045 7  89653805.85107     -2230.644 7        43.000    21894375.005 7 115055720.71707     -2862.786 7        44.063
R12  22375623.235 6 119526563.18906     -3663.100 6        41.250    22375624.376 7  92965109.78207     -2849.086 7        42.625
R13  19328484.697 7 103213032.05307     -1083.549 7        47.375    19328485.955 8  80276806.39808      -842.715 8        49.813
R14  20593995.259 7 109777581.62607      3048.970 7        45.625    20593996.537 7  85382567.52007      2371.454 7        46.750
R17  22474602.672 6 120266135.44406      3116.931 6        40.188    22474604.119 7  93540330.75107      2424.354 7        42.250
R23  20517795.412 7 109756369.37907     -2837.924 7        45.375    20517796.817 7  85366072.67307     -2207.308 7        46.813
R24  19474605.605 7 104139470.74107       351.386 7        47.188    19474607.714 8  80997369.94008       273.342 8        48.813
> 2023 01 08 12 45  0.0000000  0 20
E01  27853420.980 6 146370716.68806     -2242.728 6        37.000
E10  24117828.367 7 126740045.02607      1608.981 7        44.750
E11  25825776.584 6 135715371.92306      2572.713 6        40.750
E12  23296706.317 7 122425018.27507       310.315 7        46.063
E24  24330009.223 7 127855061.50307      1505.226 7        44.625
E31  23885222.158 7 125517690.73907      -631.781 7        44.938
E33  25335737.392 7 133140198.55007     -2207.840 7        42.000
G01  22661817.695 7 119088657.01007     -3312.112 7        43.813    22661817.748 4        29.250    22661819.015 4  92796363.08204     -2580.867 4        29.250    22661819.058 6  92796359.08206     -2580.715 6        41.188    22661817.762 6 119088652.51006     -3312.049 6        41.750
G03  23364585.065 7 122781722.68907      1109.548 7        42.750    23364585.082 4        27.188    23364585.937 4  95674073.94904       864.583 4        27.188    23364586.072 6  95674071.95206       864.542 6        40.188    23364585.339 6 122781720.18806      1109.617 6        40.688
G06  21712749.418 7 114101268.38607      2893.323 7        46.000    21712749.471 5        33.125    21712750.556 5  88910084.25905      2254.537 5        33.125    21712750.696 7  88910083.26007      2254.509 7        42.750    21712749.620 7 114101270.88407      2893.317 7        43.813
G14  20398192.364 8 107193224.84108      -114.360 8        48.438    20398192.399 6        39.438    20398191.168 6  83527184.14206       -89.112 6        39.438    20398191.326 7  83527178.14707       -89.165 7        46.625    20398192.330 7 107193221.34707      -114.455 7        46.438
G17  20938500.302 8 110032562.43308      -525.814 8        48.438    20938500.324 6        37.750    20938498.509 6  85739653.41306      -409.725 6        37.750    20938498.905 7  85739653.41607      -409.737 7        45.000    20938500.299 7 110032559.92907      -525.756 7        46.375
G19  21465495.098 7 112801935.95707      1279.128 7        46.563    21465495.124 5        34.438    21465492.240 5  87897601.04805       996.723 5        34.438    21465492.205 7  87897593.05407       996.670 7        43.500    21465494.952 7 112801933.45807      1279.175 7        44.563
G30  22060755.695 7 115930054.04107     -2964.949 7        45.688    22060755.735 5        32.875    22060756.866 5  90335110.27105     -2310.345 5        32.875    22060756.860 7  90335107.26607     -2310.292 7        42.750    22060755.674 7 115930057.53807     -2964.875 7        43.625
R12  22584387.613 6 120641744.60406     -3770.364 6        40.375    22584389.361 7  93832473.09507     -2932.493 7        42.375
R13  19395827.623 7 103572639.87607     -1314.187 7        47.313    19395829.020 8  80556501.36708     -1022.108 8        49.750
R14  20426066.673 7 108882428.39507      2916.068 7        45.750    20426068.119 7  84686337.21907      2268.074 7        46.938
R17  22303188.917 6 119348869.15306      2996.844 6        40.813    22303190.955 7  92826901.39907      2330.916 7        42.688
R23  20679416.724 7 110620936.58607     -2924.198 7        45.125    20679418.536 7  86038513.83307     -2274.451 7        46.375
R24  19460220.739 7 104062547.79307       161.819 7        47.188    19460222.477 8  80937540.97508       125.909 8        48.875
> 2023 01 08 12 50  0.0000000  0 19
E10  24029193.156 7 126274263.38607      1495.888 7        44.938
E11  25680934.295 6 134954220.83006      2501.013 6        40.938
E12  23282632.234 7 122351058.32807       182.891 7        46.188
E24  24245526.945 7 127411104.34807      1453.580 7        44.875
E31  23923815.585 7 125720500.69207      -720.828 7        44.938
E33  25463584.023 6 133812037.26206     -2270.181 6        41.938
G01  22853437.341 7 120095625.12607     -3399.551 7        43.125    22853437.372 4        28.438    22853438.828 4  93581013.55904     -2648.992 4        28.438    22853438.804 6  93581009.55506     -2649.066 6        40.813    22853437.381 6 120095620.62406     -3399.577 6        41.125
G03  23305588.994 7 122471695.11507       955.959 7        42.938    23305589.034 4        27.688    23305589.738 4  95432494.01404       744.912 4        27.688    23305589.797 6  95432492.01706       744.912 6        40.313    23305588.976 6 122471692.61606       955.949 6        41.000
G06  21551124.111 7 113251920.97007      2767.901 7        46.188    21551124.155 5        33.563    21551125.159 5  88248255.09705      2156.802 5        33.563    21551125.092 7  88248254.10507      2156.798 7        43.188    21551124.046 7 113251923.47207      2767.838 7        44.188
G14  20408291.036 8 107246294.01208      -240.244 8        48.438    20408291.067 6        39.313    20408289.881 6  83568536.73506      -187.199 6        39.313    20408290.141 7  83568530.73607      -187.195 7        46.625    20408291.111 7 107246290.51207      -240.150 7        46.438
G17  20969647.309 8 110196240.07008      -564.995 8        48.375    20969647.353 6        37.563    20969645.310 6  85867194.42106      -440.252 6        37.563    20969645.335 7  85867194.42007      -440.178 7        44.875    20969647.109 7 110196237.56507      -564.937 7        46.313
G19  21394439.870 7 112428538.71007      1210.387 7        46.688    21394439.896 5        34.688    21394437.165 5  87606642.14305       943.163 5        34.688    21394437.262 7  87606634.14307       943.151 7        43.688    21394439.868 7 112428536.21307      1210.324 7        44.750
G30  22232720.743 7 116833737.11607     -3058.110 7        45.438    22232720.774 5        32.375    22232721.948 5  91039278.89805     -2382.939 5        32.375    22232721.797 7  91039275.90407     -2382.984 7        42.625    22232721.051 7 116833740.61607     -3058.110 7        43.250
R12  22798952.367 6 121787913.36606     -3869.364 6        39.938    22798953.899 6  94723937.68506     -3009.480 6        41.938
R13  19476125.921 7 104001428.89607     -1544.216 7        47.313    19476127.296 8  80890003.93208     -1201.036 8        49.125
R14  20266015.060 7 108029263.15407      2769.414 7        46.125    20266016.488 7  84022764.25207      2153.922 7        47.188
R17  22138653.671 6 118468406.67206      2872.049 6        41.000    22138655.202 7  92142097.25207      2233.824 7        43.188
R23  20845576.866 7 111509782.88207     -2999.592 7        44.875    20845578.755 7  86729838.72907     -2333.003 7        46.313
R24  19456343.638 7 104041813.75107       -22.711 7        47.375    19456345.070 8  80921414.48808       -17.722 8        48.875
> 2023 01 08 12 55  0.0000000  0 19
E10  23947035.234 7 125842520.80507      1381.160 7        44.875
E11  25540276.593 6 134215060.21806      2425.183 6        41.188
E12  23275767.582 7 122314984.20507        56.875 7        46.250
E24  24164112.405 7 126983268.03507      1396.794 7        44.875
E31  23967536.901 7 125950257.53407      -812.276 7        44.938
E33  25594806.641 6 134501617.16306     -2327.124 6        41.500
G01  23049748.810 7 121127247.36307     -3477.294 7        42.313    23049748.836 4        27.125    23049749.940 4  94384875.04104     -2709.583 4        27.125    23049750.090 6  94384871.03906     -2709.592 6        40.063    23049748.809 6 121127242.86606     -3477.336 6        41.000
G03  23255542.892 7 122208703.04307       795.087 7        42.688    23255542.963 4        28.000    23255543.992 4  95227565.11904       619.556 4        28.000    23255544.153 6  95227563.10806       619.700 6        40.688    23255543.235 6 122208700.54306       795.187 6        41.500
G06  21396831.466 7 112441107.43707      2635.547 7        46.063    21396831.510 5        34.125    21396832.418 5  87616452.33205      2053.673 5        34.125    21396832.703 7  87616451.33107      2053.731 7        43.750    21396831.352 7 112441109.94607      2635.495 7        44.625
G14  20425663.481 8 107337586.75408      -370.065 8        48.188    20425663.503 6        39.188    20425662.305 6  83639673.93006      -288.358 6        39.188    20425662.332 7  83639667.93107      -288.366 7        46.625    20425663.666 7 107337583.25507      -370.054 7        46.688
G17  21002921.174 7 110371096.95407      -601.271 7        47.938    21002921.214 6        37.438    21002919.481 6  86003446.53206      -468.523 6        37.438    21002919.641 7  86003446.53607      -468.543 7        44.938    21002921.179 7 110371094.45607      -601.323 7        46.438
G19  21327244.318 7 112075423.87007      1142.981 7        46.375    21327244.344 5        34.938    21327241.726 5  87331487.71605       890.634 5        34.938    21327241.663 7  87331479.71707       890.602 7        43.938    21327244.264 7 112075421.37207      1143.002 7        45.000
G30  22409710.928 7 117763827.32107     -3141.870 7        44.563    22409710.972 5        31.813    22409712.194 5  91764024.50605     -2448.210 5        31.813    22409712.083 7  91764021.50507     -2448.145 7        42.500    22409711.124 7 117763830.82207     -3141.912 7        43.188
R12  23018804.920 6 122962323.95106     -3959.528 6        38.938    23018805.982 6  95637368.12706     -3079.604 6        41.688
R13  19569268.270 7 104498803.99407     -1772.183 7        47.375    19569269.523 8  81276851.22208     -1378.402 8        48.938
R14  20114573.566 7 107221994.96107      2609.209 7        46.375    20114575.016 7  83394888.96807      2029.414 7        47.500
R17  21981216.899 6 117625932.21906      2742.919 6        41.500    21981218.787 7  91486839.33307      2133.336 7        43.625
R23  21015626.393 7 112419431.38207     -3063.896 7        44.500    21015628.270 7  87437343.10907     -2383.067 7        46.125
R24  19462638.545 7 104075475.08407      -201.545 7        47.125    19462640.154 8  80947595.52008      -156.766 8        48.750
> 2023 01 08 13 00  0.0000000  0 20
E10  23871416.874 7 125445143.80907      1266.968 7        44.625
E11  25403997.815 6 133498909.92706      2347.556 6        41.125
E12  23275988.331 7 122316144.46907       -65.262 7        46.000
E24  24086034.750 7 126572967.45207      1336.697 7        44.563
E31  24016488.835 7 126207501.45407      -903.903 7        44.625
E33  25729068.491 6 135207168.13006     -2376.563 6        41.000
G01  23250171.627 6 122180476.00606     -3543.533 6        41.938    23250171.644 4        26.688    23250172.630 4  95205572.67404     -2761.199 4        26.688    23250172.914 6  95205568.67306     -2761.142 6        39.875    23250171.432 6 122180471.50706     -3543.497 6        39.688
G03  23214822.728 7 121994715.55207       629.548 7        42.813    23214822.786 4        28.500    23214823.453 4  95060821.60704       490.557 4        28.500    23214823.327 6  95060819.61306       490.569 6        40.875    23214822.818 6 121994713.04506       629.553 6        40.750
G06  21250220.036 7 111670659.70707      2498.890 7        46.250    21250220.089 5        34.938    21250221.088 5  87016103.43905      1947.183 5        34.938    21250221.195 7  87016102.45007      1947.171 7        44.063    21250220.262 7 111670662.20707      2498.938 7        44.313
G11  24660006.157 6 129589205.26906      3579.194 6        38.750    24660006.046 3        21.875    24660004.535 3 100978596.54003      2788.970 3        21.875    24660004.827 6 100978593.53406      2789.052 6        38.125    24660006.082 6 129589204.75406      3579.357 6        36.688
G14  20450508.396 8 107468146.80108      -501.772 8        48.000    20450508.422 6        39.313    20450507.110 6  83741409.02406      -390.995 6        39.313    20450507.155 7  83741403.02907      -391.044 7        46.688    20450508.308 7 107468143.30307      -501.777 7        45.938
G17  21038138.331 8 110556163.82008      -633.006 8        48.063    21038138.371 6        37.438    21038136.455 6  86147654.47206      -493.251 6        37.438    21038136.519 7  86147654.47507      -493.198 7        44.938    21038138.453 7 110556161.32007      -632.953 7        45.813
G19  21263805.746 7 111742053.12507      1078.896 7        46.500    21263805.781 5        35.313    21263803.323 5  87071718.29405       840.694 5        35.313    21263803.366 7  87071710.29907       840.665 7        44.125    21263806.028 7 111742050.63307      1078.838 7        44.375
G30  22591159.844 7 118717346.48907     -3214.242 7        44.375    22591159.888 5        31.250    22591160.930 5  92507026.44805     -2504.609 5        31.250    22591160.991 7  92507023.44907     -2504.539 7        42.438    22591159.821 7 118717349.98707     -3214.190 7        42.188
R12  23243412.461 6 124162136.47806     -4038.630 6        38.438    23243413.692 6  96570555.64106     -3141.069 6        41.500
R13  19675076.908 7 105063817.31807     -1994.822 7        47.625    19675078.762 8  81716306.03408     -1551.574 8        48.500
R14  19972467.191 7 106464486.89707      2437.789 7        47.188    19972468.485 7  82805716.02407      1896.095 7        47.563
R17  21831066.141 7 116822446.03807      2612.232 7        42.125    21831068.338 7  90861905.61807      2031.782 7        43.938
R23  21188935.815 7 113346518.54707     -3115.811 7        44.313    21188937.090 7  88158410.89607     -2423.446 7        45.688
R24  19478731.310 7 104161531.26207      -371.899 7        47.500    19478733.037 8  81014528.09308      -289.238 8        48.563
> 2023 01 08 13 05  0.0000000  0 21
E10  23802380.674 7 125082355.92607      1151.683 7        44.688
E11  25272279.755 6 132806726.50206      2266.407 6        41.500
E12  23283151.737 7 122353788.29007      -185.256 7        45.938
E24  24011568.057 7 126181641.98107      1271.277 7        44.750
E25  27807948.032 6 146131755.17406      2557.615 6        36.750
E31  24070762.130 7 126492709.88007      -997.695 7        44.625
E33  25866039.030 6 135926952.88306     -2420.963 6        40.813
G01  23454139.161 6 123252333.27506     -3600.440 6        41.500    23454139.178 4        25.438    23454140.551 4  96040786.12604     -2805.538 4        25.438    23454140.577 6  96040782.13706     -2805.718 6        39.188    23454139.013 6 123252328.77306     -3600.430 6        39.625
G03  23183765.618 7 121831508.67407       457.708 7        43.125    23183765.658 4        28.563    23183766.313 4  94933647.41304       356.652 4        28.563    23183766.353 6  94933645.42306       356.558 6        40.813    23183765.708 6 121831506.18006       457.608 6        41.063
G06  21111613.479 7 110942278.03507      2356.253 7        46.813    21111613.523 5        35.375    21111614.692 5  86448533.30105      1836.045 5        35.375    21111614.952 7  86448532.30307      1836.021 7        44.125    21111613.719 7 110942280.53507      2356.237 7        44.750
G11  24456750.528 6 128521092.92106      3540.244 6        39.563    24456750.644 3        22.313    24456749.597 3 100146301.19103      2758.632 3        22.313    24456749.517 6 100146298.20806      2758.648 6        38.313    24456750.802 6 128521092.43306      3540.170 6        37.438
G14  20483005.773 8 107638923.06008      -637.152 8        48.375    20483005.799 6        39.125    20483004.686 6  83874481.42606      -496.482 6        39.125    20483004.744 7  83874475.43007      -496.433 7        46.438    20483005.961 7 107638919.55807      -637.078 7        46.250
G17  21075130.953 8 110750561.19308      -662.502 8        48.063    21075130.993 6        37.188    21075129.076 6  86299132.93706      -516.236 6        37.188    21075129.100 7  86299132.93507      -516.170 7        44.813    21075130.929 7 110750558.69907      -662.529 7        46.063
G19  21204024.620 7 111427901.70107      1015.830 7        46.938    21204024.646 5        35.438    21204022.299 5  86826924.96705       791.556 5        35.438    21204022.107 7  86826916.96907       791.589 7        44.125    21204024.816 7 111427899.20207      1015.851 7        44.875
G30  22776498.672 7 119691308.67307     -3277.061 7        44.063    22776498.716 5        30.563    22776499.665 5  93265958.01105     -2553.550 5        30.563    22776499.779 7  93265955.02907     -2553.697 7        42.000    22776498.718 7 119691312.18507     -3277.187 7        42.125
R12  23472231.125 6 125384447.00806     -4108.469 6        37.688    23472232.857 6  97521241.61506     -3195.530 6        41.438
R13  19793313.897 7 105695194.40107     -2213.337 7        47.188    19793315.277 8  82207377.08808     -1721.535 8        48.000
R14  19840408.599 7 105760539.84607      2253.197 7        47.563    19840409.818 8  82258201.64508      1752.507 8        48.125
R17  21688356.881 7 116058780.06907      2478.591 7        42.438    21688359.206 7  90267943.19507      1927.810 7        44.188
R23  21364902.606 7 114287825.36507     -3157.857 7        43.813    21364904.682 7  88890538.42207     -2456.082 7        45.250
R24  19504217.442 7 104297817.21207      -535.317 7        47.375    19504219.241 8  81120528.27208      -416.366 8        48.875
> 2023 01 08 13 10  0.0000000  0 21
E10  23739943.142 7 124754244.77907      1035.494 7        45.000
E11  25145285.180 7 132139366.46507      2181.649 7        42.063
E12  23297090.873 7 122427039.10907      -302.874 7        46.188
E24  23940983.173 7 125810715.88807      1200.350 7        44.875
E25  27661610.757 6 145362746.14206      2568.110 6        37.625
E31  24130428.905 7 126806260.53007     -1093.279 7        44.688
E33  26005388.785 6 136659240.69306     -2460.429 6        40.750
G01  23661094.200 6 124339890.82706     -3648.697 6        40.750    23661094.222 4        24.875    23661095.810 4  96888233.56604     -2843.133 4        24.875    23661095.744 6  96888229.58206     -2843.317 6        38.875    23661094.288 6 124339886.33106     -3648.692 6        38.750
G03  23162663.870 7 121720618.77007       280.414 7        43.000    23162663.896 4        28.813    23162664.508 4  94847239.68504       218.500 4        28.813    23162664.502 6  94847237.68406       218.574 6        40.750    23162663.796 6 121720616.27006       280.435 6        41.000
G06  20981302.158 7 110257487.06907      2207.940 7        46.938    20981302.193 6        36.188    20981303.276 6  85914929.93606      1720.473 6        36.188    20981303.322 7  85914928.94307      1720.448 7        44.250    20981302.281 7 110257489.56307      2208.003 7        44.938
G11  24255921.123 6 127465726.19106      3493.931 6        40.125    24255921.216 3        23.563    24255919.847 3  99323937.50603      2722.544 3        23.563    24255920.124 6  99323934.49506      2722.531 6        38.625    24255921.363 6 127465725.68506      3493.847 6        37.875
G14  20523310.676 8 107850726.55808      -775.659 8        48.125    20523310.702 6        39.188    20523309.549 6  84039523.10606      -604.410 6        39.188    20523309.533 7  84039517.10907      -604.451 7        46.188    20523310.696 7 107850723.06107      -775.691 7        46.063
G17  21113743.014 7 110953470.55407      -690.244 7        47.750    21113743.054 6        37.188    21113741.483 6  86457244.12106      -537.844 6        37.188    21113741.446 7  86457244.12007      -537.795 7        44.688    21113743.378 7 110953468.05507      -690.196 7        45.750
G19  21147799.154 7 111132432.60507       953.857 7        46.813    21147799.185 5        35.875    21147796.404 5  86596689.30005       743.265 5        35.875    21147796.382 7  86596681.31107       743.245 7        44.188    21147799.045 7 111132430.10407       953.889 7        44.688
G24  24344561.306 6 127931531.69906      1974.648 6        39.000    24344561.271 3        22.250    24344562.037 3  99686913.85803      1538.683 3        22.250    24344562.284 6  99686914.86806      1538.728 6        38.125    24344561.262 6 127931525.20606      1974.648 6        37.063
G30  22965154.323 7 120682701.37307     -3330.888 7        43.375    22965154.349 4        29.688    22965155.328 4  94038471.79904     -2595.498 4        29.688    22965155.500 6  94038468.80906     -2595.542 6        41.313    22965154.374 6 120682704.86506     -3330.883 6        41.375
R13  19923674.218 7 106391312.27507     -2426.727 7        47.438    19923675.658 8  82748802.10108     -1887.467 8        48.000
R14  19719085.734 7 105113822.00807      2055.918 7        47.250    19719087.320 8  81755198.87008      1599.043 8        48.188
R17  21553203.657 7 115335548.23907      2342.264 7        43.188    21553205.722 7  89705429.53007      1821.869 7        44.563
R23  21542949.131 7 115240253.83507     -3190.482 7        43.438    21542951.290 7  89631316.11807     -2481.490 7        45.125
R24  19538658.511 7 104481990.16507      -691.521 7        47.313    19538660.320 8  81263773.89508      -537.838 8        48.688
> 2023 01 08 13 15  0.0000000  0 22
E10  23684101.303 7 124460793.65907       920.624 7        44.938
E11  25023163.879 7 131497613.86707      2095.861 7        42.063
E12  23317622.328 7 122534932.71107      -416.083 7        45.875
E24  23874552.758 7 125461622.11607      1125.865 7        44.875
E25  27514739.955 6 144590934.64406      2576.302 6        38.063
E31  24195546.923 7 127148458.70807     -1188.479 7        44.438
E33  26146796.552 6 137402344.53806     -2493.036 6        40.563
G01  23870497.285 6 125440311.45306     -3686.197 6        40.313    23870497.289 3        23.625    23870498.810 3  97745704.18103     -2872.365 3        23.625    23870498.563 6  97745700.19706     -2872.546 6        38.938    23870497.150 6 125440306.94806     -3686.113 6        38.500
G03  23151767.961 7 121663361.33607       100.408 7        43.125    23151767.978 4        28.500    23151768.846 4  94802623.50004        78.244 4        28.500    23151769.000 6  94802621.49706        78.314 6        40.813    23151768.167 6 121663358.84406       100.329 6        41.313
G06  20859546.539 7 109617656.54707      2056.684 7        47.625    20859546.570 6        36.625    20859547.599 6  85416360.69006      1602.611 6        36.625    20859547.748 7  85416359.68907      1602.599 7        44.563    20859546.571 7 109617659.04507      2056.705 7        45.875
G11  24057903.549 6 126425135.81406      3441.880 6        40.813    24057903.629 4        24.188    24057902.096 4  98513087.84704      2681.980 4        24.188    24057902.068 6  98513084.84506      2682.017 6        39.063    24057903.392 6 126425135.31706      3441.859 6        38.750
G14  20571555.039 8 108104252.04508      -915.117 8        48.438    20571555.070 6        38.750    20571553.886 6  84237075.42606      -713.082 6        38.750    20571553.865 7  84237069.43307      -713.115 7        46.125    20571555.075 7 108104248.54407      -915.107 7        46.563
G17  21153837.628 7 111164168.55407      -714.364 7        47.813    21153837.672 6        36.813    21153835.996 6  86621424.37406      -556.647 6        36.813    21153835.910 7  86621424.36907      -556.656 7        44.688    21153837.994 7 111164166.05307      -714.359 7        45.938
G19  21095030.895 7 110855134.54707       894.780 7        47.125    21095030.930 5        35.813    21095028.284 5  86380612.88005       697.227 5        35.813    21095028.274 7  86380604.88107       697.280 7        44.250    21095031.010 7 110855132.04607       894.770 7        45.250
G24  24236085.334 6 127361486.61606      1824.438 6        39.688    24236085.312 3        22.563    24236086.242 3  99242722.86903      1421.632 3        22.563    24236086.160 6  99242723.87506      1421.591 6        38.500    24236085.260 6 127361480.13406      1824.265 6        37.813
G30  23156557.096 7 121688529.46507     -3373.354 7        43.125    23156557.118 4        28.438    23156558.092 4  94822233.94504     -2628.588 4        28.438    23156558.202 6  94822230.95106     -2628.559 6        40.875    23156557.236 6 121688532.95906     -3373.333 6        41.250
R13  20065798.598 7 107150248.97007     -2631.925 7        46.563    20065800.107 7  83339086.18307     -2047.032 7        47.625
R14  19609161.810 7 104527865.35107      1848.351 7        47.375    19609163.405 8  81299454.79708      1437.615 8        48.625
R15  23450314.463 6 125311368.05206      4126.910 6        37.813    23450315.198 6  97464403.17006      3209.856 6        41.438
R17  21425688.781 7 114653188.77807      2206.333 7        43.250    21425690.664 7  89174705.50607      1715.937 7        45.000
R23  21722526.362 7 116200868.98307     -3212.345 7        42.875    21722528.086 7  90378461.22007     -2498.545 7        44.750
R24  19581595.305 7 104711590.49407      -838.095 7        47.500    19581596.663 8  81442351.91908      -651.827 8        48.563
> 2023 01 08 13 20  0.0000000  0 22
E10  23634829.170 7 124201866.58707       805.781 7        44.625
E11  24906046.928 7 130882160.83207      2006.845 7        42.000
E12  23344544.326 7 122676408.41107      -526.360 7        45.438
E24  23812546.857 7 125135778.41307      1045.752 7        44.750
E25  27367547.960 6 143817436.96806      2579.786 6        37.875
E31  24266157.142 7 127519517.78007     -1285.140 7        44.063
E33  26289948.259 6 138154610.45406     -2521.130 6        40.125
G01  24081823.885 6 126550841.96606     -3715.657 6        39.500    24081823.961 3        22.813    24081825.698 3  98611052.63103     -2895.325 3        22.813    24081825.137 6  98611048.63506     -2895.354 6        38.438    24081824.514 6 126550837.46906     -3715.688 6        37.938
G03  23151281.470 7 121660804.41707       -83.650 7        43.000    23151281.487 4        28.500    23151282.442 4  94800631.08604       -65.182 4        28.500    23151282.299 6  94800629.07906       -65.137 6        40.813    23151281.432 6 121660801.91606       -83.581 6        41.500
G06  20746572.935 8 109023975.73308      1900.794 8        48.000    20746572.966 6        37.250    20746573.881 6  84953752.25606      1481.134 6        37.250    20746574.008 7  84953751.25607      1481.109 7        44.750    20746572.912 7 109023978.23507      1900.746 7        46.313
G11  23863075.373 6 125401307.11106      3382.719 6        41.125    23863075.466 4        25.063    23863073.864 4  97715299.23104      2635.881 4        25.063    23863073.976 6  97715296.23806      2635.828 6        39.188    23863075.210 6 125401306.60606      3382.708 6        39.625
G14  20627844.069 8 108400053.15008     -1057.024 8        48.313    20627844.095 6        38.375    20627842.944 6  84467569.78906      -823.659 6        38.375    20627843.176 7  84467563.79007      -823.684 7        45.813    20627844.184 7 108400049.64707     -1057.014 7        46.688
G17  21195292.186 7 111382013.28907      -737.476 7        47.500    21195292.230 6        36.375    21195290.410 6  86791173.51006      -574.661 6        36.375    21195290.424 7  86791173.50707      -574.571 7        44.500    21195292.340 7 111382010.78707      -737.497 7        45.938
G19  21045626.505 7 110595512.21407       836.433 7        47.000    21045626.540 5        35.813    21045623.871 5  86178309.76005       651.762 5        35.813    21045623.723 7  86178301.76007       651.775 7        44.375    21045626.558 7 110595509.71507       836.444 7        45.375
G24  24136375.731 6 126837510.72506      1668.048 6        39.813    24136375.739 3        22.875    24136376.707 3  98834429.96203      1299.774 3        22.875    24136376.991 6  98834430.97106      1299.778 6        38.375    24136376.214 6 126837504.23006      1668.069 6        38.250
G30  23350139.441 7 122705810.99707     -3406.829 7        42.563    23350139.481 4        27.375    23350140.379 4  95614920.84604     -2654.672 4        27.375    23350139.932 6  95614917.84306     -2654.709 6        40.188    23350139.492 6 122705814.47906     -3406.756 6        40.875
R13  20219271.807 7 107969786.06907     -2830.128 7        46.000    20219272.789 7  83976503.92707     -2201.248 7        47.438
R14  19511263.325 7 104006011.71907      1629.036 7        47.438    19511264.665 8  80893568.62208      1267.069 8        49.250
R15  23219625.277 6 124078636.39406      4089.521 6        38.375    23219626.483 6  96505611.90306      3180.759 6        41.688
R17  21305856.868 7 114011944.10007      2068.775 7        43.313    21305858.492 7  88675959.62107      1609.089 7        45.313
R23  21903113.574 7 117166889.67907     -3226.141 7        42.563    21903114.999 7  91129810.64707     -2509.300 7        44.188
R24  19632546.296 7 104984049.77607      -976.792 7        47.188    19632547.800 8  81654264.69208      -759.690 8        48.250
> 2023 01 08 13 25  0.0000000  0 22
E10  23592078.659 7 123977211.70807       693.313 7        44.813
E11  24794048.923 7 130293606.00107      1917.736 7        42.250
E12  23377638.201 7 122850318.36807      -631.130 7        45.313
E24  23755230.849 7 124834580.70807       962.675 7        44.938
E25  27220259.253 6 143043429.04106      2580.900 6        38.375
E31  24342282.113 7 127919557.68307     -1380.598 7        43.875
E33  26434535.676 6 138914423.69606     -2542.444 6        40.063
G01  24294568.505 6 127668822.29906     -3734.906 6        38.875    24294568.572 3        21.750    24294570.166 3  99482206.12303     -2910.304 3        21.750    24294569.803 6  99482202.12906     -2910.451 6        38.063    24294568.693 6 127668817.80306     -3735.053 6        37.063
G03  23161359.130 7 121713761.67407      -268.506 7        42.875    23161359.161 4        28.750    23161359.709 4  94841896.47404      -209.221 4        28.750    23161359.729 6  94841894.47306      -209.324 6        40.500    23161359.113 6 121713759.17906      -268.585 6        41.313
G06  20642571.788 8 108477446.56308      1743.437 8        48.125    20642571.810 6        38.125    20642572.870 6  84527885.36206      1358.522 6        38.125    20642572.936 7  84527884.36507      1358.481 7        44.938    20642571.781 7 108477449.06607      1743.384 7        46.250
G11  23671804.619 6 124396173.37706      3318.334 6        41.688    23671804.681 4        26.063    23671803.361 4  96932078.13404      2585.715 4        26.063    23671803.322 6  96932075.13606      2585.776 6        39.375    23671804.732 6 124396172.87806      3318.371 6        39.875
G14  20692255.396 8 108738536.23608     -1198.537 8        48.188    20692255.418 6        38.500    20692254.137 6  84731322.83406      -933.925 6        38.500    20692254.339 7  84731316.83907      -933.880 7        45.250    20692255.297 7 108738532.73407     -1198.537 7        46.375
G17  21238000.472 7 111606447.39407      -757.387 7        47.250    21238000.516 6        36.500    21237998.882 6  86966057.22306      -590.168 6        36.500    21237998.932 7  86966057.22807      -590.151 7        44.250    21238000.682 7 111606444.89607      -757.282 7        45.375
G19  20999495.731 7 110353093.95107       781.103 7        47.000    20999495.757 6        36.438    20999493.147 6  85989412.40006       608.656 6        36.438    20999493.228 7  85989404.40307       608.668 7        44.188    20999495.831 7 110353091.45107       781.093 7        45.313
G24  24045699.917 6 126361005.05406      1509.089 6        40.063    24045699.934 3        23.750    24045700.913 3  98463126.83303      1175.929 3        23.750    24045701.077 6  98463127.84406      1175.889 6        38.438    24045699.840 6 126360998.55306      1509.115 6        38.188
G30  23545338.655 7 123731589.34907     -3428.921 7        42.000    23545338.699 4        26.563    23545339.614 4  96414228.64604     -2671.883 4        26.563    23545339.449 6  96414225.65006     -2671.915 6        39.438    23545338.421 6 123731592.84306     -3428.990 6        40.188
R13  20383626.755 7 108847431.77307     -3018.168 7        46.000    20383628.253 7  84659117.24107     -2347.398 7        47.375
R14  19425974.261 7 103551373.31807      1401.421 7        47.438    19425975.847 8  80539960.97208      1090.056 8        49.438
R15  22991364.259 6 122858879.50106      4041.352 6        39.188    22991365.853 7  95556912.08607      3143.332 7        42.063
R17  21193717.047 7 113411860.44507      1933.074 7        43.500    21193718.827 7  88209227.89907      1503.406 7        45.500
R23  22084221.846 6 118135696.61306     -3230.051 6        41.875    22084223.916 7  91883327.15007     -2512.183 7        43.688
R24  19691016.930 7 105296716.40407     -1105.018 7        47.250    19691018.240 8  81897449.83708      -859.459 8        48.313
> 2023 01 08 13 30  0.0000000  0 21
E10  23555785.092 7 123786487.17907       579.904 7        45.313
E11  24687269.137 7 129732475.43007      1824.485 7        42.750
E12  23416675.328 7 123055458.96007      -734.281 7        45.688
E24  23702869.126 7 124559418.14707       872.478 7        45.250
E25  27073112.439 6 142270167.76406      2575.188 6        39.063
E31  24423931.178 7 128348625.86907     -1478.378 7        44.000
E33  26580265.225 6 139680236.45406     -2560.784 6        39.938
G03  23182110.300 7 121822809.61207      -457.283 7        43.500    23182110.322 4        28.250    23182110.865 4  94926868.88204      -356.324 4        28.250    23182110.681 6  94926866.87506      -356.128 6        40.813    23182110.244 6 121822807.10606      -457.230 6        41.188
G06  20547701.434 8 107978900.05308      1581.235 8        48.688    20547701.465 6        38.063    20547702.583 6  84139407.55306      1232.135 6        38.063    20547702.662 7  84139406.55307      1232.172 7        45.563    20547701.493 7 107978902.54807      1581.287 7        46.438
G11  23484452.506 7 123411631.02307      3245.631 7        42.688    23484452.541 4        26.563    23484451.127 4  96164902.26504      2529.071 4        26.563    23484451.204 6  96164899.27506      2528.940 6        39.938    23484452.757 6 123411630.51706      3245.668 6        40.375
G14  20764841.120 8 109119977.29708     -1343.045 8        48.688    20764841.142 6        37.875    20764839.939 6  85028549.62806     -1046.529 6        37.875    20764839.798 7  85028543.62707     -1046.521 7        45.375    20764841.293 7 109119973.79607     -1343.050 7        46.500
G17  21281877.702 7 111837022.47007      -778.192 7        47.625    21281877.733 5        35.875    21281875.735 5  87145726.10505      -606.387 5        35.875    21281875.791 7  87145726.10507      -606.400 7        44.438    21281877.723 7 111837019.97307      -778.287 7        45.313
G19  20956559.192 7 110127460.80607       724.774 7        47.750    20956559.223 6        36.125    20956556.591 6  85813594.36106       564.759 6        36.125    20956556.413 7  85813586.36307       564.727 7        44.563    20956559.252 7 110127458.30207       724.748 7        45.500
G24  23964292.273 6 125933204.62306      1343.870 6        40.875    23964292.290 4        24.125    23964292.713 4  98129775.83204      1047.167 4        24.125    23964293.151 6  98129776.82706      1047.315 6        39.063    23964292.334 6 125933198.13206      1343.734 6        38.625
G30  23741603.018 6 124762966.45506     -3443.798 6        41.875    23741603.010 4        25.313    23741604.096 4  97217899.12104     -2683.487 4        25.313    23741604.048 6  97217896.13406     -2683.749 6        39.500    23741602.945 6 124762969.95506     -3443.961 6        39.500
R13  20558354.181 7 109780467.83307     -3199.027 7        45.438    20558355.624 7  85384811.95807     -2488.161 7        47.063
R14  19353833.296 7 103166821.02307      1162.276 7        47.438    19353834.395 8  80240864.73508       904.001 8        49.563
R15  22766229.188 6 121655825.68906      3978.329 6        40.063    22766230.613 7  94621203.53307      3094.189 7        42.125
R17  21089246.491 7 112852816.65007      1795.574 7        43.875    21089248.050 7  87774416.03207      1396.591 7        45.563
R23  22265396.607 6 119104859.27106     -3228.206 6        41.375    22265398.348 7  92637120.32307     -2510.939 7        43.125
R24  19756503.649 7 105646904.86707     -1226.662 7        47.250    19756505.152 8  82169818.63208      -954.079 8        48.125
> 2023 01 08 13 35  0.0000000  0 21
E10  23525855.339 7 123629205.58007       469.480 7        45.188
E11  24585782.787 7 129199161.54307      1731.193 7        42.813
E12  23461405.794 7 123290520.14607      -831.662 7        45.313
E24  23655711.925 7 124311605.56907       779.238 7        45.375
E25  26926350.832 6 141498929.70306      2566.312 6        39.125
E31  24511087.749 7 128806636.49507     -1574.593 7        43.438
E33  26726843.908 6 140450512.70606     -2573.254 6        39.688
G03  23213587.239 7 121988224.83107      -645.176 7        42.875    23213587.261 4        28.250    23213588.361 4  95055763.85404      -502.735 4        28.250    23213588.539 6  95055761.84806      -502.583 6        40.813    23213587.653 6 121988222.33806      -645.208 6        40.875
G06  20462075.318 8 107528931.94808      1418.660 8        48.250    20462075.340 6        38.625    20462076.485 6  83788783.04506      1105.449 6        38.625    20462076.669 7  83788782.04807      1105.478 7        46.000    20462075.448 7 107528934.45007      1418.655 7        46.250
G11  23301359.547 7 122449472.41207      3168.214 7        42.750    23301359.587 4        27.875    23301358.423 4  95415168.27104      2468.738 4        27.875    23301359.098 6  95415165.28106      2468.664 6        40.563    23301359.945 6 122449471.90806      3168.172 6        40.750
G14  20845617.051 8 109544457.77908     -1486.392 8        48.188    20845617.086 6        37.813    20845615.893 6  85359313.63706     -1158.232 6        37.813    20845616.028 7  85359307.64107     -1158.252 7        45.125    20845617.073 7 109544454.27507     -1486.340 7        46.125
G17  21326847.334 7 112073340.49407      -796.716 7        47.000    21326847.365 5        35.813    21326845.533 5  87329870.01205      -620.822 5        35.813    21326845.735 7  87329870.01807      -620.842 7        44.438    21326847.522 7 112073337.99307      -796.721 7        44.938
G19  20916737.056 7 109918193.07007       670.942 7        47.375    20916737.091 6        36.500    20916734.253 6  85650528.58306       522.808 6        36.500    20916734.388 7  85650520.58907       522.816 7        44.688    20916736.980 7 109918190.57307       670.910 7        45.375
G24  23892342.818 6 125555108.00306      1176.713 6        40.625    23892342.822 4        24.375    23892343.882 4  97835155.08904       916.923 4        24.375    23892343.886 6  97835156.08706       917.124 6        39.188    23892342.928 6 125555101.49506      1176.807 6        38.688
G30  23938383.020 6 125797052.59106     -3448.060 6        40.938    23938383.024 4        24.563    23938384.058 4  98023680.51804     -2686.812 4        24.563    23938384.230 6  98023677.51806     -2686.714 6        39.313    23938383.245 6 125797056.10306     -3448.029 6        38.688
R13  20742897.226 7 110765915.79707     -3368.490 7        45.125    20742898.250 7  86151271.47507     -2619.862 7        46.563
R14  19295315.606 7 102854887.87107       916.436 7        47.625    19295316.995 8  79998250.06008       712.725 8        49.813
R15  22544929.756 6 120473269.72006      3903.539 6        40.500    22544931.443 7  93701437.77107      3036.106 7        42.500
R17  20992381.346 7 112334470.74607      1660.772 7        44.500    20992382.617 7  87371258.10307      1291.774 7        45.813
R23  22446207.939 6 120072079.94506     -3218.197 6        40.938    22446209.635 7  93389403.04407     -2502.884 7        42.625
R24  19828491.977 7 106031859.29707     -1337.782 7        46.813    19828493.689 7  82469227.63507     -1040.543 7        47.938
> 2023 01 08 13 40  0.0000000  0 21
E10  23502185.709 7 123504820.96007       359.565 7        45.063
E11  24489654.776 7 128694004.64607      1635.719 7        42.688
E12  23511578.204 7 123554177.03407      -925.858 7        44.938
E24  23614009.435 7 124092457.92107       680.375 7        45.125
E25  26780236.099 6 140731091.43106      2551.299 6        39.313
E31  24603725.597 7 129293452.17607     -1671.406 7        43.000
E33  26873998.368 6 141223814.55306     -2582.067 6        39.000
G03  23255802.464 7 122210065.92007      -834.148 7        42.813    23255802.513 4        28.250    23255803.153 4  95228627.03304      -649.981 4        28.250    23255803.390 6  95228625.04506      -650.112 6        40.625    23255802.390 6 122210063.42906      -834.253 6        40.750
G06  20385777.206 8 107127982.08308      1253.552 8        48.188    20385777.232 6        39.125    20385778.272 6  83476354.57006       976.794 6        39.125    20385778.335 7  83476353.57107       976.822 7        46.250    20385777.298 7 107127984.57907      1253.594 7        46.250
G11  23122862.095 7 121511460.65207      3083.718 7        43.125    23122862.144 4        29.125    23122860.744 4  94684250.00504      2402.901 4        29.125    23122861.064 6  94684247.00806      2402.897 6        41.188    23122862.253 6 121511460.15506      3083.644 6        41.188
G14  20934576.683 7 110011943.79607     -1630.732 7        47.875    20934576.709 6        37.438    20934575.538 6  85723588.44506     -1270.700 6        37.438    20934575.600 7  85723582.45107     -1270.692 7        44.813    20934576.626 7 110011940.29307     -1630.690 7        45.875
G17  21372859.965 7 112315136.70507      -815.855 7        46.938    21372859.991 5        35.875    21372857.889 5  87518282.63705      -635.731 5        35.875    21372857.718 7  87518282.63807      -635.743 7        44.188    21372859.605 7 112315134.20207      -815.823 7        44.938
G19  20879965.520 7 109724958.30507       616.805 7        47.500    20879965.564 6        36.875    20879962.862 6  85499956.02906       480.631 6        36.875    20879962.996 7  85499948.02907       480.602 7        44.625    20879965.521 7 109724955.80607       616.789 7        45.625
G24  23830010.542 6 125227550.26006      1005.872 6        40.938    23830010.568 4        24.625    23830011.570 4  97579915.27704       783.792 4        24.625    23830011.675 6  97579916.26306       783.862 6        39.063    23830010.609 6 125227543.75406      1005.998 6        39.125
G30  24135147.567 6 126831057.44306     -3444.424 6        40.313    24135147.616 4        24.188    24135148.660 4  98829398.58104     -2683.966 4        24.188    24135149.053 6  98829395.58106     -2683.999 6        39.125    24135147.837 6 126831060.94406     -3444.429 6        38.563
R13  20936668.304 7 111800642.43307     -3528.566 7        44.813    20936669.340 7  86956058.84607     -2744.369 7        46.063
R14  19250841.784 7 102617817.41507       662.349 7        47.688    19250843.044 8  79813861.91208       515.144 8        49.875
R15  22328202.695 6 119315146.26706      3814.406 6        41.438    22328203.562 7  92800675.08007      2966.660 7        43.063
R17  20903031.240 7 111856341.42807      1526.473 7        44.563    20903032.923 7  86999379.74007      1187.294 7        45.938
R23  22626267.580 6 121035275.77406     -3202.706 6        40.500    22626268.710 7  94138555.36707     -2490.864 7        42.250
R24  19906473.164 7 106448860.74407     -1441.330 7        47.125    19906475.017 7  82793562.07607     -1121.001 7        47.625
> 2023 01 08 13 45  0.0000000  0 21
E10  23484647.566 7 123412657.62407       253.734 7        45.438
E11  24398925.001 7 128217216.18007      1541.223 7        43.250
E12  23566924.184 7 123845022.57107     -1013.833 7        45.188
E24  23577996.088 7 123903205.76507       579.052 7        45.625
E25  26635034.160 6 139968050.53106      2533.321 6        40.000
E31  24701794.621 7 129808807.48807     -1765.713 7        43.125
E33  27021459.377 6 141998729.31006     -2584.737 6        38.938
G03  23308710.652 7 122488098.83107     -1020.596 7        42.563    23308710.687 4        27.625    23308711.003 4  95445276.05004      -795.266 4        27.625    23308711.066 6  95445274.05106      -795.237 6        40.375    23308710.420 6 122488096.32906     -1020.575 6        40.563
G06  20318845.950 8 106776256.54608      1089.700 8        48.188    20318845.981 6        39.125    20318847.138 6  83202282.71506       849.117 6        39.125    20318847.091 7  83202281.72007       849.096 7        46.438    20318846.120 7 106776259.04807      1089.632 7        46.125
G11  22949273.535 7 120599245.65107      2995.391 7        43.563    22949273.548 4        29.625    22949271.963 4  93973433.10804      2334.075 4        29.625    22949272.091 6  93973430.10806      2334.071 6        41.563    22949273.378 6 120599245.14806      2995.391 6        41.563
G14  21031676.668 7 110522207.77407     -1772.408 7        47.500    21031676.703 6        36.625    21031675.494 6  86121196.73506     -1381.093 6        36.625    21031675.302 7  86121190.73507     -1381.036 7        44.625    21031676.685 7 110522204.26407     -1772.318 7        45.438
G17  21419874.756 7 112562202.98707      -832.844 7        46.625    21419874.791 5        35.375    21419873.017 5  87710801.81005      -648.970 5        35.375    21419872.977 7  87710801.80807      -648.966 7        43.938    21419874.850 7 112562200.48007      -832.834 7        44.625
G19  20846184.730 7 109547440.02707       565.253 7        47.563    20846184.765 6        36.813    20846182.209 6  85361630.09006       440.457 6        36.813    20846182.477 7  85361622.09307       440.452 7        44.688    20846184.968 7 109547437.52707       565.237 7        45.625
G24  23777407.277 6 124951118.59606       835.209 6        41.188    23777407.273 4        25.000    23777408.168 4  97364513.97704       650.808 4        25.000    23777408.323 6  97364514.98206       650.751 6        39.063    23777407.327 6 124951112.09006       835.156 6        39.063
G30  24331371.200 6 127862221.27006     -3430.025 6        39.813    24331371.226 3        22.938    24331372.553 3  99632902.86103     -2672.738 3        22.938    24331372.592 6  99632899.87406     -2672.759 6        38.563    24331371.593 6 127862224.77806     -3430.193 6        37.875
R13  21139042.902 7 112881312.25107     -3675.548 7        44.625    21139044.046 7  87796579.82307     -2858.809 7        45.875
R14  19220758.450 7 102457456.34307       404.371 7        47.625    19220759.785 8  79689136.62908       314.523 8        50.313
R15  22116792.300 6 118185431.41106      3713.303 6        41.938    22116793.759 7  91922007.95807      2888.016 7        43.813
R17  20821069.481 7 111417747.65507      1396.284 7        44.750    20821071.241 7  86658251.23607      1086.036 7        46.125
R23  22805211.751 6 121992505.50206     -3179.495 6        39.875    22805213.139 6  94883067.35806     -2472.836 6        41.813
R24  19989935.490 7 106895170.73607     -1534.156 7        46.750    19989937.215 7  83140692.07107     -1193.279 7        47.438
> 2023 01 08 13 50  0.0000000  0 21
E10  23473099.757 7 123351973.17407       150.904 7        45.500
E11  24313620.034 7 127768936.10307      1446.916 7        43.375
E12  23627173.189 7 124161633.88307     -1096.453 7        45.125
E24  23547898.985 7 123745044.38907       474.388 7        45.938
E25  26491025.664 6 139211279.95706      2510.709 6        40.188
E31  24805230.205 7 130352366.58007     -1858.123 7        42.938
E33  27168975.530 6 142773929.79006     -2582.834 6        38.750
G03  23372222.695 7 122821858.32607     -1204.459 7        42.438    23372222.748 4        27.625    23372223.489 4  95705348.36604      -938.540 4        27.625    23372223.442 6  95705346.36706      -938.503 6        40.063    23372222.620 6 122821855.82606     -1204.564 6        40.625
G06  20261287.714 8 106473785.44908       926.500 8        48.125    20261287.745 6        39.625    20261288.798 6  82966590.94406       721.948 6        39.625    20261288.814 7  82966589.94507       721.927 7        46.688    20261287.756 7 106473787.94707       926.557 7        46.313
G11  22780895.593 7 119714413.91407      2902.419 7        44.000    22780895.615 5        30.688    22780894.111 5  93283953.82205      2261.629 5        30.688    22780894.079 6  93283950.83606      2261.560 6        41.938    22780895.490 7 119714413.42107      2902.419 7        42.250
G14  21136847.722 7 111074885.17607     -1912.171 7        47.063    21136847.757 6        36.250    21136846.555 6  86551854.44406     -1490.007 6        36.250    21136846.446 7  86551848.45307     -1490.040 7        44.375    21136847.771 7 111074881.67907     -1912.192 7        45.313
G17  21467874.771 7 112814444.36307      -849.187 7        46.688    21467874.802 5        35.375    21467873.027 5  87907353.52705      -661.709 5        35.375    21467873.279 7  87907353.52807      -661.709 7        43.938    21467874.878 7 112814441.86607      -849.166 7        44.750
G19  20815349.667 7 109385399.62207       514.794 7        47.625    20815349.698 6        37.188    20815346.969 6  85235364.83306       401.138 6        37.188    20815347.088 7  85235356.83007       401.154 7        44.688    20815349.620 7 109385397.12907       514.736 7        46.000
G24  23734607.511 6 124726203.39506       663.785 6        41.375    23734607.569 4        25.313    23734608.329 4  97189255.35904       517.235 4        25.313    23734608.943 6  97189256.36506       517.341 6        39.250    23734607.520 6 124726196.90006       663.806 6        39.563
G30  24526547.652 6 128887879.06506     -3406.519 6        39.250    24526547.683 3        22.375    24526548.620 3 100432116.72003     -2654.430 3        22.375    24526548.810 6 100432113.72406     -2654.361 6        38.313    24526547.524 6 128887882.56806     -3406.519 6        37.188
R13  21349374.195 7 114004470.06807     -3810.467 7        44.063    21349375.477 7  88670147.01207     -2963.767 7        45.500
R14  19205343.300 7 102375285.31607       142.513 7        47.750    19205344.738 8  79625225.81908       110.864 8        50.250
R15  21911456.906 7 117088182.34207      3599.076 7        42.438    21911458.216 7  91068592.01107      2799.314 7        44.313
R17  20746343.446 7 111017873.46807      1269.562 7        44.688    20746345.123 7  86347237.97007       987.470 7        46.250
R23  22982714.938 6 122942027.53106     -3150.159 6        39.625    22982716.036 6  95621584.51606     -2450.240 6        41.625
R24  20078377.843 7 107368110.69007     -1617.652 7        46.438    20078379.433 7  83508534.25007     -1258.178 7        47.063
> 2023 01 08 13 55  0.0000000  0 20
E10  23467380.231 7 123321917.12807        50.327 7        45.500
E11  24233744.221 7 127349185.93607      1351.895 7        43.625
E12  23692044.165 7 124502533.65107     -1175.021 7        45.063
E24  23523928.363 7 123619078.17807       365.209 7        46.000
E25  26348494.864 6 138462276.90906      2482.106 6        40.438
E31  24913946.913 7 130923676.57307     -1949.902 7        42.750
E33  27316300.485 6 143548129.16106     -2577.437 6        38.500
G03  23446199.245 7 123210607.04807     -1386.242 7        42.250    23446199.285 4        27.000    23446199.818 4  96008269.45104     -1080.188 4        27.000    23446199.976 6  96008267.45306     -1080.270 6        39.938    23446199.244 6 123210604.55406     -1386.341 6        40.375
G06  20213065.975 8 106220377.58108       763.436 8        48.125    20213066.006 6        39.750    20213066.861 6  82769130.26106       594.885 6        39.750    20213067.052 7  82769129.26507       594.889 7        46.813    20213065.924 7 106220380.07907       763.499 7        46.188
G11  22618008.088 7 118858433.81207      2803.724 7        44.313    22618008.110 5        31.438    22618006.612 5  92616956.33305      2184.724 5        31.438    22618006.729 7  92616953.32707      2184.860 7        42.000    22618007.965 7 118858433.30907      2803.798 7        42.438
G14  21249985.135 7 111669427.62807     -2050.641 7        46.750    21249985.170 5        35.750    21249984.160 5  87015134.27405     -1597.902 5        35.750    21249984.261 7  87015128.28007     -1597.959 7        44.125    21249985.368 7 111669424.13907     -2050.772 7        44.813
G17  21516853.571 7 113071830.03507      -866.424 7        46.375    21516853.620 5        35.188    21516851.841 5  88107913.78105      -675.140 5        35.188    21516851.885 7  88107913.78807      -675.185 7        43.875    21516853.785 7 113071827.53307      -866.461 7        44.563
G19  20787420.931 7 109238632.72207       464.072 7        47.750    20787420.966 6        37.250    20787418.243 6  85121001.00506       361.615 6        37.250    20787418.349 7  85120993.00607       361.607 7        44.625    20787420.829 7 109238630.22307       464.035 7        45.938
G24  23701637.714 6 124552946.13606       491.561 6        41.500    23701637.736 4        25.688    23701638.712 4  97054249.70604       383.043 4        25.688    23701638.538 6  97054250.69906       383.031 6        39.188    23701637.973 6 124552939.63606       491.535 6        39.500
R13  21566988.632 7 115166519.04407     -3934.161 7        43.625    21566990.190 7  89573962.86107     -3059.803 7        45.125
R14  19204792.326 7 102372349.35907      -122.896 7        47.688    19204793.787 8  79622942.29108       -95.611 8        50.313
R15  21712959.317 7 116027468.14807      3470.464 7        42.875    21712959.894 7  90243592.07007      2699.229 7        44.938
R17  20678668.614 7 110655731.79707      1145.655 7        44.813    20678670.176 7  86065572.21807       891.094 7        46.063
R23  23158478.810 6 123882246.87306     -3116.854 6        38.500    23158480.560 6  96352866.20706     -2424.145 6        41.625
R24  20171304.442 7 107865031.12807     -1693.339 7        45.938    20171305.998 7  83895027.91907     -1317.046 7        47.000
> 2023 01 08 14 00  0.0000000  0 21
E10  23467316.145 7 123321580.50007       -46.491 7        45.063
E11  24159287.541 7 126957912.89207      1257.709 7        43.438
E12  23761255.786 7 124866241.68607     -1247.940 7        44.625
E24  23506283.850 7 123526355.62407       253.461 7        45.625
E25  26207739.478 6 137722601.85406      2449.057 6        40.250
E31  25027844.600 7 131522211.78007     -2038.975 7        42.313
E33  27463206.639 6 144320126.06806     -2567.510 6        37.625
G03  23530457.484 7 123653387.15307     -1563.878 7        42.500    23530457.501 4        26.313    23530458.192 4  96353292.90304     -1218.602 4        26.313    23530457.894 6  96353290.90506     -1218.581 6        39.563    23530457.279 6 123653384.65406     -1563.857 6        39.938
G06  20174110.657 8 106015667.41308       602.647 8        48.500    20174110.692 6        39.750    20174111.799 6  82609615.83506       469.595 6        39.750    20174111.931 7  82609614.83907       469.608 7        46.875    20174110.814 7 106015669.91607       602.595 7        46.125
G11  22460874.128 7 118032691.44007      2701.446 7        44.875    22460874.150 5        31.500    22460873.036 5  91973520.70705      2105.022 5        31.500    22460872.815 7  91973517.69807      2105.125 7        42.313    22460874.505 7 118032690.93507      2701.535 7        42.563
G14  21370958.828 7 112305147.85607     -2185.927 7        46.813    21370958.868 5        35.000    21370957.689 5  87510500.67705     -1703.315 5        35.000    21370957.799 7  87510494.68007     -1703.348 7        43.813    21370958.738 7 112305144.35207     -2185.932 7        44.500
G17  21566825.343 7 113334434.28607      -883.293 7        46.625    21566825.383 5        34.688    21566823.716 5  88312540.46705      -688.284 5        34.688    21566823.699 7  88312540.47107      -688.346 7        43.750    21566825.693 7 113334431.79507      -883.414 7        44.438
G19  20762374.824 8 109107015.52908       414.396 8        48.125    20762374.855 6        37.063    20762372.318 6  85018442.14506       322.906 6        37.063    20762372.417 7  85018434.14207       322.931 7        44.688    20762374.927 7 109107013.03007       414.412 7        45.875
G24  23678485.421 6 124431279.75106       320.694 6        41.813    23678485.465 4        25.438    23678486.243 4  96959444.71904       249.891 4        25.438    23678486.495 6  96959445.74506       249.842 6        39.125    23678485.402 6 124431273.26206       320.641 6        39.563
R01  23465298.587 6 125435468.29106      2653.008 6        38.000    23465300.047 6  97560925.29806      2063.505 6        41.063
R13  21791198.443 7 116363787.44407     -4044.725 7        42.938    21791199.947 7  90505171.61907     -3145.831 7        44.563
R14  19219224.978 7 102449283.49707      -389.051 7        47.625    19219226.526 8  79682779.94408      -302.558 8        50.188
R15  21522064.520 7 115007387.74007      3328.808 7        43.563    21522066.209 7  89450196.18007      2589.064 7        45.375
R17  20617839.122 7 110330219.29707      1026.072 7        44.938    20617840.343 7  85812395.81207       798.226 7        46.188
R23  23332240.758 6 124811759.98206     -3078.082 6        38.375    23332242.743 6  97075820.85006     -2394.251 6        41.250
R24  20268237.076 7 108383373.22107     -1759.888 7        46.125    20268238.469 7  84298182.87207     -1368.806 7        46.625
