     3.04           O                   M                   RINEX VERSION / TYPE
SKYDEL              INS UNI STUTTGART   20230108 095842 UTC PGM / RUN BY / DATE 
NONE                                                        MARKER NAME         
SPACEBORNE                                                  MARKER TYPE         
SIMULATOR           INS UNI STUTTGART                       OBSERVER / AGENCY   
NONE                SKYDEL SOFTWARE     20.9.5              REC # / TYPE / VERS 
NONE                NONE                                    ANT # / TYPE        
        0.0000        0.0000        0.0000                  ANTENNA: DELTA H/E/N
S    8 C1C L1C D1C S1C C5X L5X D5X S5X                      SYS / # / OBS TYPES 
E   12 C1X L1X D1X S1X C5X L5X D5X S5X C7X L7X D7X S7X      SYS / # / OBS TYPES 
C   16 C1X L1X D1X S1X C2X L2X D2X S2X C5X L5X D5X S5X C7X  SYS / # / OBS TYPES 
       L7X D7X S7X                                          SYS / # / OBS TYPES 
R    4 C1C L1C D1C S1C                                      SYS / # / OBS TYPES 
I    4 C5X L5X D5X S5X                                      SYS / # / OBS TYPES 
G   24 C1C L1C D1C S1C C1P L1P D1P S1P C1X L1X D1X S1X C2P  SYS / # / OBS TYPES 
       L2P D2P S2P C2X L2X D2X S2X C5X L5X D5X S5X          SYS / # / OBS TYPES 
J   20 C1C L1C D1C S1C C1X L1X D1X S1X C1Z L1Z D1Z S1Z C5X  SYS / # / OBS TYPES 
       L5X D5X S5X C5Z L5Z D5Z S5Z                          SYS / # / OBS TYPES 
     0.500                                                  INTERVAL            
  2023     1     8    10    00    0.0000000     GPS         TIME OF FIRST OBS   
  2023     1     8    14    00    0.0000000     GPS         TIME OF LAST OBS    
                                                            SYS / PHASE SHIFT   
                                                            END OF HEADER       
> 2023 01 08 10 00  0.0000000  0 64
C01  38738629.378   203572871.3870         27.929          38.916    38738629.378   201722208.9190         27.675          34.896    38738627.789   152018696.4240         20.856          42.513    38738627.789   155984401.5480         21.400          35.489  
C02  36970001.778   194278670.6140          1.417          42.305    36970001.778   192512500.8820          1.404          38.284    36969997.101   145078209.7040          1.058          46.741    36969997.101   148862858.6520          1.085          39.717  
C03  37070442.090   194806488.0180         29.957          41.989    37070442.090   193035519.9450         29.684          37.968    37070438.972   145472365.1810         22.370          46.444    37070438.972   149267296.4460         22.954          39.420  
C04  40369837.809   212144929.5490         25.330          36.582    40369837.809   210216339.2800         25.100          32.561    40369833.522   158419898.1000         18.915          40.442    40369833.522   162552591.0930         19.409          33.419  
C05  38003404.251   199709237.2670         -3.723          40.317    38003404.251   197893698.7460         -3.689          36.296    38003401.463   149133510.3940         -2.780          44.174    38003401.463   153023949.7960         -2.853          37.151  
C06  37180551.292   195385115.7800      -1255.870          41.483    37180551.292   193608887.4540      -1244.453          37.463    37180548.174   145904457.3410       -937.825          45.667    37180548.174   149710660.5760       -962.290          38.643  
C07  36182366.323   190139618.3620       -246.079          44.434    36182366.323   188411076.3770       -243.842          40.413    36182362.126   141987360.8780       -183.760          49.071    36182362.126   145691378.9880       -188.554          42.048  
C09  36215484.551   190313655.8270       -859.794          43.896    36215484.551   188583531.6830       -851.978          39.875    36215483.592   142117336.6260       -642.054          47.857    36215483.592   145824745.4070       -658.803          40.833  
C10  36419809.314   191387389.7060       -155.019          44.430    36419809.314   189647504.3450       -153.610          40.409    36419808.385   142919151.0040       -115.761          49.095    36419808.385   146647476.6820       -118.781          42.072  
C16  37491329.472   197018266.1370      -1278.917          41.006    37491329.472   195227190.9900      -1267.290          36.985    37491331.600   147124038.2600       -955.035          44.887    37491331.600   150962056.6500       -979.949          37.864  
C23  23874637.974   125462069.3530      -1685.978          45.835    23874637.974   124321505.0860      -1670.651          41.814    23874637.974    93689207.6340      -1259.010          49.048    23874637.974    96133273.9200      -1291.853          42.024  
C27  22998766.021   120859331.1750       2576.480          46.815    22998766.021   119760609.9820       2553.058          42.795    22998766.021    90252097.9550       1923.995          49.877    22998766.021    92606500.5100       1974.186          42.853  
C28  21776304.814   114435254.1730       -203.699          48.919    21776304.814   113394933.6810       -201.847          44.899    21776304.814    85454897.5970       -152.113          53.439    21776304.814    87684155.7950       -156.081          46.415  
C37  22114749.389   116213792.4180        567.850          48.850    22114749.389   115157303.3960        562.688          44.829    22114749.389    86783026.8050        424.044          53.245    22114749.389    89046931.8520        435.106          46.221  
C38  40351281.485   212047415.4070       1818.106          36.410    40351281.485   210119711.6310       1801.577          32.389    40351281.485   158347095.9210       1357.676          40.352    40351281.485   162477889.7270       1393.094          33.328  
C39  38388525.742   201733064.3620      -1474.015          39.681    38388525.742   199899127.4130      -1460.615          35.660    38388525.742   150644820.7900      -1100.726          43.598    38388525.742   154574685.6800      -1129.440          36.575  
C40  36607012.526   192371149.2250       -480.328          43.739    36607012.526   190622320.5960       -475.962          39.718    36607012.526   143653780.2660       -358.687          47.680    36607012.526   147401270.1850       -368.044          40.656  
C43  25130935.074   132063955.1700      -2880.861          42.835    25130935.074   130863373.7590      -2854.671          38.814    25130935.074    98619187.3020      -2151.292          46.055    25130935.074   101191861.7530      -2207.413          39.032  
C46  24691125.878   129752742.2460       2472.240          43.802    24691125.878   128573171.8620       2449.765          39.781    24691125.878    96893281.5480       1846.153          47.089    24691125.878    99420932.3710       1894.314          40.066  
C59  38645177.821   203081780.1410         -5.083          39.460    38645177.821   201235582.1390         -5.036          35.439    38645177.821   151651978.6770         -3.795          43.365    38645177.821   155608117.2510         -3.894          36.341  
C60  37040939.798   194651452.4260         42.086          42.133    37040939.798   192881893.7680         41.703          38.112    37040939.798   145356604.0840         31.428          46.595    37040939.798   149148515.4950         32.247          39.572  
E01  25176325.433   132302483.1190       -908.460          47.512    25176325.558    98797309.3140       -678.395          49.928    25176325.433   101374629.9220       -696.093          49.904  
E04  26153846.138   137439389.0930      -2560.034          45.510    26153844.636   102633304.1430      -1911.714          48.400    26153846.138   105310700.7340      -1961.584          48.376  
E09  25972539.144   136486614.4090       -863.314          46.248    25972540.395   101921827.3600       -644.682          49.152    25972539.144   104580652.5990       -661.500          49.129  
E12  27304132.859   143484186.6120       3068.848          43.424    27304127.351   107147260.5970       2291.672          46.344    27304132.859   109942428.7030       2351.455          46.320  
E14  24351465.547   127967815.1630      -2659.100          45.031    24351463.795    95560374.5760      -1985.692          47.693    24351465.547    98053260.9690      -2037.492          47.669  
E24  27609935.348   145091189.5370       1596.834          43.199    27609934.221   108347312.4410       1192.441          46.239    27609935.348   111173768.6060       1223.548          46.216  
E26  26144233.468   137388874.1750       -614.537          46.519    26144231.090   102595578.5250       -458.908          49.309    26144233.468   105271994.4980       -470.879          49.285  
E31  24476138.936   128622978.2410        697.090          48.880    24476141.689    96049637.4150        520.554          51.463    24476138.936    98555269.0420        534.134          51.439  
E33  24781482.921   130227571.7140       1840.281          48.071    24781481.043    97247854.6260       1374.236          50.637    24781482.921    99784762.7420       1410.085          50.614  
G01  21878706.483   114973378.5740       2660.059          47.374    21878706.483   114973378.5740       2660.059          44.374    21878706.483   114973378.5740       2660.059          48.874    21878707.386    89589649.3400       2072.774          44.171    21878707.386    89589649.3400       2072.774          45.671    21878707.590    85856748.0860       1986.408          48.641  
G07  20116832.965   105714670.7440        377.028          51.154    20116832.965   105714670.7440        377.028          48.154    20116832.965   105714670.7440        377.028          52.654    20116830.797    82375059.2370        293.788          49.232    20116830.797    82375059.2370        293.788          50.732    20116830.307    78942763.1780        281.547          53.702  
G08  22285836.105   117112859.1790      -2972.202          46.996    22285836.105   117112859.1790      -2972.202          43.996    22285836.105   117112859.1790      -2972.202          48.496    22285837.099    91256777.4540      -2316.002          43.934    22285837.099    91256777.4540      -2316.002          45.434    22285837.323    87454412.6090      -2219.502          48.404  
G09  23410611.269   123023592.5600      -3123.108          44.660    23410611.269   123023592.5600      -3123.108          41.660    23410611.269   123023592.5600      -3123.108          46.160    23410611.450    95862540.3970      -2433.590          41.668    23410611.450    95862540.3970      -2433.590          43.168    23410611.491    91868268.0400      -2332.191          46.138  
G14  22588622.613   118704013.0200       1767.082          46.505    22588622.613   118704013.0200       1767.082          43.505    22588622.613   118704013.0200       1767.082          48.005    22588621.078    92496627.2350       1376.947          43.630    22588621.078    92496627.2350       1376.947          45.130    22588620.731    88642599.7370       1319.574          48.100  
G17  22600513.797   118766501.6120       2677.290          45.693    22600513.797   118766501.6120       2677.290          42.693    22600513.797   118766501.6120       2677.290          47.193    22600511.630    92545317.0550       2086.200          42.949    22600511.630    92545317.0550       2086.200          44.449    22600511.139    88689260.2540       1999.275          47.418  
G21  21419846.293   112562051.9990        103.113          48.237    21419846.293   112562051.9990        103.113          45.237    21419846.293   112562051.9990        103.113          49.737    21419844.306    87710681.7330         80.348          44.927    21419844.306    87710681.7330         80.348          46.427    21419843.856    84056068.2300         77.000          49.397  
G30  21492528.528   112943999.7230       2305.501          48.838    21492528.528   112943999.7230       2305.501          45.838    21492528.528   112943999.7230       2305.501          50.338    21492529.250    88008314.4310       1796.494          45.486    21492529.250    88008314.4310       1796.494          46.986    21492529.414    84341301.9710       1721.640          49.956  
I02  37473892.796   147055604.6460        188.002          46.952  
I03  37261082.980   146220493.2180        -41.364          48.145  
I06  39775936.524   156089318.7090        -14.702          42.335  
I09  39442705.699   154781649.3770       -558.484          42.616  
J02  39869743.994   209516918.8100        789.960          45.073    39869743.994   209516918.8100        789.960          46.573    39869743.994   209516918.8100        789.960          45.073    39869744.104   156457439.8050        589.905          48.124    39869744.104   156457439.8050        589.905          48.124  
J03  39143266.905   205699255.9430       -454.096          45.957    39143266.905   205699255.9430       -454.096          47.457    39143266.905   205699255.9430       -454.096          45.957    39143266.795   153606586.7960       -339.098          49.424    39143266.795   153606586.7960       -339.098          49.424  
J07  37728984.458   198267151.5200         -4.486          45.509    37728984.458   198267151.5200         -4.486          47.009    37728984.458   198267151.5200         -4.486          45.509    37728983.129   148056633.9070         -3.350          48.289    37728983.129   148056633.9070         -3.350          48.289  
R02  23254468.778   124090301.2540      -2989.916          39.119  
R03  23287484.463   124659727.6270       -796.656          39.066  
R11  22013804.274   117635095.5650      -1778.695          42.982  
R12  20175652.575   107774714.6680        862.698          47.241  
R13  22168150.322   118376685.9370       2680.165          42.559  
R21  22437214.628   120066067.7290      -3580.372          42.133  
R22  19697069.922   105144296.8930       -545.620          48.328  
R23  21017326.517   112428524.8660       3726.386          45.476  
S22  38852183.920   204169604.5300          0.005          41.330    38852183.920   152464315.0710          0.004          42.378  
S23  40134005.869   210905624.3390         -1.832          39.073    40134005.869   157494459.7340         -1.368          40.079  
S26  37657891.581   197893555.9290          1.829          43.206    37657891.581   147777655.4010          1.366          44.421  
S27  38197643.372   200729970.7340         -9.202          42.335    38197643.372   149895757.3670         -6.872          43.517  
S28  36915195.957   193990664.0840         -8.386          44.744    36915195.957   144863158.2450         -6.263          46.409  
S30  38646357.834   203087981.1490         -5.691          41.658    38646357.834   151656609.3000         -4.250          42.862  
S32  36780211.453   193281315.7270         -2.526          45.263    36780211.453   144333450.0560         -1.886          46.725  
S34  36783505.742   193298627.3340          0.106          45.208    36783505.742   144346377.5550          0.079          46.694  
S37  37729398.391   198269326.7510         -4.717          43.108    37729398.391   148058263.4830         -3.523          44.287  
S43  36944420.075   194144237.8600         -0.393          44.592    36944420.075   144977839.9610         -0.293          46.306  
S44  37042249.722   194658336.1240         43.037          44.333    37042249.722   145361744.5080         32.138          46.095  
> 2023 01 08 10 05  0.0000000  0 64
C01  38737015.991   203564392.9780         28.594          38.919    38737015.991   201713807.5870         28.335          34.898    38737014.402   152012365.1440         21.353          42.517    38737014.402   155977905.1050         21.910          35.493  
C02  36969906.981   194278172.4560          1.919          42.304    36969906.981   192512007.2520          1.901          38.283    36969902.304   145077837.7020          1.433          46.740    36969902.304   148862476.9470          1.470          39.717  
C03  37068711.489   194797393.6480         30.669          41.992    37068711.489   193026508.2510         30.390          37.971    37068708.371   145465573.9300         22.902          46.447    37068708.371   149260328.0330         23.499          39.423  
C04  40368387.591   212137308.6010         25.472          36.584    40368387.591   210208787.6130         25.241          32.564    40368383.304   158414207.1320         19.022          40.444    40368383.304   162546751.6660         19.518          33.420  
C05  38003591.784   199710222.7560         -2.847          40.316    38003591.784   197894675.2760         -2.821          36.295    38003588.996   149134246.3120         -2.126          44.173    38003588.996   153024704.9110         -2.181          37.149  
C06  37253313.831   195767485.5060      -1293.083          41.365    37253313.831   193987781.0920      -1281.328          37.345    37253310.714   146189993.1750       -965.614          45.465    37253310.714   150003645.1710       -990.804          38.441  
C07  36196199.424   190212311.8030       -238.395          44.406    36196199.424   188483108.9680       -236.228          40.385    36196195.227   142041644.9410       -178.022          49.028    36196195.227   145747079.1570       -182.666          42.004  
C09  36265938.279   190578791.9570       -907.709          43.758    36265938.279   188846257.4840       -899.457          39.738    36265937.320   142315327.8910       -677.835          47.709    36265937.320   146027901.6620       -695.517          40.685  
C10  36428454.002   191432817.8470       -147.671          44.406    36428454.002   189692519.5020       -146.329          40.386    36428453.073   142953074.6150       -110.274          49.064    36428453.073   146682285.2570       -113.151          42.040  
C16  37565376.280   197407384.7410      -1315.007          40.884    37565376.280   195612772.1530      -1303.053          36.863    37565378.409   147414613.8420       -981.986          44.729    37565378.409   151260212.4630      -1007.603          37.705  
C23  23973091.516   125979446.2070      -1763.297          45.655    23973091.516   124834178.5140      -1747.267          41.634    23973091.516    94075560.4790      -1316.748          48.959    23973091.516    96529705.5350      -1351.098          41.935  
C27  22854738.315   120102460.4690       2468.401          47.065    22854738.315   119010619.9190       2445.961          43.044    22854738.315    89686902.2980       1843.287          50.184    22854738.315    92026560.6190       1891.372          43.160  
C28  21792540.884   114520575.2950       -364.722          48.894    21792540.884   113479479.1550       -361.406          44.873    21792540.884    85518611.4210       -272.357          53.386    21792540.884    87749531.7190       -279.462          46.362  
C37  22084559.091   116055141.3290        489.112          48.881    22084559.091   115000094.5890        484.665          44.860    22084559.091    86664553.5900        365.246          53.350    22084559.091    88925368.0310        374.774          46.327  
C38  40246850.954   211498629.2590       1840.112          36.632    40246850.954   209575914.4480       1823.384          32.612    40246850.954   157937288.0830       1374.110          40.466    40246850.954   162057391.2500       1409.956          33.442  
C39  38473408.904   202179128.3870      -1499.482          39.546    38473408.904   200341136.3100      -1485.850          35.526    38473408.904   150977920.5490      -1119.743          43.455    38473408.904   154916474.9980      -1148.954          36.432  
C40  36634107.677   192513535.2010       -468.703          43.656    36634107.677   190763412.1540       -464.442          39.635    36634107.677   143760107.4550       -350.006          47.606    36634107.677   147510371.1280       -359.136          40.583  
C43  25297066.803   132936983.3000      -2938.143          42.419    25297066.803   131728465.2700      -2911.433          38.398    25297066.803    99271123.8930      -2194.068          45.804    25297066.803   101860805.3860      -2251.304          38.780  
C46  24549963.953   129010931.3250       2472.593          44.079    24549963.953   127838104.6760       2450.115          40.059    24549963.953    96339331.8340       1846.417          47.499    24549963.953    98852531.7940       1894.584          40.475  
C59  38645450.954   203083215.4610         -4.480          39.459    38645450.954   201237004.4110         -4.439          35.439    38645450.954   151653050.5070         -3.345          43.364    38645450.954   155609217.0420         -3.432          36.340  
C60  37038526.069   194638768.1950         42.469          42.140    37038526.069   192869324.8480         42.083          38.119    37038526.069   145347132.0940         31.714          46.601    37038526.069   149138796.4100         32.541          39.578  
E01  25228565.984   132577009.0690       -921.990          47.426    25228566.110    99002312.4590       -688.499          49.843    25228565.984   101584980.9750       -706.460          49.819  
E04  26300673.422   138210971.6770      -2582.712          45.259    26300671.919   103209485.9430      -1928.649          48.021    26300673.422   105901913.3630      -1978.961          47.998  
E09  26025232.473   136763519.7230       -982.049          46.156    26025233.725   102128607.3030       -733.348          49.089    26025232.473   104792826.8010       -752.479          49.066  
E12  27128795.792   142562784.1060       3072.768          43.828    27128790.284   106459200.2840       2294.600          46.543    27128795.792   109236418.9900       2354.459          46.519  
E14  24504861.631   128773917.0230      -2713.981          44.578    24504859.879    96162333.7570      -2026.674          47.400    24504861.631    98670923.4330      -2079.544          47.376  
E24  27518527.651   144610838.8490       1605.698          43.416    27518526.524   107988609.0060       1199.060          46.338    27518527.651   110805707.6900       1230.340          46.315  
E26  26183323.181   137594292.0030       -754.648          46.453    26183320.803   102748974.9550       -563.536          49.273    26183323.181   105429392.5740       -578.237          49.249  
E31  24436517.017   128414763.6530        690.948          49.014    24436519.771    95894152.4960        515.967          51.557    24436517.017    98395727.9940        529.427          51.533  
E33  24679572.104   129692026.7550       1729.104          48.268    24679570.226    96847934.6890       1291.214          50.892    24679572.104    99374410.1110       1324.898          50.868  
G01  21730525.520   114194682.3610       2529.375          47.643    21730525.520   114194682.3610       2529.375          44.643    21730525.520   114194682.3610       2529.375          49.143    21730526.424    88982873.0700       1970.942          44.344    21730526.424    88982873.0700       1970.942          45.844    21730526.628    85275254.1610       1888.819          48.814  
G07  20100042.897   105626438.3430        210.414          51.120    20100042.897   105626438.3430        210.414          48.120    20100042.897   105626438.3430        210.414          52.620    20100040.729    82306306.7160        163.959          49.224    20100040.729    82306306.7160        163.959          50.724    20100040.239    78876875.3450        157.127          53.694  
G08  22457036.076   118012521.1010      -3024.187          46.661    22457036.076   118012521.1010      -3024.187          43.661    22457036.076   118012521.1010      -3024.187          48.161    22457037.070    91957812.7180      -2356.509          43.744    22457037.070    91957812.7180      -2356.509          45.244    22457037.295    88126238.0700      -2258.322          48.213  
G09  23589548.021   123963911.5360      -3144.005          44.208    23589548.021   123963911.5360      -3144.005          41.208    23589548.021   123963911.5360      -3144.005          45.708    23589548.201    96595256.4820      -2449.874          41.174    23589548.201    96595256.4820      -2449.874          42.674    23589548.242    92570454.2890      -2347.796          45.643  
G14  22488355.482   118177105.6900       1745.679          46.709    22488355.482   118177105.6900       1745.679          43.709    22488355.482   118177105.6900       1745.679          48.209    22488353.947    92086050.0940       1360.269          43.753    22488353.947    92086050.0940       1360.269          45.253    22488353.600    88249129.9780       1303.591          48.222  
G17  22450757.196   117979525.3640       2568.584          46.057    22450757.196   117979525.3640       2568.584          43.057    22450757.196   117979525.3640       2568.584          47.557    22450755.029    91932088.8100       2001.494          43.314    22450755.029    91932088.8100       2001.494          44.814    22450754.539    88101583.1860       1918.099          47.784  
G21  21419525.379   112560365.5890        -92.098          48.273    21419525.379   112560365.5890        -92.098          45.273    21419525.379   112560365.5890        -92.098          49.773    21419523.392    87709367.6470        -71.765          44.970    21419523.392    87709367.6470        -71.765          46.470    21419522.943    84054808.8980        -68.774          49.439  
G30  21363945.206   112268289.8030       2197.860          49.238    21363945.206   112268289.8030       2197.860          46.238    21363945.206   112268289.8030       2197.860          50.738    21363945.928    87481787.2210       1712.618          45.704    21363945.928    87481787.2210       1712.618          47.204    21363946.091    83836713.3950       1641.259          50.174  
I02  37459527.681   146999232.8490        187.828          46.988  
I03  37264196.844   146232712.6910        -40.095          48.136  
I06  39777098.371   156093878.0460        -15.692          42.333  
I09  39484987.995   154947574.1860       -547.599          42.567  
J02  39824101.350   209277065.1000        808.926          45.083    39824101.350   209277065.1000        808.926          46.583    39824101.350   209277065.1000        808.926          45.083    39824101.461   156278328.2690        604.068          48.129    39824101.461   156278328.2690        604.068          48.129  
J03  39169508.595   205837156.9540       -465.134          45.999    39169508.595   205837156.9540       -465.134          47.499    39169508.595   205837156.9540       -465.134          45.999    39169508.484   153709564.8230       -347.340          49.478    39169508.484   153709564.8230       -347.340          49.478  
J07  37729239.421   198268491.3620         -4.445          45.509    37729239.421   198268491.3620         -4.445          47.009    37729239.421   198268491.3620         -4.445          45.509    37729238.093   148057634.4380         -3.320          48.289    37729238.093   148057634.4380         -3.320          48.289  
R02  23424191.036   124995971.7440      -3045.416          38.605  
R03  23337818.692   124929170.6980       -998.298          38.905  
R11  22116320.226   118182909.7310      -1873.800          42.689  
R12  20129337.296   107527306.7620        785.536          47.402  
R13  22017316.133   117571239.7840       2688.714          42.990  
R21  22641691.084   121160262.5510      -3711.930          41.529  
R22  19735284.626   105348289.5770       -813.643          48.340  
R23  20812639.473   111333587.2000       3570.963          45.881  
S22  38852183.669   204169603.2120          0.004          41.330    38852183.669   152464314.0870          0.003          42.378  
S23  40134109.544   210906169.1530         -1.800          39.073    40134109.544   157494866.5750         -1.345          40.079  
S26  37657788.311   197893013.2440          1.789          43.206    37657788.311   147777250.1500          1.336          44.421  
S27  38198171.712   200732747.1790         -9.418          42.335    38198171.712   149897830.6860         -7.033          43.517  
S28  36915667.805   193993143.6600         -8.410          44.744    36915667.805   144865009.8760         -6.280          46.409  
S30  38646666.137   203089601.2940         -5.110          41.657    38646666.137   151657819.1480         -3.816          42.861  
S32  36780355.504   193282072.7180         -2.520          45.263    36780355.504   144334015.3420         -1.882          46.725  
S34  36783499.816   193298596.1900          0.102          45.208    36783499.816   144346354.2980          0.076          46.694  
S37  37729667.268   198270739.7090         -4.702          43.108    37729667.268   148059318.6140         -3.511          44.287  
S43  36944456.819   194144430.9500         -0.894          44.594    36944456.819   144977984.1510         -0.668          46.308  
S44  37039781.407   194645365.0430         43.433          44.340    37039781.407   145352058.3120         32.434          46.101  
> 2023 01 08 10 10  0.0000000  0 63
C01  38735364.943   203555716.6610         29.245          38.921    38735364.943   201705210.1460         28.979          34.901    38735363.354   152005886.0760         21.839          42.521    38735363.354   155971257.0180         22.409          35.498  
C02  36969783.107   194277521.4910          2.421          42.303    36969783.107   192511362.2040          2.399          38.283    36969778.430   145077351.5920          1.808          46.740    36969778.430   148861978.1550          1.855          39.716  
C03  37066940.709   194788088.1380         31.365          41.995    37066940.709   193017287.3370         31.080          37.974    37066937.591   145458625.0110         23.422          46.450    37066937.591   149253197.8370         24.033          39.427  
C04  40366929.673   212129647.1900         25.602          36.587    40366929.673   210201195.8520         25.369          32.567    40366925.386   158408485.9480         19.118          40.445    40366925.386   162540881.2340         19.617          33.421  
C05  38003729.233   199710945.0590         -1.968          40.314    38003729.233   197895391.0130         -1.951          36.294    38003726.445   149134785.6940         -1.470          44.172    38003726.445   153025258.3640         -1.508          37.148  
C06  37328169.509   196160854.7450      -1329.187          41.247    37328169.509   194377574.2470      -1317.104          37.226    37328166.391   146483742.9320       -992.575          45.265    37328166.391   150305057.9650      -1018.468          38.241  
C07  36209568.808   190282568.3850       -229.841          44.380    36209568.808   188552726.8550       -227.752          40.360    36209564.610   142094109.2720       -171.635          48.980    36209564.610   145800912.1230       -176.112          41.957  
C09  36319114.288   190858233.7730       -955.149          43.571    36319114.288   189123158.9200       -946.466          39.550    36319113.329   142524001.9750       -713.261          47.561    36319113.329   146242019.4180       -731.868          40.538  
C10  36436651.540   191475896.2000       -139.361          44.385    36436651.540   189735206.2340       -138.094          40.364    36436650.611   142985243.5150       -104.068          49.031    36436650.611   146715293.3460       -106.783          42.007  
C16  37641448.471   197807146.8020      -1349.861          40.757    37641448.471   196008900.0130      -1337.589          36.736    37641450.599   147713137.4580      -1008.013          44.585    37641450.599   151566523.6530      -1034.309          37.561  
C23  24075973.164   126520092.9180      -1841.070          45.465    24075973.164   125369910.2550      -1824.333          41.444    24075973.164    94479290.1660      -1374.825          48.862    24075973.164    96943967.3010      -1410.690          41.839  
C27  22717035.456   119378827.0600       2354.957          47.337    22717035.456   118293564.9960       2333.548          43.316    22717035.456    89146526.7010       1758.571          50.476    22717035.456    91472088.2670       1804.447          43.452  
C28  21817897.648   114653825.9890       -523.134          48.863    21817897.648   113611518.4800       -518.378          44.842    21817897.648    85618116.8100       -390.652          53.301    21817897.648    87851632.9010       -400.843          46.278  
C37  22058985.447   115920750.9270        406.120          48.920    22058985.447   114866925.9180        402.428          44.899    22058985.447    86564197.1210        303.271          53.438    22058985.447    88822393.5670        311.183          46.414  
C38  40141225.528   210943563.9010       1859.962          36.858    40141225.528   209025895.1390       1843.053          32.837    40141225.528   157522791.2250       1388.933          40.570    40141225.528   161632081.4310       1425.166          33.546  
C39  38559700.307   202632592.7720      -1523.342          39.412    38559700.307   200790478.2930      -1509.493          35.392    38559700.307   151316546.5510      -1137.560          43.287    38559700.307   155263934.7220      -1167.236          36.263  
C40  36660504.036   192652249.0060       -455.857          43.566    36660504.036   190900864.9240       -451.713          39.545    36660504.036   143863692.4400       -340.413          47.536    36660504.036   147616658.3290       -349.293          40.512  
C43  25466266.746   133826135.0010      -2988.366          41.972    25466266.746   132609533.7740      -2961.199          37.951    25466266.746    99935100.8130      -2231.572          45.588    25466266.746   102542103.4420      -2289.787          38.564  
C46  24408882.577   128269543.6920       2469.373          44.349    24408882.577   127103456.9310       2446.924          40.329    24408882.577    95785698.2120       1844.013          47.892    24408882.577    98284455.5560       1892.117          40.869  
C59  38645689.401   203084468.5090         -3.874          39.459    38645689.401   201238246.0670         -3.839          35.438    38645689.401   151653986.2240         -2.893          43.363    38645689.401   155610177.1690         -2.968          36.339  
C60  37036091.159   194625972.6570         42.831          42.146    37036091.159   192856645.6330         42.442          38.126    37036091.159   145337576.9840         31.984          46.608    37036091.159   149128992.0360         32.819          39.584  
E01  25281627.343   132855848.3900       -937.234          47.336    25281627.468    99210536.6260       -699.882          49.767    25281627.343   101798637.0780       -718.140          49.743  
E04  26448600.851   138988335.5660      -2598.583          44.998    26448599.349   103789984.9510      -1940.500          47.633    26448600.851   106497555.8240      -1991.122          47.609  
E09  26084585.258   137075420.7130      -1096.555          46.051    26084586.510   102361520.3800       -818.856          49.011    26084585.258   105031815.8710       -840.218          48.988  
E12  26953418.432   141641169.8580       3070.248          44.210    26953412.924   105770981.8530       2292.717          46.775    26953418.432   108530247.0340       2352.527          46.751  
E14  24661232.163   129595649.7140      -2763.323          44.095    24661230.410    96775965.3120      -2063.521          47.160    24661232.163    99300562.7680      -2117.352          47.136  
E24  27426581.840   144127660.3480       1615.665          43.630    27426580.713   107627793.8910       1206.503          46.440    27426581.840   110435480.0070       1237.977          46.416  
E26  26230361.428   137841479.6590       -892.925          46.373    26230359.050   102933563.1400       -666.795          49.228    26230361.428   105618796.1030       -684.189          49.204  
E31  24397257.936   128208455.7910        684.344          49.152    24397260.690    95740091.4290        511.036          51.650    24397257.936    98237647.9440        524.368          51.627  
E33  24584161.661   129190641.4920       1612.607          48.477    24584159.783    96473523.6160       1204.219          51.128    24584161.661    98990231.7920       1235.634          51.104  
G01  21590122.882   113456861.5160       2387.613          47.884    21590122.882   113456861.5160       2387.613          44.884    21590122.882   113456861.5160       2387.613          49.384    21590123.785    88407947.7360       1860.477          44.547    21590123.785    88407947.7360       1860.477          46.047    21590123.989    84724284.0490       1782.957          49.017  
G07  20092891.440   105588857.1860         39.455          50.997    20092891.440   105588857.1860         39.455          47.997    20092891.440   105588857.1860         39.455          52.497    20092889.273    82277022.6980         30.744          49.160    20092889.273    82277022.6980         30.744          50.660    20092888.783    78848811.4950         29.463          53.630  
G08  22630974.026   118926571.1930      -3068.170          46.313    22630974.026   118926571.1930      -3068.170          43.313    22630974.026   118926571.1930      -3068.170          47.813    22630975.019    92670059.5430      -2390.782          43.514    22630975.019    92670059.5430      -2390.782          45.014    22630975.244    88808807.9440      -2291.166          47.983  
G09  23769391.630   124908996.0800      -3154.908          43.732    23769391.630   124908996.0800      -3154.908          40.732    23769391.630   124908996.0800      -3154.908          45.232    23769391.810    97331685.9960      -2458.370          40.771    23769391.810    97331685.9960      -2458.370          42.271    23769391.851    93276199.2400      -2355.938          45.241  
G14  22389304.212   117656587.7510       1724.454          46.905    22389304.212   117656587.7510       1724.454          43.905    22389304.212   117656587.7510       1724.454          48.405    22389302.677    91680451.7010       1343.731          43.862    22389302.677    91680451.7010       1343.731          45.362    22389302.330    87860431.5180       1287.742          48.331  
G17  22307310.786   117225709.3890       2456.296          46.392    22307310.786   117225709.3890       2456.296          43.392    22307310.786   117225709.3890       2456.296          47.892    22307308.619    91344699.7390       1913.997          43.574    22307308.619    91344699.7390       1913.997          45.074    22307308.128    87538668.6600       1834.247          48.044  
G21  21430378.883   112617401.1350       -288.212          48.289    21430378.883   112617401.1350       -288.212          45.289    21430378.883   112617401.1350       -288.212          49.789    21430376.896    87753810.9300       -224.581          44.991    21430376.896    87753810.9300       -224.581          46.491    21430376.447    84097400.3780       -215.224          49.460  
G30  21241741.217   111626103.5110       2082.022          49.678    21241741.217   111626103.5110       2082.022          46.678    21241741.217   111626103.5110       2082.022          51.178    21241741.940    86981382.3180       1622.355          45.952    21241741.940    86981382.3180       1622.355          47.452    21241742.103    83357158.6960       1554.757          50.422  
I02  37445172.039   146942898.2270        187.752          47.024  
I03  37267212.708   146244547.5870        -38.801          48.127  
I06  39778335.649   156098733.3930        -16.675          42.331  
I09  39526419.495   155110160.2940       -536.228          42.523  
J02  39777399.948   209031647.5740        827.047          45.094    39777399.948   209031647.5740        827.047          46.594    39777399.948   209031647.5740        827.047          45.094    39777400.059   156095061.9350        617.600          48.135    39777400.059   156095061.9350        617.600          48.135  
J03  39196361.265   205978268.6860       -475.496          46.039    39196361.265   205978268.6860       -475.496          47.539    39196361.265   205978268.6860       -475.496          46.039    39196361.154   153814940.4680       -355.079          49.527    39196361.154   153814940.4680       -355.079          49.527  
J07  37729491.989   198269818.6150         -4.402          45.509    37729491.989   198269818.6150         -4.402          47.009    37729491.989   198269818.6150         -4.402          45.509    37729490.660   148058625.5690         -3.288          48.288    37729490.660   148058625.5690         -3.288          48.288  
R03  23399219.306   125257852.9940      -1191.415          38.712  
R11  22224238.867   118759594.2280      -1971.097          42.378  
R12  20087550.796   107304090.7790        701.395          47.555  
R13  21866134.922   116763940.5480       2692.432          43.417  
R21  22853150.689   122291825.6120      -3829.491          40.884  
R22  19788431.812   105631992.8630      -1076.778          48.339  
R23  20617041.845   110287271.7840       3402.304          46.233  
S22  38852183.475   204169602.1910          0.003          41.330    38852183.475   152464313.3240          0.002          42.378  
S23  40134211.425   210906704.5410         -1.769          39.073    40134211.425   157495266.3780         -1.321          40.079  
S26  37657687.372   197892482.8030          1.747          43.206    37657687.372   147776854.0410          1.305          44.421  
S27  38198712.267   200735587.8180         -9.630          42.335    38198712.267   149899951.9420         -7.191          43.517  
S28  36916140.879   193995629.6820         -8.429          44.744    36916140.879   144866866.3210         -6.295          46.409  
S30  38646941.167   203091046.5840         -4.525          41.657    38646941.167   151658898.4230         -3.379          42.860  
S32  36780499.196   193282827.8280         -2.514          45.263    36780499.196   144334579.2220         -1.877          46.725  
S34  36783494.107   193298566.1880          0.098          45.208    36783494.107   144346331.8940          0.073          46.694  
S37  37729935.216   198272147.7850         -4.685          43.108    37729935.216   148060370.0990         -3.498          44.287  
S43  36944522.167   194144774.3560         -1.395          44.596    36944522.167   144978240.5900         -1.042          46.310  
S44  37037291.134   194632278.5710         43.807          44.346    37037291.134   145342285.9460         32.713          46.108  
> 2023 01 08 10 15  0.0000000  0 64
C01  38733677.174   203546847.3800         29.881          38.924    38733677.174   201696421.4950         29.609          34.903    38733675.586   151999262.9120         22.314          42.526    38733675.586   155964461.0750         22.896          35.502  
C02  36969630.583   194276719.9730          2.923          42.303    36969630.583   192510567.9730          2.896          38.282    36969625.906   145076753.0560          2.182          46.740    36969625.906   148861364.0050          2.239          39.716  
C03  37065130.600   194778575.9510         32.046          41.998    37065130.600   193007861.6240         31.755          37.977    37065127.482   145451521.7540         23.931          46.454    37065127.482   149245909.2780         24.555          39.430  
C04  40365464.751   212121948.9720         25.718          36.590    40365464.751   210193567.6180         25.484          32.569    40365460.464   158402737.2800         19.205          40.446    40365460.464   162534982.6000         19.706          33.423  
C05  38003816.499   199711403.6410         -1.089          40.313    38003816.499   197895845.4260         -1.079          36.292    38003813.711   149135128.1420         -0.813          44.171    38003813.711   153025609.7450         -0.834          37.147  
C06  37405052.838   196564879.3690      -1364.106          41.126    37405052.838   194777925.9200      -1351.705          37.105    37405049.720   146785449.6310      -1018.651          45.071    37405049.720   150614635.2740      -1045.224          38.048  
C07  36222426.229   190350134.5920       -220.467          44.357    36222426.229   188619678.8230       -218.463          40.336    36222422.032   142144564.5560       -164.635          48.935    36222422.032   145852683.6320       -168.930          41.912  
C09  36374982.739   191151824.4650      -1002.019          43.345    36374982.739   189414080.6060       -992.909          39.325    36374981.780   142743241.7770       -748.261          47.413    36374981.780   146466978.5190       -767.781          40.389  
C10  36444348.257   191516342.7180       -130.133          44.364    36444348.257   189775285.0570       -128.950          40.344    36444347.327   143015447.0840        -97.177          48.999    36444347.327   146746284.8340        -99.712          41.975  
C16  37719473.268   198217169.8770      -1383.402          40.628    37719473.268   196415195.6060      -1370.825          36.607    37719475.396   148019323.5210      -1033.060          44.453    37719475.396   151880697.1780      -1060.009          37.429  
C23  24183301.777   127084108.5840      -1919.047          45.264    24183301.777   125928798.5070      -1901.602          41.243    24183301.777    94900470.6960      -1433.055          48.751    24183301.777    97376135.1490      -1470.439          41.727  
C27  22585953.511   118689986.7920       2236.510          47.683    22585953.511   117610986.9120       2216.178          43.663    22585953.511    88632132.9940       1670.121          50.747    22585953.511    90944275.5940       1713.689          43.724  
C28  21852209.965   114834138.4340       -678.376          48.839    21852209.965   113790191.7210       -672.209          44.818    21852209.965    85752765.7140       -506.580          53.180    21852209.965    87989794.3850       -519.795          46.156  
C37  22038269.722   115811889.0530        318.934          48.961    22038269.722   114759053.6980        316.034          44.940    22038269.722    86482904.1630        238.165          53.508    22038269.722    88738979.9230        244.378          46.485  
C38  40034529.171   210382870.7590       1877.626          37.085    40034529.171   208470299.2070       1860.556          33.064    40034529.171   157104091.8010       1402.123          40.671    40034529.171   161202459.4130       1438.700          33.648  
C39  38647306.657   203092967.2460      -1545.540          39.278    38647306.657   201246667.5440      -1531.490          35.257    38647306.657   151660332.6840      -1154.137          43.091    38647306.657   155616689.1880      -1184.245          36.067  
C40  36686133.692   192786933.7560       -441.853          43.474    36686133.692   191034325.2670       -437.837          39.453    36686133.692   143964268.7140       -329.955          47.468    36686133.692   147719858.3320       -338.563          40.444  
C43  25638134.725   134729307.3260      -3031.633          41.511    25638134.725   133504495.4410      -3004.073          37.491    25638134.725   100609547.6780      -2263.882          45.382    25638134.725   103234144.5740      -2322.939          38.359  
C46  24268093.334   127529691.2230       2462.315          44.618    24268093.334   126370330.3940       2439.930          40.598    24268093.334    95233210.9780       1838.742          48.237    24268093.334    97717555.6130       1886.709          41.213  
C59  38645893.204   203085539.5010         -3.266          39.458    38645893.204   201239307.3240         -3.236          35.438    38645893.204   151654785.9910         -2.439          43.363    38645893.204   155610997.8000         -2.502          36.339  
C60  37033636.168   194613071.5920         43.172          42.153    37033636.168   192843861.8500         42.780          38.132    37033636.168   145327943.0720         32.239          46.614    37033636.168   149119106.8040         33.080          39.590  
E01  25335610.297   133139530.7300       -954.292          47.245    25335610.423    99422377.3350       -712.621          49.700    25335610.297   102016004.0660       -731.211          49.676  
E04  26597241.117   139769445.4360      -2607.695          44.726    26597239.615   104373281.2820      -1947.305          47.266    26597241.117   107096068.5810      -1998.104          47.242  
E09  26150345.610   137420993.6980      -1206.470          45.936    26150346.862   102619578.1280       -900.935          48.915    26150345.610   105296605.5610       -924.438          48.892  
E12  26778370.332   140721285.8850       3061.224          44.564    26778364.824   105084055.5090       2285.979          47.081    26778370.332   107825400.8730       2345.613          47.057  
E14  24820264.254   130431368.9920      -2807.246          43.595    24820262.501    97400041.3970      -2096.320          46.942    24820264.254    99940919.0980      -2151.007          46.918  
E24  27334038.525   143641341.9480       1626.609          43.841    27334037.398   107264634.0470       1214.675          46.548    27334038.525   110062846.4280       1246.363          46.525  
E26  26285230.358   138129817.8290      -1028.910          46.278    26285227.979   103148880.6050       -768.342          49.171    26285230.358   105839730.5440       -788.386          49.147  
E31  24358393.862   128004223.7030        677.075          49.290    24358396.616    95587580.4550        505.608          51.745    24358393.862    98081158.4220        518.798          51.721  
E33  24495545.286   128724959.3000       1491.145          48.708    24495543.408    96125773.9280       1113.518          51.343    24495545.286    98633410.3730       1142.566          51.320  
G01  21458120.719   112763185.4670       2235.146          48.100    21458120.719   112763185.4670       2235.146          45.100    21458120.719   112763185.4670       2235.146          49.600    21458121.622    87867420.9450       1741.672          44.771    21458121.622    87867420.9450       1741.672          46.271    21458121.826    84206279.2070       1669.102          49.240  
G07  20095608.743   105603136.7080       -135.215          50.839    20095608.743   105603136.7080       -135.215          47.839    20095608.743   105603136.7080       -135.215          52.339    20095606.576    82288149.5980       -105.362          49.053    20095606.576    82288149.5980       -105.362          50.553    20095606.085    78859474.7750       -100.972          53.522  
G08  22807201.345   119852652.0090      -3104.443          45.951    22807201.345   119852652.0090      -3104.443          42.951    22807201.345   119852652.0090      -3104.443          47.451    22807202.339    93391680.9580      -2419.046          43.219    22807202.339    93391680.9580      -2419.046          44.719    22807202.564    89500361.8000      -2318.253          47.689  
G09  23949577.040   125855876.8050      -3156.015          43.227    23949577.040   125855876.8050      -3156.015          40.227    23949577.040   125855876.8050      -3156.015          44.727    23949577.221    98069515.1330      -2459.232          40.470    23949577.221    98069515.1330      -2459.232          41.970    23949577.262    93983285.4960      -2356.764          44.940  
G13  24446379.469   128466591.1890       2013.956          40.869    24446379.469   128466591.1890       2013.956          37.869    24446379.469   128466591.1890       2013.956          42.369    24446377.211   100103828.0450       1569.316          39.327    24446377.211   100103828.0450       1569.316          40.827    24446376.701    95932833.2060       1503.928          43.797  
G14  22291464.251   117142435.2850       1703.208          47.096    22291464.251   117142435.2850       1703.208          44.096    22291464.251   117142435.2850       1703.208          48.596    22291462.715    91279813.4150       1327.175          43.964    22291462.715    91279813.4150       1327.175          45.464    22291462.368    87476486.4930       1271.876          48.434  
G17  22170366.215   116506060.8110       2340.879          46.705    22170366.215   116506060.8110       2340.879          43.705    22170366.215   116506060.8110       2340.879          48.205    22170364.047    90783934.6130       1824.062          43.772    22170364.047    90783934.6130       1824.062          45.272    22170363.557    87001268.7470       1748.059          48.242  
G21  21452431.982   112733290.9530       -484.306          48.287    21452431.982   112733290.9530       -484.306          45.287    21452431.982   112733290.9530       -484.306          49.787    21452429.995    87844114.6850       -377.382          44.990    21452429.995    87844114.6850       -377.382          46.490    21452429.546    84183941.4760       -361.657          49.460  
G30  21126381.993   111019886.6940       1958.085          50.034    21126381.993   111019886.6940       1958.085          47.034    21126381.993   111019886.6940       1958.085          51.534    21126382.715    86509005.5780       1525.780          46.224    21126382.715    86509005.5780       1525.780          47.724    21126382.879    82904464.3200       1462.206          50.694  
I02  37430818.750   146886572.8380        187.764          47.060  
I03  37270128.760   146255990.8010        -37.483          48.119  
I06  39779647.781   156103882.4810        -17.651          42.329  
I09  39566963.557   155269263.8990       -524.385          42.482  
J02  39729689.048   208780925.1040        844.287          45.104    39729689.048   208780925.1040        844.287          46.604    39729689.048   208780925.1040        844.287          45.104    39729689.159   155907834.1160        630.474          48.141    39729689.159   155907834.1160        630.474          48.141  
J03  39223785.622   206122384.6550       -485.158          46.077    39223785.622   206122384.6550       -485.158          47.577    39223785.622   206122384.6550       -485.158          46.077    39223785.511   153922559.5350       -362.293          49.573    39223785.511   153922559.5350       -362.293          49.573  
J07  37729742.036   198271132.6190         -4.357          45.508    37729742.036   198271132.6190         -4.357          47.008    37729742.036   198271132.6190         -4.357          45.508    37729740.707   148059606.8060         -3.254          48.288    37729740.707   148059606.8060         -3.254          48.288  
R03  23471181.656   125643073.0840      -1375.068          38.494  
R11  22337672.212   119365747.6340      -2070.192          42.044  
R12  20050688.823   107107180.7350        610.147          47.693  
R13  21714892.829   115956316.2140       2690.793          43.837  
R21  23070809.291   123456560.7560      -3933.090          40.197  
R22  19856197.135   105993728.7580      -1333.639          48.257  
R23  20431262.722   109293478.7460       3220.909          46.567  
S22  38852183.337   204169601.4680          0.002          41.330    38852183.337   152464312.7840          0.001          42.378  
S23  40134311.477   210907230.3160         -1.736          39.073    40134311.477   157495659.0020         -1.297          40.079  
S26  37657588.801   197891964.8090          1.706          43.206    37657588.801   147776467.2280          1.274          44.421  
S27  38199264.786   200738491.3230         -9.838          42.335    38199264.786   149902120.1440         -7.346          43.517  
S28  36916614.954   193998120.9640         -8.445          44.744    36916614.954   144868726.6940         -6.306          46.409  
S30  38647182.761   203092316.1710         -3.938          41.656    38647182.761   151659846.4910         -2.941          42.860  
S32  36780642.462   193283580.6950         -2.505          45.263    36780642.462   144335141.4280         -1.871          46.726  
S34  36783488.617   193298537.3420          0.094          45.208    36783488.617   144346310.3530          0.070          46.694  
S37  37730202.105   198273550.3000         -4.665          43.107    37730202.105   148061417.4320         -3.484          44.287  
S43  36944616.055   194145267.7420         -1.894          44.598    36944616.055   144978609.0280         -1.414          46.311  
S44  37034780.157   194619083.2950         44.158          44.353    37034780.157   145332432.3310         32.975          46.114  
> 2023 01 08 10 20  0.0000000  0 64
C01  38731953.560   203537789.7260         30.501          38.927    38731953.560   201687446.1830         30.224          34.906    38731951.971   151992499.0800         22.777          42.530    38731951.971   155957520.7950         23.371          35.507  
C02  36969449.444   194275768.0810          3.423          42.302    36969449.444   192509624.7340          3.392          38.282    36969444.767   145076042.2270          2.556          46.739    36969444.767   148860634.6330          2.623          39.716  
C03  37063282.067   194768861.8460         32.712          42.001    37063282.067   192998235.8290         32.414          37.980    37063278.950   145444267.7150         24.427          46.457    37063278.950   149238466.0030         25.065          39.434  
C04  40363993.579   212114217.9130         25.821          36.593    40363993.579   210185906.8410         25.586          32.572    40363989.292   158396964.0860         19.282          40.448    40363989.292   162529058.8010         19.785          33.424  
C05  38003853.500   199711598.0860         -0.208          40.312    38003853.500   197896038.1040         -0.206          36.291    38003850.712   149135273.3440         -0.155          44.170    38003850.712   153025758.7360         -0.159          37.146  
C06  37483894.024   196979192.5960      -1397.766          41.002    37483894.024   195188472.6640      -1385.059          36.981    37483890.906   147094839.3790      -1043.786          44.888    37483890.906   150932096.0580      -1071.015          37.865  
C07  36234726.303   190414771.9160       -210.324          44.335    36234726.303   188683728.5350       -208.412          40.315    36234722.106   142192832.6880       -157.060          48.890    36234722.106   145902210.9320       -161.157          41.866  
C09  36433508.282   191459378.2680      -1048.221          43.094    36433508.282   189718838.4660      -1038.692          39.073    36433507.323   142972908.5790       -782.762          47.262    36433507.323   146702636.6280       -803.182          40.238  
C10  36451492.981   191553888.4990       -120.031          44.345    36451492.981   189812489.5120       -118.939          40.324    36451492.052   143043484.5180        -89.633          48.969    36451492.052   146775053.6790        -91.971          41.945  
C16  37799373.684   198637049.3980      -1415.558          40.496    37799373.684   196831258.0390      -1402.690          36.476    37799375.812   148332869.9160      -1057.073          44.328    37799375.812   152202423.0440      -1084.649          37.305  
C23  24295081.698   127671516.0350      -1996.971          45.053    24295081.698   126510865.8890      -1978.817          41.032    24295081.698    95339119.1170      -1491.245          48.614    24295081.698    97826226.5720      -1530.147          41.590  
C27  22461766.977   118037382.1480       2113.453          48.124    22461766.977   116964315.0380       2094.240          44.103    22461766.977    88144798.3580       1578.228          51.030    22461766.977    90444227.8800       1619.399          44.006  
C28  21895281.679   115060481.8170       -829.922          48.832    21895281.679   114014477.4360       -822.377          44.811    21895281.679    85921788.3700       -619.747          53.010    21895281.679    88163226.3270       -635.914          45.986  
C37  22022648.903   115729801.0960        227.644          48.998    22022648.903   114677711.9950        225.575          44.978    22022648.903    86421604.7150        169.994          53.563    22022648.903    88676081.3590        174.429          46.539  
C38  39926887.455   209817209.7280       1893.077          37.310    39926887.455   207909780.5480       1875.867          33.290    39926887.455   156681682.5890       1413.661          40.774    39926887.455   160769030.8300       1450.539          33.751  
C39  38736131.648   203559745.7230      -1566.027          39.143    38736131.648   201709202.5800      -1551.790          35.123    38736131.648   152008901.0270      -1169.436          42.871    38736131.648   155974350.6190      -1199.943          35.847  
C40  36710932.369   192917251.6820       -426.756          43.374    36710932.369   191163458.4850       -422.876          39.353    36710932.369   144061584.0480       -318.681          47.404    36710932.369   147819712.3280       -326.995          40.380  
C43  25812277.075   135644431.5540      -3068.069          41.043    25812277.075   134411300.3580      -3040.177          37.022    25812277.075   101292919.6670      -2291.090          45.160    25812277.075   103935343.6580      -2350.858          38.136  
C46  24127822.852   126792564.8670       2451.156          44.890    24127822.852   125639905.1870       2428.873          40.869    24127822.852    94682759.4790       1830.409          48.493    24127822.852    97152744.5090       1878.159          41.470  
C59  38646062.254   203086427.8680         -2.656          39.458    38646062.254   201240187.6140         -2.632          35.437    38646062.254   151655449.3820         -1.984          43.362    38646062.254   155611678.4960         -2.035          36.338  
C60  37031162.287   194600071.2600         43.493          42.160    37031162.287   192830979.7030         43.097          38.139    37031162.287   145318235.0320         32.478          46.620    37031162.287   149109145.5110         33.326          39.597  
E01  25390621.057   133428614.2250       -973.255          47.150    25390621.182    99638251.3740       -726.781          49.639    25390621.057   102237509.6010       -745.741          49.615  
E04  26746210.274   140552283.6390      -2610.118          44.439    26746208.772   104957868.2520      -1949.114          46.959    26746210.274   107695905.6460      -1999.960          46.935  
E09  26222241.532   137798809.3140      -1311.452          45.810    26222242.783   102901713.1660       -979.331          48.792    26222241.532   105586100.6430      -1004.879          48.768  
E12  26604024.172   139805090.6280       3045.650          44.891    26604018.664   104399883.7260       2274.349          47.479    26604024.172   107123381.1310       2333.680          47.455  
E14  24981652.253   131279468.6560      -2845.883          43.096    24981650.501    98033362.5740      -2125.173          46.720    24981652.253   100590761.6970      -2180.612          46.696  
E24  27240845.857   143151611.1720       1638.391          44.049    27240844.730   106898926.0000       1223.474          46.668    27240845.857   109687598.1700       1255.390          46.645  
E26  26347786.509   138458552.6210      -1162.165          46.171    26347784.130   103394364.3780       -867.850          49.099    26347786.509   106091618.2420       -890.490          49.076  
E31  24319968.699   127802298.1070        668.933          49.427    24319971.453    95436791.8600        499.528          51.840    24319968.699    97926436.2120        512.559          51.816  
E33  24413995.474   128296412.1440       1365.106          48.969    24413993.596    95805754.9480       1019.397          51.538    24413995.474    98305043.0720       1045.990          51.515  
G01  21335117.552   112116799.4630       2072.428          48.298    21335117.552   112116799.4630       2072.428          45.298    21335117.552   112116799.4630       2072.428          49.798    21335118.455    87363743.5390       1614.879          44.994    21335118.455    87363743.5390       1614.879          46.494    21335118.660    83723588.3600       1547.592          49.464  
G07  20108387.441   105670289.2200       -312.916          50.666    20108387.441   105670289.2200       -312.916          47.666    20108387.441   105670289.2200       -312.916          52.166    20108385.274    82340476.2310       -243.830          48.916    20108385.274    82340476.2310       -243.830          50.416    20108384.784    78909621.1310       -233.671          53.385  
G08  22985286.724   120788496.9880      -3133.318          45.570    22985286.724   120788496.9880      -3133.318          42.570    22985286.724   120788496.9880      -3133.318          47.070    22985287.717    94120910.8120      -2441.547          42.815    22985287.717    94120910.8120      -2441.547          44.315    22985287.942    90199207.0770      -2339.816          47.284  
G09  24129551.210   126801647.4480      -3147.547          42.704    24129551.210   126801647.4480      -3147.547          39.704    24129551.210   126801647.4480      -3147.547          44.204    24129551.390    98806479.2700      -2452.634          40.220    24129551.390    98806479.2700      -2452.634          41.720    24129551.431    94689542.7940      -2350.441          44.690  
G13  24335755.954   127885260.6900       1860.655          41.191    24335755.954   127885260.6900       1860.655          38.191    24335755.954   127885260.6900       1860.655          42.691    24335753.696    99650843.2400       1449.861          39.533    24335753.696    99650843.2400       1449.861          41.033    24335753.185    95498722.7680       1389.450          44.002  
G14  22194842.893   116634686.6210       1681.725          47.281    22194842.893   116634686.6210       1681.725          44.281    22194842.893   116634686.6210       1681.725          48.781    22194841.357    90884165.1060       1310.435          44.068    22194841.357    90884165.1060       1310.435          45.568    22194841.010    87097323.5300       1255.834          48.538  
G17  22040088.694   115821447.8200       2222.804          46.996    22040088.694   115821447.8200       2222.804          43.996    22040088.694   115821447.8200       2222.804          48.496    22040086.527    90250469.9450       1732.055          43.930    22040086.527    90250469.9450       1732.055          45.430    22040086.037    86490031.7730       1659.886          48.400  
G21  21485657.366   112907891.5230       -679.466          48.265    21485657.366   112907891.5230       -679.466          45.265    21485657.366   112907891.5230       -679.466          49.765    21485655.379    87980167.0770       -529.454          44.968    21485655.379    87980167.0770       -529.454          46.468    21485654.930    84314325.0180       -507.394          49.437  
G30  21018325.711   110452047.1030       1826.205          50.208    21018325.711   110452047.1030       1826.205          47.208    21018325.711   110452047.1030       1826.205          51.708    21018326.434    86066533.1680       1423.017          46.517    21018326.434    86066533.1680       1423.017          48.017    21018326.597    82480428.2610       1363.724          50.987  
I02  37416461.584   146830232.2350        187.852          47.097  
I03  37272943.238   146267035.4180        -36.144          48.110  
I06  39781034.143   156109322.8610        -18.617          42.327  
I09  39606584.568   155424745.2580       -512.082          42.442  
J02  39681019.791   208525166.4290        860.616          45.116    39681019.791   208525166.4290        860.616          46.616    39681019.791   208525166.4290        860.616          45.116    39681019.901   155716845.4950        642.668          48.146    39681019.901   155716845.4950        642.668          48.146  
J03  39251740.898   206269290.6210       -494.092          46.119    39251740.898   206269290.6210       -494.092          47.619    39251740.898   206269290.6210       -494.092          46.119    39251740.787   154032262.0420       -368.965          49.612    39251740.787   154032262.0420       -368.965          49.612  
J07  37729989.439   198272432.7280         -4.310          45.508    37729989.439   198272432.7280         -4.310          47.008    37729989.439   198272432.7280         -4.310          45.508    37729988.110   148060577.6670         -3.218          48.288    37729988.110   148060577.6670         -3.218          48.288  
R03  23553151.195   126081862.4460      -1548.409          38.251  
R11  22456709.676   120001847.7480      -2170.670          41.691  
R12  20019152.984   106938721.9410        511.715          47.809  
R13  21563905.780   115150053.7950       2683.265          44.242  
R21  23293887.001   124650294.6430      -4022.844          39.494  
R22  19938191.420   106431419.8230      -1582.942          48.042  
R23  20255999.476   108355938.5590       3027.397          46.942  
S22  38852183.257   204169601.0450          0.001          41.330    38852183.257   152464312.4680          0.001          42.378  
S23  40134409.664   210907746.2940         -1.703          39.073    40134409.664   157496044.3110         -1.272          40.079  
S26  37657492.636   197891459.4600          1.663          43.206    37657492.636   147776089.8570          1.242          44.421  
S27  38199829.008   200741456.3330        -10.040          42.335    38199829.008   149904334.2750         -7.498          43.517  
S28  36917089.805   194000616.3190         -8.457          44.744    36917089.805   144870590.1090         -6.315          46.409  
S30  38647390.775   203093409.2920         -3.349          41.656    38647390.775   151660662.7830         -2.501          42.859  
S32  36780785.233   193284330.9610         -2.496          45.264    36780785.233   144335701.6920         -1.864          46.726  
S34  36783483.351   193298509.6650          0.090          45.208    36783483.351   144346289.6850          0.067          46.694  
S37  37730467.809   198274946.5810         -4.643          43.107    37730467.809   148062460.1090         -3.467          44.287  
S43  36944738.406   194145910.6980         -2.392          44.600    36944738.406   144979089.1580         -1.786          46.313  
S44  37032249.734   194605785.8310         44.488          44.360    37032249.734   145322502.4060         33.221          46.120  
> 2023 01 08 10 25  0.0000000  0 63
C01  38730194.993   203528548.3950         31.105          38.929    38730194.993   201678288.8640         30.823          34.909    38730193.405   151985598.0860         23.228          42.535    38730193.405   155950439.7750         23.834          35.511  
C02  36969239.739   194274666.0750          3.923          42.302    36969239.739   192508532.7470          3.888          38.282    36969235.062   145075219.3010          2.930          46.739    36969235.062   148859790.2390          3.006          39.715  
C03  37061396.039   194758950.7020         33.360          42.004    37061396.039   192988414.7870         33.057          37.983    37061392.922   145436866.5360         24.912          46.461    37061392.922   149230871.7500         25.562          39.438  
C04  40362516.915   212106457.9910         25.910          36.596    40362516.915   210178217.4640         25.675          32.575    40362512.628   158391169.3390         19.348          40.449    40362512.628   162523112.8870         19.853          33.425  
C05  38003840.187   199711528.1220          0.674          40.311    38003840.187   197895968.7760          0.668          36.290    38003837.399   149135221.0990          0.503          44.169    38003837.399   153025705.1270          0.517          37.145  
C06  37564619.108   197403405.7740      -1430.094          40.873    37564619.108   195608829.3570      -1417.093          36.852    37564615.990   147411621.9470      -1067.928          44.722    37564615.990   151257142.5190      -1095.787          37.698  
C07  36246426.585   190476257.3130       -199.463          44.316    36246426.585   188744654.9740       -197.650          40.295    36246422.388   142238747.1080       -148.950          48.845    36246422.388   145949323.1190       -152.836          41.822  
C09  36494650.126   191780680.8270      -1093.661          42.835    36494650.126   190037220.0930      -1083.719          38.815    36494649.167   143212842.3080       -816.695          47.107    36494649.167   146948829.4980       -838.000          40.083  
C10  36458037.151   191588278.3410       -109.101          44.328    36458037.151   189846566.7200       -108.109          40.308    36458036.221   143069165.2440        -81.472          48.936    36458036.221   146801404.3370        -83.597          41.912  
C16  37881068.686   199066359.5330      -1446.261          40.363    37881068.686   197256665.3560      -1433.113          36.342    37881070.815   148653458.6540      -1080.000          44.209    37881070.815   152531374.9670      -1108.174          37.186  
C23  24411302.309   128282259.4670      -2074.576          44.829    24411302.309   127116057.1080      -2055.716          40.809    24411302.309    95795193.7580      -1549.196          48.442    24411302.309    98294198.8120      -1589.610          41.419  
C27  22344727.205   117422334.0000       1986.205          48.538    22344727.205   116354858.2360       1968.149          44.518    22344727.205    87685509.1560       1483.205          51.315    22344727.205    89972957.2210       1521.898          44.291  
C28  21946887.542   115331672.4560       -977.279          48.846    21946887.542   114283202.7060       -968.395          44.826    21946887.542    86124300.8600       -729.786          52.794    21946887.542    88371021.7520       -748.824          45.770  
C37  22012353.997   115675701.0000        132.371          49.024    22012353.997   114624103.7180        131.167          45.003    22012353.997    86381205.2920         98.848          53.599    22012353.997    88634628.0390        101.427          46.575  
C38  39818427.398   209247248.2800       1906.292          37.532    39818427.398   207345000.5690       1888.962          33.512    39818427.398   156256062.0270       1423.529          40.885    39818427.398   160332307.1240       1460.665          33.861  
C39  38826076.161   204032407.3340      -1584.754          39.008    38826076.161   202177567.2670      -1570.347          34.988    38826076.161   152361862.6190      -1183.420          42.635    38826076.161   156336519.9050      -1214.292          35.611  
C40  36734839.538   193042884.7030       -410.632          43.279    36734839.538   191287949.3870       -406.899          39.258    36734839.538   144155400.9140       -306.641          47.342    36734839.538   147915976.5900       -314.640          40.318  
C43  25988307.994   136569480.2740      -3097.823          40.583    25988307.994   135327939.5450      -3069.661          36.562    25988307.994   101983702.8020      -2313.309          44.900    25988307.994   104644147.2230      -2373.656          37.877  
C46  23988312.537   126059433.2120       2435.641          45.158    23988312.537   124913438.3640       2413.499          41.137    23988312.537    94135291.0350       1818.823          48.688    23988312.537    96590994.2790       1866.271          41.665  
C59  38646196.462   203087133.1340         -2.045          39.457    38646196.462   201240886.4690         -2.027          35.437    38646196.462   151655976.0410         -1.527          43.361    38646196.462   155612218.8940         -1.567          36.338  
C60  37028670.712   194586977.9440         43.792          42.167    37028670.712   192818005.4170         43.394          38.146    37028670.712   145308457.5550         32.702          46.627    37028670.712   149099112.9700         33.555          39.603  
E01  25446770.506   133723681.5690       -994.196          47.055    25446770.631    99858593.8710       -742.419          49.582    25446770.506   102463600.1630       -761.787          49.558  
E04  26895128.747   141334855.5000      -2605.935          44.132    26895127.245   105542256.3300      -1945.991          46.718    26895128.747   108295538.6300      -1996.755          46.694  
E09  26299982.344   138207340.0400      -1411.187          45.676    26299983.596   103206784.8120      -1053.809          48.629    26299982.344   105899130.6800      -1081.299          48.606  
E12  26430754.781   138894553.8370       3023.497          45.199    26430749.274   103719937.4210       2257.807          47.928    26430754.781   106425697.0960       2316.706          47.904  
E14  25145098.748   132138385.7820      -2879.389          42.603    25145096.996    98674761.7270      -2150.193          46.462    25145098.748   101248893.0020      -2206.285          46.438  
E24  27146960.082   142658238.0950       1650.866          44.249    27146958.955   106530498.0520       1232.789          46.803    27146960.082   109309559.0590       1264.949          46.779  
E26  26417861.974   138826801.6770      -1292.271          46.048    26417859.596   103669355.5560       -965.008          49.009    26417861.974   106373783.1030       -990.182          48.986  
E31  24282038.075   127602971.3340        659.715          49.556    24282040.829    95287943.9460        492.645          51.935    24282038.075    97773705.3080        505.496          51.911  
E33  24339761.970   127906312.4500       1234.900          49.229    24339760.093    95514446.7340        922.165          51.719    24339761.970    98006135.5140        946.222          51.695  
G01  21221683.655   111520700.3100       1899.996          48.485    21221683.655   111520700.3100       1899.996          45.485    21221683.655   111520700.3100       1899.996          49.985    21221684.558    86899250.6930       1480.516          45.203    21221684.558    86899250.6930       1480.516          46.703    21221684.762    83278449.3820       1418.828          49.672  
G07  20131380.334   105791117.6840       -492.932          50.491    20131380.334   105791117.6840       -492.932          47.491    20131380.334   105791117.6840       -492.932          51.991    20131378.166    82434628.2810       -384.103          48.745    20131378.166    82434628.2810       -384.103          50.245    20131377.676    78999850.1780       -368.099          53.214  
G08  23164817.261   121731936.3310      -3155.128          45.169    23164817.261   121731936.3310      -3155.128          42.169    23164817.261   121731936.3310      -3155.128          46.669    23164818.255    94856058.3520      -2458.541          42.317    23164818.255    94856058.3520      -2458.541          43.817    23164818.480    90903723.4690      -2356.102          46.786  
G09  24308774.524   127743472.3230      -3129.753          42.182    24308774.524   127743472.3230      -3129.753          39.182    24308774.524   127743472.3230      -3129.753          43.682    24308774.705    99540368.7840      -2438.768          39.992    24308774.705    99540368.7840      -2438.768          41.492    24308774.746    95392853.5780      -2337.153          44.461  
G13  24234037.021   127350724.0910       1702.096          41.499    24234037.021   127350724.0910       1702.096          38.499    24234037.021   127350724.0910       1702.096          42.999    24234034.763    99234321.2150       1326.309          39.701    24234034.763    99234321.2150       1326.309          41.201    24234034.252    95099555.8270       1271.046          44.171  
G14  22099460.044   116133446.3670       1659.780          47.460    22099460.044   116133446.3670       1659.780          44.460    22099460.044   116133446.3670       1659.780          48.960    22099458.509    90493588.2850       1293.335          44.180    22099458.509    90493588.2850       1293.335          45.680    22099458.161    86723020.7440       1239.446          48.649  
G17  21916616.255   115172595.7700       2102.554          47.263    21916616.255   115172595.7700       2102.554          44.263    21916616.255   115172595.7700       2102.554          48.763    21916614.087    89744870.9450       1638.354          44.070    21916614.087    89744870.9450       1638.354          45.570    21916613.597    86005499.3980       1570.089          48.540  
G21  21529976.083   113140787.9530       -872.799          48.225    21529976.083   113140787.9530       -872.799          45.225    21529976.083   113140787.9530       -872.799          49.725    21529974.096    88161644.8150       -680.103          44.924    21529974.096    88161644.8150       -680.103          46.424    21529973.647    84488241.1840       -651.765          49.393  
G30  20918019.916   109924936.5910       1686.599          50.214    20918019.916   109924936.5910       1686.599          47.214    20918019.916   109924936.5910       1686.599          51.714    20918020.639    85655797.7050       1314.233          46.843    20918020.639    85655797.7050       1314.233          48.343    20918020.802    82086806.7750       1259.473          51.313  
I02  37402095.232   146773855.5830        188.002          47.134  
I03  37275654.430   146277674.7180        -34.782          48.101  
I06  39782494.064   156115051.9050        -19.575          42.325  
I09  39645247.993   155576468.8430       -499.335          42.406  
J02  39631445.142   208264649.8910        876.001          45.127    39631445.142   208264649.8910        876.001          46.627    39631445.142   208264649.8910        876.001          45.127    39631445.253   155522303.9250        654.157          48.152    39631445.253   155522303.9250        654.157          48.152  
J03  39280184.929   206418765.0150       -502.277          46.157    39280184.929   206418765.0150       -502.277          47.657    39280184.929   206418765.0150       -502.277          46.157    39280184.819   154143882.5310       -375.077          49.648    39280184.819   154143882.5310       -375.077          49.648  
J07  37730234.078   198273718.3160         -4.260          45.508    37730234.078   198273718.3160         -4.260          47.008    37730234.078   198273718.3160         -4.260          45.508    37730232.749   148061537.6840         -3.181          48.288    37730232.749   148061537.6840         -3.181          48.288  
R11  22581416.595   120668243.7110      -2272.089          41.314  
R12  19993347.052   106800871.2880        406.092          47.904  
R13  21413519.338   114346998.5850       2669.324          44.614  
R21  23521612.826   125868901.5340      -4098.946          38.796  
R22  20033956.484   106942620.2360      -1823.514          47.699  
R23  20091911.688   107478179.5400       2822.498          47.482  
S22  38852183.234   204169600.9240         -0.000          41.330    38852183.234   152464312.3780         -0.000          42.378  
S23  40134505.953   210908252.2970         -1.670          39.073    40134505.953   157496422.1700         -1.247          40.079  
S26  37657398.914   197890966.9470          1.620          43.206    37657398.914   147775722.0710          1.210          44.421  
S27  38200404.671   200744481.4610        -10.238          42.335    38200404.671   149906593.2990         -7.645          43.517  
S28  36917565.204   194003114.5600         -8.464          44.744    36917565.204   144872455.6780         -6.321          46.409  
S30  38647565.080   203094325.2700         -2.757          41.655    38647565.080   151661346.7930         -2.059          42.859  
S32  36780927.441   193285078.2670         -2.486          45.264    36780927.441   144336259.7450         -1.856          46.726  
S34  36783478.309   193298483.1690          0.086          45.208    36783478.309   144346269.8990          0.064          46.694  
S37  37730732.198   198276335.9550         -4.619          43.107    37730732.198   148063497.6290         -3.449          44.287  
S43  36944889.127   194146702.7450         -2.888          44.602    36944889.127   144979680.6210         -2.157          46.314  
S44  37029701.129   194592392.8220         44.795          44.367    37029701.129   145312501.1330         33.451          46.127  
> 2023 01 08 10 30  0.0000000  0 63
C01  38728402.387   203519128.1840         31.693          38.932    38728402.387   201668954.2920         31.405          34.911    38728400.798   151978563.5130         23.667          42.540    38728400.798   155943221.6910         24.285          35.516  
C02  36969001.535   194273414.3050          4.422          42.302    36969001.535   192507292.3570          4.381          38.281    36968996.858   145074284.5370          3.302          46.739    36968996.858   148858831.0910          3.388          39.715  
C03  37059473.467   194748847.5170         33.992          42.007    37059473.467   192978403.4480         33.683          37.987    37059470.349   145429321.9490         25.383          46.465    37059470.349   149223130.3480         26.046          39.441  
C04  40361035.520   212098673.2030         25.986          36.598    40361035.520   210170503.4470         25.750          32.578    40361031.232   158385356.0230         19.405          40.450    40361031.232   162517147.9200         19.912          33.427  
C05  38003776.534   199711193.6240          1.556          40.310    38003776.534   197895637.3190          1.542          36.289    38003773.746   149134971.3110          1.162          44.168    38003773.746   153025448.8230          1.192          37.144  
C06  37647150.126   197837109.2000      -1461.023          40.740    37647150.126   196038590.0260      -1447.741          36.719    37647147.008   147735491.3890      -1091.024          44.571    37647147.008   151589460.7290      -1119.485          37.548  
C07  36257487.655   190534383.6280       -187.939          44.297    36257487.655   188802252.8680       -186.231          40.276    36257483.458   142282153.1220       -140.344          48.803    36257483.458   145993861.4650       -144.005          41.780  
C08  40416370.521   212389460.6000       1905.513          36.035    40416370.521   210458647.3220       1888.190          32.014    40416366.804   158602504.6910       1422.948          40.112    40416366.804   162739961.3360       1460.068          33.088  
C09  36558362.123   192115489.6320      -1138.247          42.582    36558362.123   190368985.1810      -1127.899          38.562    36558361.164   143462861.8700       -849.990          46.945    36558361.164   147205371.3100       -872.163          39.921  
C10  36463934.908   191619271.2660        -97.393          44.312    36463934.908   189877277.8910        -96.507          40.292    36463933.979   143092309.3120        -72.728          48.905    36463933.979   146825152.1630        -74.626          41.881  
C16  37964473.371   199504654.1120      -1475.444          40.227    37964473.371   197690975.4380      -1462.031          36.206    37964475.500   148980756.5530      -1101.793          44.092    37964475.500   152867211.0720      -1130.535          37.068  
C23  24531937.675   128916202.5970      -2151.590          44.598    24531937.675   127744237.1190      -2132.031          40.577    24531937.675    96268592.8480      -1606.707          48.212    24531937.675    98779947.4440      -1648.621          41.188  
C27  22235060.948   116846033.9250       1855.209          48.826    22235060.948   115783797.2530       1838.343          44.805    22235060.948    87255155.2040       1385.383          51.613    22235060.948    89531376.6440       1421.523          44.589  
C28  22006775.338   115646384.9520      -1119.995          48.875    22006775.338   114595054.1790      -1109.813          44.854    22006775.338    86359313.4380       -836.360          52.539    22006775.338    88612165.0930       -858.178          45.515  
C37  22007608.294   115650762.1610         33.263          49.036    22007608.294   114599391.5960         32.961          45.016    22007608.294    86362582.1330         24.840          53.616    22007608.294    88615519.0590         25.488          46.592  
C38  39709277.281   208673660.5450       1917.249          37.748    39709277.281   206776627.2680       1899.819          33.727    39709277.281   155827733.5240       1431.712          41.010    39709277.281   159892804.8330       1469.061          33.987  
C39  38917038.465   204510417.4640      -1601.676          38.870    38917038.465   202651231.8510      -1587.116          34.849    38917038.465   152718818.2360      -1196.057          42.392    38917038.465   156702787.4080      -1227.259          35.368  
C40  36757798.516   193163534.9480       -393.549          43.181    36757798.516   191407502.8120       -389.971          39.161    36757798.516   144245496.8770       -293.884          47.283    36757798.516   148008422.8820       -301.551          40.259  
C46  23849818.199   125331640.5530       2415.522          45.420    23849818.199   124192262.0020       2393.563          41.399    23849818.199    93591809.5040       1803.799          48.844    23849818.199    96033334.9690       1850.855          41.820  
C59  38646295.755   203087654.9240         -1.433          39.457    38646295.755   201241403.5160         -1.420          35.436    38646295.755   151656365.6900         -1.070          43.361    38646295.755   155612618.7080         -1.098          36.337  
C60  37026162.641   194573797.9450         44.071          42.173    37026162.641   192804945.2360         43.670          38.153    37026162.641   145298615.3490         32.910          46.633    37026162.641   149089014.0100         33.769          39.609  
E01  25504173.427   134025335.9560      -1017.178          46.957    25504173.552   100083855.2640       -759.581          49.529    25504173.427   102694737.9410       -779.396          49.505  
E04  27043622.272   142115194.2390      -2595.248          43.804    27043620.770   106124976.8170      -1938.010          46.529    27043622.272   108893460.5210      -1988.567          46.505  
E05  27836753.668   146283127.8540        562.411          42.046    27836755.796   109237409.0210        419.983          45.585    27836753.668   112087071.9920        430.939          45.562  
E09  26383260.193   138644968.0910      -1505.388          45.533    26383261.445   103533584.9800      -1124.154          48.434    26383260.193   106234456.0690      -1153.479          48.411  
E12  26258938.109   137991651.1280       2994.756          45.494    26258932.601   103045691.8920       2236.344          48.374    26258938.109   105733862.5530       2294.683          48.350  
E24  27052346.079   142161038.1540       1663.877          44.442    27052344.953   106159212.3830       1242.505          46.963    27052346.079   108928587.6770       1274.919          46.939  
E26  26495265.701   139233561.0070      -1418.836          45.914    26495263.322   103973104.4060      -1059.521          48.895    26495265.701   106685455.8360      -1087.160          48.872  
E31  24244669.275   127406596.9650        649.217          49.676    24244672.029    95141300.7480        484.805          52.032    24244669.275    97623236.6350        497.452          52.008  
E33  24273070.334   127555845.5350       1100.962          49.465    24273068.456    95252734.4280        822.147          51.885    24273070.334    97737595.9300        843.594          51.861  
G01  21118356.415   110977712.0000       1718.465          48.668    21118356.415   110977712.0000       1718.465          45.668    21118356.415   110977712.0000       1718.465          50.168    21118357.318    86476142.9190       1339.064          45.383    21118357.318    86476142.9190       1339.064          46.883    21118357.523    82872971.0990       1283.270          49.853  
G07  20164698.420   105966205.4100       -674.517          50.322    20164698.420   105966205.4100       -674.517          47.322    20164698.420   105966205.4100       -674.517          51.822    20164696.252    82571060.2750       -525.598          48.541    20164696.252    82571060.2750       -525.598          50.041    20164695.762    79130597.5060       -503.698          53.011  
G08  23345399.383   122680901.7840      -3170.218          44.750    23345399.383   122680901.7840      -3170.218          41.750    23345399.383   122680901.7840      -3170.218          46.250    23345400.376    95595511.9510      -2470.299          41.790    23345400.376    95595511.9510      -2470.299          43.290    23345400.601    91612366.5020      -2367.370          46.259  
G09  24486722.057   128678592.9180      -3102.898          41.668    24486722.057   128678592.9180      -3102.898          38.668    24486722.057   128678592.9180      -3102.898          43.168    24486722.238   100269034.1820      -2417.843          39.755    24486722.238   100269034.1820      -2417.843          41.255    24486722.278    96091157.9180      -2317.099          44.224  
G13  24141505.426   126864467.2760       1538.896          41.787    24141505.426   126864467.2760       1538.896          38.787    24141505.426   126864467.2760       1538.896          43.287    24141503.168    98855419.8010       1199.140          39.841    24141503.168    98855419.8010       1199.140          41.341    24141502.657    94736441.9720       1149.176          44.310  
G14  22005348.916   115638889.0510       1637.132          47.631    22005348.916   115638889.0510       1637.132          44.631    22005348.916   115638889.0510       1637.132          49.131    22005347.380    90108218.9480       1275.687          44.306    22005347.380    90108218.9480       1275.687          45.806    22005347.033    86353708.4620       1222.533          48.776  
G17  21800059.193   114560084.2790       1980.616          47.510    21800059.193   114560084.2790       1980.616          44.510    21800059.193   114560084.2790       1980.616          49.010    21800057.026    89267589.2630       1543.337          44.219    21800057.026    89267589.2630       1543.337          45.719    21800056.536    85548104.4540       1479.032          48.689  
G21  21585258.913   113431301.1870      -1063.437          48.167    21585258.913   113431301.1870      -1063.437          45.167    21585258.913   113431301.1870      -1063.437          49.667    21585256.926    88388018.7630       -828.652          44.858    21585256.926    88388018.7630       -828.652          46.358    21585256.477    84705182.8840       -794.125          49.328  
G30  20825897.999   109440832.6500       1539.546          50.169    20825897.999   109440832.6500       1539.546          47.169    20825897.999   109440832.6500       1539.546          51.669    20825898.722    85278573.8540       1199.646          47.190    20825898.722    85278573.8540       1199.646          48.690    20825898.885    81725300.5850       1149.661          51.660  
I02  37387715.332   146717425.7670        188.204          47.170  
I03  37278260.675   146287902.1820        -33.398          48.093  
I06  39784026.829   156121066.8060        -20.523          42.323  
I09  39682920.410   155724303.5010       -486.159          42.370  
J02  39581019.844   207999663.1620        890.412          45.139    39581019.844   207999663.1620        890.412          46.639    39581019.844   207999663.1620        890.412          45.139    39581019.955   155324424.2250        664.918          48.158    39581019.955   155324424.2250        664.918          48.158  
J03  39309074.242   206570579.3770       -509.688          46.192    39309074.242   206570579.3770       -509.688          47.692    39309074.242   206570579.3770       -509.688          46.192    39309074.131   154257250.3990       -380.612          49.680    39309074.131   154257250.3990       -380.612          49.680  
J07  37730475.838   198274988.7720         -4.209          45.508    37730475.838   198274988.7720         -4.209          47.008    37730475.838   198274988.7720         -4.209          45.508    37730474.509   148062486.4010         -3.143          48.288    37730474.509   148062486.4010         -3.143          48.288  
R11  22711833.025   121365149.5750      -2373.991          40.910  
R12  19973674.124   106695782.0380        293.319          47.970  
R13  21264108.467   113549152.8680       2648.449          44.954  
R22  20142971.238   107524548.3960      -2054.294          47.303  
R23  19939615.003   106663494.9650       2607.049          48.046  
R24  23516203.499   125751708.3170       4387.032          38.280  
S22  38852183.268   204169601.1060         -0.001          41.330    38852183.268   152464312.5140         -0.001          42.378  
S23  40134600.311   210908748.1510         -1.636          39.073    40134600.311   157496792.4500         -1.222          40.079  
S26  37657307.670   197890487.4550          1.576          43.207    37657307.670   147775364.0080          1.177          44.421  
S27  38200991.504   200747565.2890        -10.432          42.335    38200991.504   149908896.1580         -7.790          43.517  
S28  36918040.926   194005614.4960         -8.468          44.744    36918040.926   144874322.5130         -6.323          46.409  
S30  38647705.564   203095063.5170         -2.164          41.655    38647705.564   151661898.0810         -1.616          42.858  
S32  36781069.017   193285822.2570         -2.474          45.264    36781069.017   144336815.3220         -1.847          46.726  
S34  36783473.494   193298457.8680          0.082          45.208    36783473.494   144346251.0050          0.062          46.694  
S37  37730995.145   198277717.7540         -4.593          43.107    37730995.145   148064529.4920         -3.430          44.287  
S43  36945068.115   194147643.3330         -3.382          44.604    36945068.115   144980383.0090         -2.526          46.315  
S44  37027135.610   194578910.9310         45.080          44.373    37027135.610   145302433.4880         33.664          46.133  
> 2023 01 08 10 35  0.0000000  0 64
C01  38726576.672   203509533.9890         32.265          38.935    38726576.672   201659447.3170         31.972          34.914    38726575.083   151971399.0170         24.094          42.544    38726575.083   155935870.2950         24.723          35.521  
C02  36968734.914   194272013.2030          4.919          42.302    36968734.914   192505903.9920          4.874          38.281    36968730.238   145073238.2600          3.673          46.739    36968730.238   148857757.5190          3.769          39.715  
C03  37057515.323   194738557.4010         34.606          42.011    37057515.323   192968206.8790         34.292          37.990    37057512.205   145421637.7720         25.842          46.469    37057512.205   149215245.7140         26.516          39.445  
C04  40359550.154   212090867.5570         26.049          36.601    40359550.154   210162768.7610         25.812          32.580    40359545.867   158379527.1320         19.452          40.452    40359545.867   162511166.9700         19.960          33.428  
C05  38003662.546   199710594.6130          2.437          40.309    38003662.546   197895043.7530          2.415          36.288    38003659.758   149134523.9970          1.820          44.167    38003659.758   153024989.8410          1.868          37.143  
C06  37731405.275   198279872.9970      -1490.486          40.605    37731405.275   196477328.6970      -1476.936          36.584    37731402.157   148066126.6920      -1113.025          44.434    37731402.157   151928721.3010      -1142.061          37.410  
C07  36267873.189   190588959.9790       -175.806          44.280    36267873.189   188856333.0700       -174.208          40.259    36267868.992   142322908.1890       -131.284          48.762    36267868.992   146035679.7070       -134.709          41.738  
C08  40306887.815   211814125.0940       1929.670          36.263    40306887.815   209888542.1390       1912.127          32.242    40306884.097   158172871.0340       1440.987          40.264    40306884.097   162299119.8440       1478.578          33.240  
C09  36624592.865   192463534.5280      -1181.887          42.349    36624592.865   190713866.0330      -1171.143          38.329    36624591.906   143722765.5260       -882.578          46.775    36624591.906   147472055.0620       -905.602          39.752  
C10  36469143.198   191646641.0140        -84.955          44.298    36469143.198   189904398.8230        -84.183          40.277    36469142.269   143112747.7590        -63.440          48.876    36469142.269   146846123.7880        -65.095          41.853  
C16  38049499.145   199951467.5660      -1503.043          40.089    38049499.145   198133726.9520      -1489.379          36.068    38049501.273   149314415.9510      -1122.403          43.973    38049501.273   153209574.6280      -1151.683          36.949  
C23  24656946.294   129573127.3240      -2227.741          44.361    24656946.294   128395189.8020      -2207.488          40.340    24656946.294    96759153.5210      -1663.573          47.908    24656946.294    99283305.3520      -1706.970          40.884  
C27  22132969.021   116309537.2320       1720.929          48.912    22132969.021   115252177.8030       1705.284          44.891    22132969.021    86854524.5570       1285.109          51.935    22132969.021    89120294.7620       1318.634          44.912  
C28  22074668.167   116003164.1740      -1257.659          48.906    22074668.167   114948589.9550      -1246.225          44.885    22074668.167    86625739.4810       -939.161          52.259    22074668.167    88885541.3800       -963.661          45.236  
C30  25976818.129   136509100.6310       3202.061          40.540    25976818.129   135268108.8070       3172.951          36.519    25976818.129   101938614.1070       2391.149          44.872    25976818.129   104597882.3010       2453.527          37.849  
C37  22008625.635   115656108.3290        -69.497          49.033    22008625.635   114604689.1620        -68.865          45.013    22008625.635    86366574.4010        -51.897          53.612    22008625.635    88619615.4730        -53.251          46.589  
C38  39599566.472   208097126.3530       1925.932          37.955    39599566.472   206205334.2950       1908.423          33.934    39599566.472   155397204.7440       1438.196          41.161    39599566.472   159451044.8680       1475.714          34.137  
C39  39008914.410   204993228.8160      -1616.755          38.729    39008914.410   203129654.0090      -1602.057          34.708    39008914.410   153079359.1810      -1207.317          42.148    39008914.410   157072733.7680      -1238.812          35.124  
C40  36779756.560   193278925.2460       -375.577          43.087    36779756.560   191521844.1070       -372.163          39.067    36779756.560   144331664.9560       -280.464          47.227    36779756.560   148096838.8250       -287.780          40.203  
C46  23712609.588   124610604.4370       2390.559          45.675    23712609.588   123477780.7600       2368.826          41.654    23712609.588    93053373.4430       1785.157          48.975    23712609.588    95480852.7500       1831.727          41.951  
C59  38646360.082   203087992.9630         -0.820          39.457    38646360.082   201241738.4820         -0.813          35.436    38646360.082   151656618.1220         -0.613          43.361    38646360.082   155612877.7250         -0.629          36.337  
C60  37023639.278   194560537.5790         44.328          42.180    37023639.278   192791805.4200         43.925          38.160    37023639.278   145288713.1270         33.102          46.640    37023639.278   149078853.4700         33.966          39.616  
E01  25562947.708   134334196.8890      -1042.246          46.856    25562947.834   100314498.1680       -778.301          49.478    25562947.708   102931397.6160       -798.604          49.454  
E04  27191322.762   142891365.5490      -2578.173          43.464    27191321.260   106704585.2630      -1925.259          46.361    27191322.762   109488189.1870      -1975.483          46.337  
E05  27808256.367   146133373.5260        435.910          42.111    27808258.495   109125579.4900        325.518          45.633    27808256.367   111972325.1690        334.009          45.609  
E09  26471751.599   139109993.5680      -1593.796          45.381    26471752.851   103880844.2650      -1190.172          48.210    26471751.599   106590774.2920      -1221.220          48.187  
E12  26088950.123   137098358.2330       2959.435          45.784    26088944.615   102378622.5220       2209.968          48.759    26088950.123   105049391.3730       2267.619          48.735  
E24  26956977.866   141659874.8130       1677.260          44.629    26956976.740   105784967.0310       1252.499          47.155    26956977.866   108544579.4020       1285.173          47.131  
E26  26579784.914   139677712.4680      -1541.493          45.768    26579782.535   104304775.9520      -1151.115          48.742    26579784.914   107025779.6830      -1181.144          48.719  
E31  24207941.111   127213589.1570        637.238          49.785    24207943.864    94997171.5410        475.860          52.130    24207941.111    97475347.5360        488.274          52.106  
E33  24214120.623   127246062.7120        963.750          49.660    24214118.745    95021403.0990        719.684          52.038    24214120.623    97500229.8700        738.458          52.014  
G01  21025635.752   110490461.6270       1528.532          48.848    21025635.752   110490461.6270       1528.532          45.848    21025635.752   110490461.6270       1528.532          50.348    21025636.655    86096467.3040       1191.064          45.534    21025636.655    86096467.3040       1191.064          47.034    21025636.860    82509115.3010       1141.436          50.003  
G07  20208409.344   106195907.8640       -856.900          50.175    20208409.344   106195907.8640       -856.900          47.175    20208409.344   106195907.8640       -856.900          51.675    20208407.176    82750049.2000       -667.715          48.319    20208407.176    82750049.2000       -667.715          49.819    20208406.686    79302128.5600       -639.893          52.788  
G08  23526659.554   123633430.4140      -3178.943          44.312    23526659.554   123633430.4140      -3178.943          41.312    23526659.554   123633430.4140      -3178.943          45.812    23526660.548    96337742.0530      -2477.098          41.290    23526660.548    96337742.0530      -2477.098          42.790    23526660.772    92323670.3500      -2373.886          45.760  
G09  24662884.670   129604333.6960      -3067.269          41.179    24662884.670   129604333.6960      -3067.269          38.179    24662884.670   129604333.6960      -3067.269          42.679    24662884.850   100990390.6330      -2390.080          39.487    24662884.850   100990390.6330      -2390.080          40.987    24662884.891    96782457.8500      -2290.493          43.957  
G13  24058407.437   126427784.3980       1371.716          42.051    24058407.437   126427784.3980       1371.716          39.051    24058407.437   126427784.3980       1371.716          43.551    24058405.179    98515147.4280       1068.870          39.959    24058405.179    98515147.4280       1068.870          41.459    24058404.668    94410347.6150       1024.334          44.429  
G14  21912556.642   115151262.3620       1613.533          47.793    21912556.642   115151262.3620       1613.533          44.793    21912556.642   115151262.3620       1613.533          49.293    21912555.107    89728250.0990       1257.299          44.452    21912555.107    89728250.0990       1257.299          45.952    21912554.760    85989571.6490       1204.911          48.922  
G17  21690499.725   113984345.3880       1857.486          47.732    21690499.725   113984345.3880       1857.486          44.732    21690499.725   113984345.3880       1857.486          49.232    21690497.558    88818961.5560       1447.391          44.394    21690497.558    88818961.5560       1447.391          45.894    21690497.068    85118169.5680       1387.083          48.864  
G21  21651328.228   113778497.7800      -1250.553          48.090    21651328.228   113778497.7800      -1250.553          45.090    21651328.228   113778497.7800      -1250.553          49.590    21651326.241    88658561.5620       -974.457          44.773    21651326.241    88658561.5620       -974.457          46.273    21651325.792    84964453.0670       -933.854          49.242  
G30  20742375.593   109001919.4440       1385.390          50.112    20742375.593   109001919.4440       1385.390          47.112    20742375.593   109001919.4440       1385.390          51.612    20742376.316    84936563.5650       1079.525          47.526    20742376.316    84936563.5650       1079.525          49.026    20742376.479    81397540.7240       1034.544          51.995  
I02  37373318.497   146660929.4940        188.443          47.207  
I03  37280760.364   146297711.5010        -31.994          48.084  
I06  39785631.679   156127364.5810        -21.461          42.321  
I09  39719569.550   155868122.5960       -472.568          42.337  
J02  39529800.357   207730502.9420        903.820          45.150    39529800.357   207730502.9420        903.820          46.650    39529800.357   207730502.9420        903.820          45.150    39529800.468   155123427.9560        674.930          48.164    39529800.468   155123427.9560        674.930          48.164  
J03  39338364.133   206724498.7950       -516.307          46.230    39338364.133   206724498.7950       -516.307          47.730    39338364.133   206724498.7950       -516.307          46.230    39338364.022   154372190.2240       -385.554          49.709    39338364.022   154372190.2240       -385.554          49.709  
J07  37730714.605   198276243.5030         -4.156          45.508    37730714.605   198276243.5030         -4.156          47.008    37730714.605   198276243.5030         -4.156          45.508    37730713.276   148063423.3750         -3.103          48.288    37730713.276   148063423.3750         -3.103          48.288  
R11  22847972.573   122092638.0430      -2475.895          40.479  
R12  19960533.246   106625585.8260        173.500          48.012  
R13  21116077.060   112758673.4120       2620.133          45.279  
R22  20264658.547   108174123.5190      -2274.348          46.936  
R23  19799675.383   105914912.3610       2381.990          48.313  
R24  23271333.174   124442276.6430       4340.572          39.001  
S22  38852183.361   204169601.5930         -0.002          41.330    38852183.361   152464312.8780         -0.002          42.378  
S23  40134692.705   210909233.6850         -1.601          39.073    40134692.705   157497155.0250         -1.196          40.079  
S26  37657218.937   197890021.1620          1.532          43.207    37657218.937   147775015.8030          1.144          44.421  
S27  38201589.233   200750706.3730        -10.620          42.335    38201589.233   149911241.7720         -7.930          43.517  
S28  36918516.744   194008114.9360         -8.468          44.744    36918516.744   144876189.7250         -6.323          46.409  
S30  38647812.130   203095623.5280         -1.569          41.655    38647812.130   151662316.2710         -1.172          42.858  
S32  36781209.895   193286562.5760         -2.461          45.264    36781209.895   144337368.1570         -1.838          46.726  
S34  36783468.908   193298433.7710          0.078          45.208    36783468.908   144346233.0110          0.058          46.694  
S37  37731256.525   198279091.3130         -4.564          43.107    37731256.525   148065555.2010         -3.408          44.287  
S43  36945275.252   194148731.8430         -3.874          44.606    36945275.252   144981195.8570         -2.893          46.316  
S44  37024554.450   194565346.8410         45.343          44.380    37024554.450   145292304.4590         33.860          46.140  
> 2023 01 08 10 40  0.0000000  0 66
C01  38724718.800   203499770.8030         32.820          38.937    38724718.800   201649772.8870         32.522          34.917    38724717.211   151964108.3260         24.508          42.549    38724717.211   155928389.4120         25.148          35.525  
C02  36968439.975   194270463.2890          5.414          42.302    36968439.975   192504368.1680          5.365          38.282    36968435.299   145072080.8560          4.043          46.739    36968435.299   148856569.9220          4.148          39.715  
C03  37055522.602   194728085.5770         35.203          42.014    37055522.602   192957830.2540         34.883          37.994    37055519.484   145413817.9040         26.288          46.473    37055519.484   149207221.8490         26.974          39.450  
C04  40358061.585   212083045.0690         26.099          36.604    40358061.585   210155017.3870         25.861          32.583    40358057.297   158373685.6640         19.489          40.453    40358057.297   162505173.1160         19.998          33.429  
C05  38003498.255   199709731.2580          3.318          40.308    38003498.255   197894188.2460          3.288          36.287    38003495.467   149133879.2840          2.478          44.166    38003495.467   153024328.3090          2.542          37.143  
C06  37817299.084   198731248.0140      -1518.421          40.468    37817299.084   196924600.3050      -1504.617          36.447    37817295.967   148403192.4510      -1133.886          44.305    37817295.967   152274580.0800      -1163.465          37.282  
C07  36277550.028   190639812.1110       -163.121          44.264    36277550.028   188906722.9100       -161.638          40.243    36277545.831   142360882.1840       -121.811          48.723    36277545.831   146074644.3280       -124.988          41.699  
C08  40196092.720   211231892.9400       1951.485          36.497    40196092.720   209311603.0040       1933.744          32.476    40196089.002   157738087.2820       1457.278          40.395    40196089.002   161852993.9070       1495.294          33.371  
C09  36693285.794   192824518.3060      -1224.492          42.151    36693285.794   191071568.1400      -1213.360          38.130    36693284.835   143992331.3340       -914.393          46.596    36693284.835   147748653.0210       -938.247          39.572  
C10  36473621.853   191670176.5040        -71.840          44.285    36473621.853   189927720.3540        -71.187          40.264    36473620.924   143130322.9630        -53.646          48.849    36473620.924   146864157.4750        -55.046          41.825  
C13  40439382.822   212510391.0570       1700.880          36.072    40439382.822   210578478.4110       1685.417          32.052    40439386.420   158692838.6080       1270.138          40.143    40439386.420   162832651.7890       1303.272          33.119  
C16  38136053.909   200406315.9240      -1529.000          39.948    38136053.909   198584440.3250      -1515.100          35.928    38136056.038   149654075.4390      -1141.786          43.849    38136056.038   153558094.7990      -1171.572          36.825  
C23  24786270.938   130252732.9140      -2302.750          44.115    24786270.938   129068617.1610      -2281.816          40.095    24786270.938    97266651.2020      -1719.586          47.554    24786270.938    99804042.1030      -1764.445          40.530  
C27  22038625.141   115813756.7940       1583.849          48.896    22038625.141   114760904.4590       1569.450          44.875    22038625.141    86484298.9040       1182.744          52.291    22038625.141    88740411.0500       1213.599          45.267  
C28  22150266.845   116400437.9070      -1389.901          48.923    22150266.845   115342252.1080      -1377.265          44.903    22150266.845    86922404.9310      -1037.913          51.974    22150266.845    89189945.9290      -1064.989          44.951  
C30  25795159.748   135554479.3950       3161.203          41.015    25795159.748   134322165.9460       3132.465          36.994    25795159.748   101225747.6000       2360.639          45.149    25795159.748   103866419.2770       2422.221          38.126  
C37  22015608.697   115692804.5660       -175.699          49.015    22015608.697   114641051.7970       -174.102          44.994    22015608.697    86393977.4360       -131.204          53.588    22015608.697    88647733.3690       -134.627          46.564  
C38  39489425.236   207518330.2500       1932.326          38.152    39489425.236   205631799.9750       1914.760          34.132    39489425.236   154964986.8750       1442.971          41.348    39489425.236   159007551.7500       1480.614          34.324  
C39  39101597.640   205480282.4770      -1629.953          38.585    39101597.640   203612279.9090      -1615.135          34.564    39101597.640   153443068.0830      -1217.172          41.909    39101597.640   157445930.7290      -1248.925          34.885  
C40  36800664.947   193388799.5650       -356.788          42.997    36800664.947   191630719.5690       -353.544          38.976    36800664.947   144413713.9610       -266.432          47.173    36800664.947   148181028.2380       -273.383          40.149  
C46  23576969.820   123897812.6430       2360.523          45.923    23576969.820   122771468.8920       2339.064          41.902    23576969.820    92521093.8570       1762.728          49.099    23576969.820    94934687.6100       1808.712          42.076  
C59  38646389.409   203088147.0740         -0.207          39.457    38646389.409   201241891.1920         -0.205          35.436    38646389.409   151656733.2050         -0.155          43.360    38646389.409   155612995.8100         -0.159          36.337  
C60  37021101.825   194547203.1750         44.564          42.187    37021101.825   192778592.2370         44.159          38.166    37021101.825   145278755.6180         33.279          46.646    37021101.825   149068636.1990         34.147          39.622  
E01  25623213.522   134650895.8770      -1069.435          46.753    25623213.647   100550994.1660       -798.604          49.426    25623213.522   103174063.0750       -819.438          49.403  
E04  27337869.112   143661471.8190      -2554.837          43.118    27337867.610   107279664.6200      -1907.833          46.202    27337869.112   110078270.6150      -1957.603          46.178  
E05  27786983.501   146021583.8610        309.387          42.160    27786985.629   109042100.1950        231.035          45.668    27786983.501   111886668.1530        237.062          45.645  
E09  26565119.044   139600642.8060      -1676.177          45.220    26565120.296   104247238.1760      -1251.691          47.965    26565119.044   106966726.3060      -1284.344          47.941  
E10  27934032.124   146794329.5940       3132.228          42.049    27934032.500   109619143.7030       2339.001          45.589    27934032.124   112478772.0270       2400.019          45.565  
E12  25921165.659   136216644.9270       2917.566          46.077    25921160.152   101720200.2480       2178.702          49.032    25921165.659   104373792.8660       2235.537          49.008  
E24  26860839.078   141154662.0700       1690.843          44.810    26860837.951   105407697.7750       1262.643          47.375    26860839.078   108157468.3400       1295.581          47.351  
E26  26671186.639   140158031.7750      -1659.901          45.613    26671184.260   104663455.9540      -1239.536          48.546    26671186.639   107393816.5550      -1271.872          48.523  
E31  24171943.732   127024421.6560        623.583          49.877    24171946.486    94855910.0950        465.662          52.229    24171943.732    97330401.0090        477.810          52.205  
E33  24163086.228   126977875.1600        823.741          49.808    24163084.351    94821133.1730        615.131          52.177    24163086.228    97294735.5120        631.178          52.153  
G01  20943979.674   110061356.0380       1330.968          49.047    20943979.674   110061356.0380       1330.968          46.047    20943979.674   110061356.0380       1330.968          50.547    20943980.577    85762099.3120       1037.118          45.657    20943980.577    85762099.3120       1037.118          47.157    20943980.781    82188679.3090        993.905          50.127  
G07  20262536.263   106480346.7440      -1039.295          50.113    20262536.263   106480346.7440      -1039.295          47.113    20262536.263   106480346.7440      -1039.295          51.613    20262534.095    82971689.8860       -809.840          48.059    20262534.095    82971689.8860       -809.840          49.559    20262533.605    79514534.2170       -776.097          52.529  
G08  23708244.830   124587667.4770      -3181.668          43.855    23708244.830   124587667.4770      -3181.668          40.855    23708244.830   124587667.4770      -3181.668          45.355    23708245.823    97081303.4010      -2479.222          40.869    23708245.823    97081303.4010      -2479.222          42.369    23708246.048    93036249.9740      -2375.921          45.339  
G13  23984950.547   126041765.8350       1201.254          42.292    23984950.547   126041765.8350       1201.254          39.292    23984950.547   126041765.8350       1201.254          43.792    23984948.289    98214353.7430        936.042          40.062    23984948.289    98214353.7430        936.042          41.562    23984947.778    94122086.9990        897.040          44.532  
G14  21821144.813   114670889.9580       1588.726          47.947    21821144.813   114670889.9580       1588.726          44.947    21821144.813   114670889.9580       1588.726          49.447    21821143.278    89353933.9400       1237.969          44.613    21821143.278    89353933.9400       1237.969          46.113    21821142.930    85630851.9960       1186.387          49.082  
G17  21587991.846   113445662.8440       1733.656          47.929    21587991.846   113445662.8440       1733.656          44.929    21587991.846   113445662.8440       1733.656          49.429    21587989.678    88399208.9250       1350.901          44.592    21587989.678    88399208.9250       1350.901          46.092    21587989.188    84715906.6290       1294.613          49.061  
G19  24708256.357   129842763.5240       3117.095          41.169    24708256.357   129842763.5240       3117.095          38.169    24708256.357   129842763.5240       3117.095          42.669    24708253.377   101176167.1660       2428.905          39.429    24708253.377   101176167.1660       2428.905          40.929    24708252.703    96960490.8880       2327.701          43.899  
G21  21727960.296   114181202.0170      -1433.361          47.996    21727960.296   114181202.0170      -1433.361          44.996    21727960.296   114181202.0170      -1433.361          49.496    21727958.309    88972357.0720      -1116.905          44.667    21727958.309    88972357.0720      -1116.905          46.167    21727957.860    85265173.7640      -1070.367          49.137  
G30  20667846.921   108610268.6280       1224.537          50.074    20667846.921   108610268.6280       1224.537          47.074    20667846.921   108610268.6280       1224.537          51.574    20667847.643    84631381.1100        954.185          47.821    20667847.643    84631381.1100        954.185          49.321    20667847.807    81105074.2050        914.427          52.291  
I02  37358902.336   146604357.3840        188.707          47.244  
I03  37283151.945   146307096.5760        -30.570          48.076  
I06  39787307.808   156133942.0710        -22.388          42.318  
I09  39755164.329   156007804.1550       -458.578          42.305  
J02  39477844.800   207457474.6480        916.195          45.162    39477844.800   207457474.6480        916.195          46.662    39477844.800   207457474.6480        916.195          45.162    39477844.911   154919543.1910        684.171          48.170    39477844.911   154919543.1910        684.171          48.170  
J03  39368008.759   206880282.3540       -522.113          46.266    39368008.759   206880282.3540       -522.113          47.766    39368008.759   206880282.3540       -522.113          46.266    39368008.648   154488522.1030       -389.890          49.734    39368008.648   154488522.1030       -389.890          49.734  
J07  37730950.270   198277481.9330         -4.100          45.508    37730950.270   198277481.9330         -4.100          47.008    37730950.270   198277481.9330         -4.100          45.508    37730948.941   148064348.1770         -3.062          48.288    37730948.941   148064348.1770         -3.062          48.288  
R11  22989821.925   122850637.9700      -2577.316          40.026  
R12  19954314.923   106592368.6580         46.822          48.031  
R13  20969857.019   111977866.5500       2583.885          45.588  
R22  20398392.383   108888003.8150      -2482.872          46.650  
R23  19672602.323   105235157.1770       2148.377          48.274  
R24  23029396.902   123148534.6710       4282.426          39.757  
S22  38852183.512   204169602.3850         -0.003          41.330    38852183.512   152464313.4690         -0.002          42.378  
S23  40134783.104   210909708.7370         -1.566          39.072    40134783.104   157497509.7710         -1.169          40.079  
S26  37657132.749   197889568.2420          1.487          43.207    37657132.749   147774677.5830          1.111          44.421  
S27  38202197.576   200753903.2410        -10.803          42.335    38202197.576   149913629.0430         -8.067          43.517  
S28  36918992.431   194010614.6900         -8.463          44.744    36918992.431   144878056.4240         -6.320          46.409  
S30  38647884.701   203096004.8910         -0.973          41.654    38647884.701   151662601.0550         -0.727          42.858  
S32  36781350.007   193287298.8700         -2.447          45.264    36781350.007   144337917.9870         -1.827          46.726  
S34  36783464.555   193298410.8910          0.074          45.208    36783464.555   144346215.9250          0.055          46.694  
S37  37731516.211   198280455.9720         -4.533          43.107    37731516.211   148066574.2640         -3.385          44.287  
S43  36945510.406   194149967.5860         -4.364          44.608    36945510.406   144982118.6520         -3.259          46.318  
S44  37021958.922   194551707.2490         45.584          44.387    37021958.922   145282119.0490         34.040          46.146  
> 2023 01 08 10 45  0.0000000  0 66
C01  38722829.737   203489843.7110         33.358          38.940    38722829.737   201639936.0410         33.055          34.919    38722828.148   151956695.2370         24.910          42.554    38722828.148   155920782.9390         25.560          35.530  
C02  36968116.834   194268765.1670          5.907          42.303    36968116.834   192502685.4840          5.853          38.282    36968112.157   145070812.7790          4.411          46.739    36968112.157   148855268.7640          4.526          39.716  
C03  37053496.317   194717437.3790         35.782          42.018    37053496.317   192947278.8570         35.457          37.998    37053493.199   145405866.3270         26.720          46.478    37053493.199   149199062.8400         27.417          39.454  
C04  40356570.576   212075209.7660         26.135          36.607    40356570.576   210147253.3130         25.897          32.586    40356566.289   158367834.6250         19.516          40.454    40356566.289   162499169.4410         20.025          33.431  
C05  38003283.720   199708603.8730          4.198          40.307    38003283.720   197893071.1110          4.159          36.287    38003280.932   149133037.4060          3.135          44.166    38003280.932   153023464.4690          3.216          37.142  
C06  37904742.597   199190766.7720      -1544.768          40.329    37904742.597   197379941.6190      -1530.725          36.309    37904739.479   148746339.5750      -1153.561          44.183    37904739.479   152626678.8680      -1183.653          37.159  
C07  36286488.237   190686782.7170       -149.939          44.249    36286488.237   188953266.5110       -148.576          40.229    36286484.040   142395957.6370       -111.967          48.686    36286484.040   146110634.7920       -114.888          41.663  
C08  40084119.833   210643471.4500       1970.927          36.735    40084119.833   208728530.8000       1953.009          32.715    40084116.116   157298681.6250       1471.796          40.511    40084116.116   161402125.4930       1510.191          33.487  
C09  36764379.328   193198117.3500      -1265.974          41.986    36764379.328   191441770.8280      -1254.466          37.965    36764378.369   144271317.6330       -945.371          46.399    36764378.369   148034917.2230       -970.032          39.375  
C10  36477333.677   191689682.2710        -58.099          44.273    36477333.677   189947048.7960        -57.571          40.253    36477332.747   143144888.9580        -43.386          48.822    36477332.747   146879103.4520        -44.517          41.798  
C13  40341572.038   211996391.9160       1725.422          36.282    40341572.038   210069151.9890       1709.737          32.261    40341575.635   158309008.0810       1288.465          40.280    40341575.635   162438808.2910       1322.077          33.257  
C16  38224042.260   200868697.8270      -1553.258          39.806    38224042.260   199042618.7560      -1539.138          35.786    38224044.388   149999360.6270      -1159.900          43.715    38224044.388   153912387.4260      -1190.159          36.692  
C23  24919838.598   130954635.7050      -2376.343          43.858    24919838.598   129764139.0170      -2354.740          39.838    24919838.598    97790799.3900      -1774.542          47.169    24919838.598   100341863.7220      -1820.834          40.145  
C27  21952174.918   115359457.8040       1444.470          48.856    21952174.918   114310735.4600       1431.338          44.836    21952174.918    86145049.6590       1078.663          52.654    21952174.918    88392311.8240       1106.802          45.630  
C28  22233252.404   116836529.9640      -1516.397          48.890    22233252.404   115774379.6910      -1502.612          44.870    22233252.404    87248058.0900      -1132.375          51.704    22233252.404    89524094.3880      -1161.915          44.680  
C30  25615982.728   134612897.7970       3115.154          41.498    25615982.728   133389144.1810       3086.835          37.478    25615982.728   100522618.4850       2326.252          45.382    25615982.728   103144947.6630       2386.936          38.358  
C37  22028747.301   115761848.3960       -285.105          48.982    22028747.301   114709467.9560       -282.513          44.962    22028747.301    86445536.1400       -212.903          53.542    22028747.301    88700637.0830       -218.457          46.518  
C38  39378984.542   206937960.4850       1936.422          38.341    39378984.542   205056706.2990       1918.818          34.320    39378984.542   154531593.8690       1446.029          41.578    39378984.542   158562852.8390       1483.752          34.555  
C39  39194979.792   205971008.9970      -1641.236          38.435    39194979.792   204098545.2790      -1626.315          34.415    39194979.792   153809519.7060      -1225.598          41.686    39194979.792   157821941.9590      -1257.570          34.662  
C40  36820479.057   193492923.4160       -337.253          42.911    36820479.057   191733896.8390       -334.187          38.890    36820479.057   144491468.7850       -251.845          47.122    36820479.057   148260811.4480       -258.415          40.098  
C46  23443194.687   123194819.5770       2325.199          46.164    23443194.687   122074866.6720       2304.061          42.143    23443194.687    91996131.5020       1736.350          49.237    23443194.687    94396030.5850       1781.646          42.213  
C59  38646383.720   203088117.1800          0.406          39.456    38646383.720   201241861.5690          0.403          35.436    38646383.720   151656710.8810          0.303          43.360    38646383.720   155612972.9040          0.311          36.336  
C60  37018551.489   194533801.0700         44.779          42.194    37018551.489   192765311.9700         44.372          38.173    37018551.489   145268747.5530         33.439          46.653    37018551.489   149058367.0540         34.312          39.629  
E01  25685092.490   134976072.0460      -1098.763          46.646    25685092.615   100793820.5260       -820.505          49.374    25685092.490   103423224.0360       -841.909          49.350  
E04  27482907.945   144423656.0320      -2525.383          42.769    27482906.443   107848828.1550      -1885.838          46.035    27482907.945   110662281.8940      -1935.034          46.011  
E05  27772923.874   145947700.0250        183.278          42.192    27772926.002   108986927.2000        136.863          45.691    27772923.874   111830055.8630        140.434          45.668  
E09  26663012.580   140115076.8090      -1752.329          45.048    26663013.832   104631393.4380      -1308.557          47.706    26663012.580   107360903.0090      -1342.694          47.682  
E10  27755049.218   145853768.0720       3137.191          42.466    27755049.593   108916776.3330       2342.708          45.869    27755049.218   111758082.0290       2403.822          45.845  
E12  25755957.209   135348468.6630       2869.199          46.364    25755951.702   101071886.8040       2142.584          49.224    25755957.209   103708566.8980       2198.477          49.200  
E24  26763923.413   140645366.8120       1704.446          44.989    26763922.286   105027379.8870       1272.801          47.619    26763923.413   107767229.1160       1306.004          47.595  
E26  26769219.312   140673196.9490      -1773.749          45.445    26769216.934   105048157.2200      -1324.553          48.308    26769219.312   107788553.5070      -1359.107          48.284  
E31  24136778.379   126839626.4810        608.058          49.945    24136781.133    94717913.6980        454.069          52.330    24136778.379    97188804.7060        465.915          52.307  
E33  24120112.876   126752048.6670        681.426          49.908    24120110.998    94652496.5060        508.857          52.300    24120112.876    97121699.6280        522.132          52.276  
G01  20873800.059   109692559.6750       1126.617          49.252    20873800.059   109692559.6750       1126.617          46.252    20873800.059   109692559.6750       1126.617          50.752    20873800.962    85474725.5230        877.883          45.768    20873800.962    85474725.5230        877.883          47.268    20873801.167    81913279.4280        841.305          50.237  
G07  20327057.174   106819406.4190      -1220.906          50.144    20327057.174   106819406.4190      -1220.906          47.144    20327057.174   106819406.4190      -1220.906          51.644    20327055.006    83235892.2300       -951.356          47.721    20327055.006    83235892.2300       -951.356          49.221    20327054.516    79767728.1300       -911.716          52.191  
G08  23889823.233   125541868.4270      -3178.764          43.373    23889823.233   125541868.4270      -3178.764          40.373    23889823.233   125541868.4270      -3178.764          44.873    23889824.226    97824836.6090      -2476.959          40.547    23889824.226    97824836.6090      -2476.959          42.047    23889824.451    93748802.6320      -2373.752          45.016  
G13  23921301.452   125707287.5820       1028.238          42.504    23921301.452   125707287.5820       1028.238          39.504    23921301.452   125707287.5820       1028.238          44.004    23921299.194    97953721.3380        801.225          40.152    23921299.194    97953721.3380        801.225          41.652    23921298.683    93872314.2780        767.840          44.622  
G14  21731189.919   114198173.7990       1562.447          48.096    21731189.919   114198173.7990       1562.447          45.096    21731189.919   114198173.7990       1562.447          49.596    21731188.384    88985583.6870       1217.491          44.780    21731188.384    88985583.6870       1217.491          46.280    21731188.037    85277849.6700       1166.762          49.250  
G17  21492561.412   112944172.5330       1609.619          48.109    21492561.412   112944172.5330       1609.619          45.109    21492561.412   112944172.5330       1609.619          49.609    21492559.245    88008437.2540       1254.248          44.797    21492559.245    88008437.2540       1254.248          46.297    21492558.755    84341417.1110       1201.988          49.267  
G19  24531837.545   128915676.4060       3062.856          41.648    24531837.545   128915676.4060       3062.856          38.648    24531837.545   128915676.4060       3062.856          43.148    24531834.564   100453761.6180       2386.641          39.694    24531834.564   100453761.6180       2386.641          41.194    24531833.890    96268185.5720       2287.198          44.164  
G21  21814887.986   114638010.1100      -1611.127          47.884    21814887.986   114638010.1100      -1611.127          44.884    21814887.986   114638010.1100      -1611.127          49.384    21814885.999    89328311.4300      -1255.424          44.545    21814885.999    89328311.4300      -1255.424          46.045    21814885.550    85606296.6900      -1203.115          49.015  
G30  20602681.148   108267820.1790       1057.458          50.077    20602681.148   108267820.1790       1057.458          47.077    20602681.148   108267820.1790       1057.458          51.577    20602681.870    84364538.1630        823.993          48.053    20602681.870    84364538.1630        823.993          49.553    20602682.034    80849349.7140        789.660          52.523  
I02  37344465.477   146547704.0480        188.982          47.282  
I03  37285433.918   146316051.5290        -29.127          48.067  
I06  39789054.367   156140795.9450        -23.303          42.316  
I09  39789674.887   156143230.9990       -444.205          42.273  
J02  39425212.887   207180892.0770        927.510          45.173    39425212.887   207180892.0770        927.510          46.673    39425212.887   207180892.0770        927.510          45.173    39425212.998   154713004.2580        692.621          48.175    39425212.998   154713004.2580        692.621          48.175  
J03  39397961.219   207037683.5950       -527.089          46.298    39397961.219   207037683.5950       -527.089          47.798    39397961.219   207037683.5950       -527.089          46.298    39397961.108   154606061.9900       -393.605          49.756    39397961.108   154606061.9900       -393.605          49.756  
J07  37731182.728   198278703.5060         -4.043          45.508    37731182.728   198278703.5060         -4.043          47.008    37731182.728   198278703.5060         -4.043          45.508    37731181.399   148065260.3900         -3.019          48.288    37731181.399   148065260.3900         -3.019          48.288  
R11  23137339.930   123638929.4610      -2677.755          39.559  
R12  19955398.175   106598155.2000        -86.479          48.024  
R13  20825907.266   111209182.9030       2539.235          45.875  
R22  20543505.140   109662625.5660      -2679.190          46.383  
R23  19558844.323   104626628.5820       1907.343          48.168  
R24  22791050.221   121873987.8540       4212.614          40.519  
S22  38852183.721   204169603.4840         -0.004          41.330    38852183.721   152464314.2900         -0.003          42.378  
S23  40134871.478   210910173.1460         -1.530          39.072    40134871.478   157497856.5700         -1.143          40.079  
S26  37657049.138   197889128.8600          1.442          43.207    37657049.138   147774349.4740          1.077          44.421  
S27  38202816.250   200757154.3920        -10.982          42.334    38202816.250   149916056.8510         -8.201          43.517  
S28  36919467.761   194013112.5670         -8.455          44.744    36919467.761   144879921.7220         -6.314          46.409  
S30  38647923.214   203096207.2770         -0.376          41.654    38647923.214   151662752.1870         -0.281          42.857  
S32  36781489.287   193288030.7890         -2.432          45.264    36781489.287   144338464.5500         -1.816          46.726  
S34  36783460.434   193298389.2380          0.070          45.208    36783460.434   144346199.7560          0.052          46.694  
S37  37731774.078   198281811.0730         -4.500          43.107    37731774.078   148067586.1910         -3.361          44.287  
S43  36945773.433   194151349.8060         -4.851          44.609    36945773.433   144983150.8290         -3.622          46.319  
S44  37019350.302   194537998.8610         45.802          44.394    37019350.302   145271882.2660         34.203          46.153  
> 2023 01 08 10 50  0.0000000  0 66
C01  38720910.468   203479757.8860         33.878          38.943    38720910.468   201629941.9060         33.570          34.922    38720908.879   151949163.6150         25.299          42.559    38720908.879   155913054.8400         25.959          35.535  
C02  36967765.621   194266919.5300          6.397          42.303    36967765.621   192500856.6250          6.339          38.282    36967760.944   145069434.5430          4.777          46.740    36967760.944   148853854.5750          4.902          39.716  
C03  37051437.503   194706618.2410         36.343          42.022    37051437.503   192936558.0750         36.012          38.001    37051434.385   145397787.1010         27.139          46.482    37051434.385   149190772.8510         27.847          39.458  
C04  40355077.895   212067365.6740         26.157          36.609    40355077.895   210139480.5320         25.919          32.589    40355073.608   158361977.0250         19.533          40.456    40355073.608   162493159.0340         20.042          33.432  
C05  38003019.031   199707212.9230          5.075          40.307    38003019.031   197891692.8060          5.029          36.286    38003016.243   149131998.7090          3.790          44.165    38003016.243   153022398.6760          3.889          37.142  
C06  37993643.550   199657944.4340      -1569.471          40.189    37993643.550   197842872.2120      -1555.203          36.168    37993640.432   149095206.0110      -1172.008          44.061    37993640.432   152984646.1680      -1202.582          37.037  
C07  36294661.162   190729731.7240       -136.320          44.236    36294661.162   188995825.0720       -135.080          40.215    36294656.965   142428029.9470       -101.797          48.652    36294656.965   146143543.7720       -104.453          41.629  
C08  39971105.490   210049577.0680       1987.966          36.976    39971105.490   208140035.4580       1969.894          32.956    39971101.773   156855189.0670       1484.520          40.619    39971101.773   160947063.5640       1523.247          33.596  
C09  36837806.997   193583982.3550      -1306.251          41.832    36837806.997   191824127.9700      -1294.376          37.811    36837806.038   144559463.5780       -975.447          46.181    36837806.038   148330580.0190      -1000.894          39.158  
C10  36480244.521   191704978.8610        -43.788          44.263    36480244.521   189962206.3260        -43.389          40.242    36480243.592   143156311.7360        -32.698          48.797    36480243.592   146890824.2160        -33.551          41.774  
C13  40242421.919   211475354.5280       1747.797          36.497    40242421.919   209552851.3050       1731.908          32.476    40242425.517   157919921.7200       1305.173          40.401    40242425.517   162039571.8510       1339.221          33.378  
C16  38313365.681   201338095.5710      -1575.764          39.661    38313365.681   199507749.2480      -1561.439          35.641    38313367.809   150349884.9160      -1176.707          43.571    38313367.809   154272055.8270      -1207.404          36.547  
C23  25057560.524   131678369.3090      -2448.243          43.578    25057560.524   130481293.2240      -2425.987          39.557    25057560.524    98331249.8090      -1828.234          46.781    25057560.524   100896412.8470      -1875.927          39.757  
C27  21873735.058   114947253.5590       1303.304          48.830    21873735.058   113902278.5270       1291.455          44.809    21873735.058    85837234.8010        973.246          52.990    21873735.058    88076467.0130        998.635          45.966  
C28  22323288.641   117309673.5820      -1636.868          48.714    22323288.641   116243222.0040      -1621.988          44.693    22323288.641    87601379.6230      -1222.337          51.448    22323288.641    89886633.0040      -1254.224          44.424  
C30  25439579.111   133685890.5360       3064.069          41.974    25439579.111   132470564.2580       3036.213          37.953    25439579.111    99830372.8020       2288.103          45.594    25439579.111   102434643.3970       2347.793          38.570  
C37  22048216.782   115864161.2060       -397.446          48.938    22048216.782   114810850.6490       -393.833          44.918    22048216.782    86521938.5630       -296.794          53.476    22048216.782    88779032.6120       -304.536          46.452  
C38  39268375.865   206356707.9650       1938.211          38.522    39268375.865   204480737.8930       1920.590          34.501    39268375.865   154097541.6630       1447.365          41.847    39268375.865   158117477.5320       1485.122          34.823  
C39  39288950.704   206464829.4740      -1650.574          38.281    39288950.704   204587876.4790      -1635.569          34.260    39288950.704   154178281.7500      -1232.572          41.483    39288950.704   158200323.8830      -1264.726          34.460  
C40  36839158.435   193591084.2080       -317.046          42.830    36839158.435   191831165.2610       -314.164          38.810    36839158.435   144564770.6750       -236.755          47.074    36839158.435   148336025.5620       -242.932          40.050  
C46  23311591.857   122503242.0380       2284.387          46.394    23311591.857   121389576.2010       2263.620          42.373    23311591.857    91479693.7290       1705.874          49.409    23311591.857    93866120.5220       1750.375          42.386  
C59  38646343.020   203087903.3010          1.019          39.456    38646343.020   201241649.6350          1.010          35.435    38646343.020   151656551.1670          0.761          43.360    38646343.020   155612809.0230          0.781          36.336  
C60  37015989.478   194520337.6090         44.973          42.201    37015989.478   192751970.9030         44.565          38.180    37015989.478   145258693.6690         33.584          46.659    37015989.478   149048050.8950         34.460          39.635  
E01  25748706.833   135310367.6790      -1130.231          46.536    25748706.959   101043456.8750       -844.004          49.318    25748706.833   103679372.6380       -866.021          49.294  
E04  27626094.288   145176105.3440      -2489.964          42.430    27626092.786   108410722.1220      -1859.389          45.847    27626094.288   111238833.9650      -1907.895          45.823  
E05  27766041.267   145911531.6810         58.023          42.207    27766043.395   108959918.3720         43.329          45.702    27766041.267   111802342.4570         44.459          45.679  
E09  26765071.436   140651399.7170      -1822.076          44.864    26765072.688   105031894.3110      -1360.641          47.445    26765071.436   107771851.7310      -1396.136          47.421  
E10  27575953.240   144912612.3550       3136.181          42.892    27575953.615   108213965.2450       2341.954          46.095    27575953.240   111036936.7390       2403.048          46.071  
E12  25593693.652   134495767.9130       2814.410          46.644    25593688.144   100435129.7500       2101.670          49.374    25593693.652   103055198.7900       2156.496          49.350  
E24  26666235.048   140132010.9920       1717.882          45.162    26666233.922   104644029.7620       1282.834          47.874    26666235.048   107373878.5530       1316.299          47.850  
E26  26873614.450   141221797.1040      -1882.756          45.267    26873612.072   105457826.1670      -1405.954          48.040    26873614.450   108208909.4690      -1442.632          48.016  
E31  24102557.070   126659792.2870        590.479          49.992    24102559.824    94583621.9300        440.942          52.433    24102557.070    97051009.6750        452.445          52.409  
E33  24085317.804   126569199.3300        537.312          49.970    24085315.926    94515953.1700        401.239          52.405    24085317.804    96981594.2920        411.706          52.381  
G01  20815458.764   109385974.0980        916.386          49.441    20815458.764   109385974.0980        916.386          46.441    20815458.764   109385974.0980        916.386          50.941    20815459.667    85235827.6710        714.067          45.865    20815459.667    85235827.6710        714.067          47.365    20815459.871    81684335.6530        684.314          50.335  
G07  20401904.694   107212732.7930      -1400.941          50.225    20401904.694   107212732.7930      -1400.941          47.225    20401904.694   107212732.7930      -1400.941          51.725    20401902.526    83542380.3130      -1091.642          47.316    20401902.526    83542380.3130      -1091.642          48.816    20401902.036    80061445.8770      -1046.157          51.785  
G08  24071084.000   126494400.1860      -3170.603          42.875    24071084.000   126494400.1860      -3170.603          39.875    24071084.000   126494400.1860      -3170.603          44.375    24071084.993    98567069.1480      -2470.600          40.289    24071084.993    98567069.1480      -2470.600          41.789    24071085.218    94460108.8150      -2367.658          44.758  
G13  23867584.343   125425002.2700        853.429          42.685    23867584.343   125425002.2700        853.429          39.685    23867584.343   125425002.2700        853.429          44.185    23867582.085    97733758.7570        665.009          40.230    23867582.085    97733758.7570        665.009          41.730    23867581.574    93661516.8050        637.301          44.700  
G14  21642783.701   113733595.9860       1534.425          48.244    21642783.701   113733595.9860       1534.425          45.244    21642783.701   113733595.9860       1534.425          49.744    21642782.165    88623575.0010       1195.656          44.950    21642782.165    88623575.0010       1195.656          46.450    21642781.818    84930924.6800       1145.837          49.420  
G17  21404206.452   112479864.0800       1485.857          48.281    21404206.452   112479864.0800       1485.857          45.281    21404206.452   112479864.0800       1485.857          49.781    21404204.284    87646638.4590       1157.810          44.996    21404204.284    87646638.4590       1157.810          46.496    21404203.794    83994693.2660       1109.568          49.465  
G19  24358620.595   128005415.1920       3004.963          42.130    24358620.595   128005415.1920       3004.963          39.130    24358620.595   128005415.1920       3004.963          43.630    24358617.615    99744467.1660       2341.530          39.921    24358617.615    99744467.1660       2341.530          41.421    24358616.941    95588445.0560       2243.966          44.390  
G21  21911803.801   115147306.1540      -1783.173          47.754    21911803.801   115147306.1540      -1783.173          44.754    21911803.801   115147306.1540      -1783.173          49.254    21911801.814    89725165.4900      -1389.485          44.412    21911801.814    89725165.4900      -1389.485          45.912    21911801.364    85986615.1640      -1331.590          48.881  
G30  20547218.799   107976363.5670        884.685          50.122    20547218.799   107976363.5670        884.685          47.122    20547218.799   107976363.5670        884.685          51.622    20547219.521    84137429.1150        689.365          48.230    20547219.521    84137429.1150        689.365          49.730    20547219.684    80631703.5430        660.641          52.700  
I02  37330007.584   146490968.1670        189.255          47.319  
I03  37287604.842   146324570.7030        -27.665          48.060  
I06  39790870.464   156147922.6990        -24.207          42.314  
I09  39823072.619   156274290.8700       -429.467          42.244  
J02  39371965.858   206901077.0510        937.740          45.185    39371965.858   206901077.0510        937.740          46.685    39371965.858   206901077.0510        937.740          45.185    39371965.969   154504051.4790        700.261          48.180    39371965.969   154504051.4790        700.261          48.180  
J03  39428173.646   207196450.9690       -531.218          46.326    39428173.646   207196450.9690       -531.218          47.826    39428173.646   207196450.9690       -531.218          46.326    39428173.535   154724622.0420       -396.689          49.776    39428173.535   154724622.0420       -396.689          49.776  
J07  37731411.875   198279907.6810         -3.984          45.508    37731411.875   198279907.6810         -3.984          47.008    37731411.875   198279907.6810         -3.984          45.508    37731410.546   148066159.6110         -2.975          48.288    37731410.546   148066159.6110         -2.975          48.288  
R11  23290457.374   124457142.6590      -2776.710          39.082  
R12  19964146.535   106644887.3680       -226.093          47.990  
R13  20684712.449   110455210.4560       2485.739          46.135  
R22  20699295.144   110494243.1860      -2862.761          46.108  
R23  19458783.533   104091370.8260       1660.115          48.098  
R24  22556945.461   120622124.4950       4131.222          41.255  
S22  38852183.989   204169604.8920         -0.005          41.330    38852183.989   152464315.3410         -0.004          42.378  
S23  40134957.798   210910626.7590         -1.494          39.072    40134957.798   157498195.3070         -1.116          40.079  
S26  37656968.133   197888703.1770          1.396          43.207    37656968.133   147774031.5930          1.042          44.422  
S27  38203444.963   200760458.3020        -11.155          42.334    38203444.963   149918524.0570         -8.330          43.517  
S28  36919942.508   194015607.3780         -8.443          44.744    36919942.508   144881784.7300         -6.305          46.409  
S30  38647927.624   203096230.4490          0.222          41.654    38647927.624   151662769.4910          0.165          42.857  
S32  36781627.667   193288757.9830         -2.416          45.264    36781627.667   144339007.5850         -1.804          46.726  
S34  36783456.549   193298368.8220          0.066          45.208    36783456.549   144346184.5100          0.049          46.694  
S37  37732030.003   198283155.9650         -4.465          43.107    37732030.003   148068590.4930         -3.334          44.286  
S43  36946064.177   194152877.6760         -5.335          44.611    36946064.177   144984291.7710         -3.984          46.320  
S44  37016729.869   194524228.3940         45.998          44.401    37016729.869   145261599.1250         34.349          46.159  
> 2023 01 08 10 55  0.0000000  0 66
C01  38718961.995   203469518.5910         34.381          38.945    38718961.995   201619795.6940         34.068          34.925    38718960.406   151941517.3880         25.674          42.564    38718960.406   155905209.1460         26.344          35.540  
C02  36967386.484   194264927.1540          6.885          42.304    36967386.484   192498882.3620          6.822          38.283    36967381.807   145067946.7300          5.141          46.740    36967381.807   148852327.9490          5.275          39.716  
C03  37049347.215   194695633.7030         36.885          42.026    37049347.215   192925673.3970         36.549          38.005    37049344.097   145389584.3620         27.544          46.486    37049344.097   149182356.1280         28.262          39.463  
C04  40353584.309   212059516.8280         26.166          36.612    40353584.309   210131703.0380         25.928          32.591    40353580.022   158356115.8730         19.540          40.457    40353580.022   162487144.9820         20.049          33.433  
C05  38002704.304   199705559.0170          5.950          40.306    38002704.304   197890053.9350          5.896          36.286    38002701.515   149130763.6490          4.444          44.165    38002701.515   153021131.3970          4.559          37.141  
C06  38083906.571   200132279.8100      -1592.478          40.046    38083906.571   198312895.4480      -1578.001          36.025    38083903.453   149449417.4930      -1189.188          43.938    38083903.453   153348097.9500      -1220.210          36.914  
C07  36302045.473   190768536.5440       -122.321          44.223    36302045.473   189034277.1210       -121.209          40.202    36302041.276   142457007.5720        -91.344          48.620    36302041.276   146173277.3350        -93.726          41.597  
C08  39857187.578   209450934.3970       2002.578          37.216    39857187.578   207546834.9940       1984.373          33.196    39857183.860   156408150.7090       1495.432          40.727    39857183.860   160488363.3360       1534.443          33.703  
C09  36913497.591   193981739.1110      -1345.239          41.685    36913497.591   192218268.7550      -1333.010          37.665    36913496.632   144856489.7270      -1004.562          45.951    36913496.632   148635354.6770      -1030.768          38.927  
C10  36482323.355   191715903.2070        -28.960          44.254    36482323.355   189973031.3590        -28.697          40.233    36482322.426   143164469.5270        -21.626          48.776    36482322.426   146899194.8190        -22.190          41.752  
C13  40142057.069   210947933.6790       1767.974          36.716    40142057.069   209030225.1910       1751.901          32.696    40142060.666   157526068.4880       1320.240          40.509    40142060.666   161635444.1880       1354.681          33.486  
C16  38403922.749   201813976.1760      -1596.469          39.516    38403922.749   199979303.6650      -1581.956          35.495    38403924.877   150705250.3020      -1192.169          43.406    38403924.877   154636691.6150      -1223.269          36.383  
C23  25199332.356   132423385.3170      -2518.180          43.272    25199332.356   131219536.3600      -2495.288          39.251    25199332.356    98887592.9320      -1880.459          46.425    25199332.356   101467269.2690      -1929.515          39.401  
C27  21803392.771   114577602.3480       1160.870          48.853    21803392.771   113535987.7810       1150.317          44.832    21803392.771    85561196.5580        866.884          53.265    21803392.771    87793227.7730        889.498          46.241  
C28  22420024.687   117818024.9380      -1751.080          48.410    22420024.687   116746951.9840      -1735.161          44.390    22420024.687    87980992.6480      -1307.625          51.201    22420024.687    90276148.9780      -1341.737          44.177  
C30  25266231.571   132774943.0610       3008.120          42.433    25266231.571   131567898.1240       2980.773          38.412    25266231.571    99150119.8180       2246.323          45.815    25266231.571   101736644.6830       2304.923          38.792  
C37  22074176.419   116000580.0230       -512.427          48.891    22074176.419   114946029.2960       -507.769          44.870    22074176.419    86623809.7580       -382.657          53.387    22074176.419    88883561.3170       -392.639          46.364  
C38  39157730.983   205775265.1840       1937.690          38.697    39157730.983   203904580.9550       1920.074          34.677    39157730.983   153663347.3780       1446.976          42.138    39157730.983   157671956.4400       1484.723          35.115  
C39  39383398.622   206961156.6340      -1657.943          38.120    39383398.622   205079691.5740      -1642.871          34.099    39383398.622   154548915.6680      -1238.074          41.307    39383398.622   158580626.5120      -1270.372          34.284  
C40  36856666.855   193683091.5740       -296.243          42.755    36856666.855   191922336.1960       -293.550          38.734    36856666.855   144633477.4740       -221.220          47.028    36856666.855   148406524.7120       -226.991          40.004  
C46  23182479.941   121824754.3390       2237.905          46.609    23182479.941   120717256.5720       2217.560          42.588    23182479.941    90973030.8370       1671.163          49.627    23182479.941    93346240.3370       1714.758          42.603  
C59  38646267.333   203087505.5610          1.632          39.456    38646267.333   201241255.5100          1.617          35.435    38646267.333   151656254.1530          1.219          43.360    38646267.333   155612504.2610          1.251          36.336  
C60  37013416.998   194506819.1370         45.146          42.208    37013416.998   192738575.3270         44.736          38.187    37013416.998   145248598.7070         33.713          46.666    37013416.998   149037692.5860         34.593          39.642  
E01  25814178.518   135654423.7050      -1163.829          46.423    25814178.643   101300381.8290       -869.093          49.257    25814178.518   103942999.9820       -891.765          49.233  
E04  27767092.200   145917054.3700      -2448.743          42.101    27767090.698   108964028.2130      -1828.607          45.627    27767092.200   111806574.1280      -1876.310          45.603  
E05  27766274.500   145912757.3280        -65.943          42.205    27766276.628   108960833.6280        -49.243          45.701    27766274.500   111803281.5890        -50.528          45.678  
E09  26870925.622   141207667.2160      -1885.271          44.666    26870926.874   105447288.8720      -1407.832          47.196    26870925.622   108198082.6720      -1444.558          47.172  
E10  27397086.311   143972660.3020       3129.162          43.320    27397086.687   107512052.9980       2336.712          46.294    27397086.311   110316713.7380       2397.669          46.270  
E12  25434738.936   133660455.2440       2753.297          46.915    25434733.429    99811357.3030       2056.033          49.508    25434738.936   102415154.0180       2109.669          49.484  
E24  26567789.023   139614673.6380       1730.957          45.334    26567787.896   104257706.4120       1292.598          48.136    26567789.023   106977477.2030       1326.318          48.112  
E26  26984088.369   141802341.4680      -1986.671          45.074    26984085.991   105891349.5550      -1483.553          47.748    26984088.369   108653742.1630      -1522.255          47.725  
E31  24069402.225   126485562.3980        570.667          50.019    24069404.979    94453515.1950        426.147          52.537    24069402.225    96917508.8510        437.264          52.513  
E33  24058789.143   126429790.2800        391.911          49.996    24058787.266    94411849.0100        292.661          52.489    24058789.143    96874774.3700        300.295          52.465  
G01  20769264.126   109143219.6390        701.241          49.596    20769264.126   109143219.6390        701.241          46.596    20769264.126   109143219.6390        701.241          51.096    20769265.029    85046668.3520        546.422          45.948    20769265.029    85046668.3520        546.422          47.448    20769265.234    81503057.9720        523.654          50.417  
G07  20486966.304   107659734.5720      -1578.612          50.295    20486966.304   107659734.5720      -1578.612          47.295    20486966.304   107659734.5720      -1578.612          51.795    20486964.137    83890693.3880      -1230.088          46.901    20486964.137    83890693.3880      -1230.088          48.401    20486963.646    80395245.9060      -1178.834          51.371  
G08  24251737.686   127443741.7130      -3157.558          42.369    24251737.686   127443741.7130      -3157.558          39.369    24251737.686   127443741.7130      -3157.558          43.869    24251738.679    99306815.7920      -2460.435          40.063    24251738.679    99306815.7920      -2460.435          41.563    24251738.904    95169032.6830      -2357.917          44.532  
G13  23823879.540   125195331.9830        677.603          42.837    23823879.540   125195331.9830        677.603          39.837    23823879.540   125195331.9830        677.603          44.337    23823877.282    97554794.8970        528.002          40.296    23823877.282    97554794.8970        528.002          41.796    23823876.772    93490009.7720        506.002          44.766  
G14  21556033.396   113277720.0580       1504.389          48.395    21556033.396   113277720.0580       1504.389          45.395    21556033.396   113277720.0580       1504.389          49.895    21556031.861    88268347.0050       1172.251          45.116    21556031.861    88268347.0050       1172.251          46.616    21556031.513    84590497.8500       1123.407          49.585  
G17  21322897.684   112052583.6230       1362.843          48.453    21322897.684   112052583.6230       1362.843          45.453    21322897.684   112052583.6230       1362.843          49.953    21322895.517    87313692.6490       1061.956          45.177    21322895.517    87313692.6490       1061.956          46.677    21322895.026    83675620.1980       1017.707          49.647  
G19  24188807.124   127113039.3800       2943.662          42.610    24188807.124   127113039.3800       2943.662          39.610    24188807.124   127113039.3800       2943.662          44.110    24188804.144    99049109.3910       2293.763          40.131    24188804.144    99049109.3910       2293.763          41.631    24188803.470    94922060.5210       2198.190          44.601  
G21  22018363.190   115707279.5250      -1948.878          47.604    22018363.190   115707279.5250      -1948.878          44.604    22018363.190   115707279.5250      -1948.878          49.104    22018361.203    90161508.3770      -1518.606          44.272    22018361.203    90161508.3770      -1518.606          45.772    22018360.754    86404777.0980      -1455.331          48.742  
G30  20501768.296   107737519.5650        706.810          50.195    20501768.296   107737519.5650        706.810          47.195    20501768.296   107737519.5650        706.810          51.695    20501769.019    83951316.9050        550.761          48.371    20501769.019    83951316.9050        550.761          49.871    20501769.182    80453346.0090        527.813          52.841  
I02  37315529.371   146434152.5510        189.512          47.356  
I03  37289663.336   146332648.6740        -26.185          48.052  
I06  39792755.163   156155318.6610        -25.098          42.312  
I09  39855330.201   156400876.5520       -414.380          42.215  
J02  39318166.410   206618359.0460        946.859          45.196    39318166.410   206618359.0460        946.859          46.696    39318166.410   206618359.0460        946.859          45.196    39318166.521   154292930.8910        707.070          48.184    39318166.521   154292930.8910        707.070          48.184  
J03  39458597.292   207356328.3080       -534.486          46.352    39458597.292   207356328.3080       -534.486          47.852    39458597.292   207356328.3080       -534.486          46.352    39458597.181   154844010.9650       -399.129          49.792    39458597.181   154844010.9650       -399.129          49.792  
J07  37731637.612   198281093.9370         -3.924          45.508    37731637.612   198281093.9370         -3.924          47.008    37731637.612   198281093.9370         -3.924          45.508    37731636.283   148067045.4520         -2.930          48.288    37731636.283   148067045.4520         -2.930          48.288  
R11  23449076.767   125304756.6040      -2873.677          38.606  
R12  19980904.386   106734404.8000       -371.645          47.928  
R13  20546781.175   109718665.1480       2422.988          46.381  
R22  20865033.350   111378964.9860      -3033.161          45.804  
R23  19372731.427   103631050.0830       1407.985          48.153  
R24  22327728.634   119396399.1140       4038.389          41.944  
S22  38852184.315   204169606.6070         -0.006          41.330    38852184.315   152464316.6220         -0.005          42.378  
S23  40135042.035   210911069.4260         -1.457          39.072    40135042.035   157498525.8700         -1.088          40.079  
S26  37656889.764   197888291.3440          1.350          43.207    37656889.764   147773724.0560          1.008          44.422  
S27  38204083.421   200763813.4220        -11.323          42.334    38204083.421   149921029.5040         -8.456          43.517  
S28  36920416.445   194018097.9350         -8.427          44.744    36920416.445   144883644.5620         -6.293          46.408  
S30  38647897.902   203096074.2590          0.820          41.654    38647897.902   151662652.8560          0.612          42.857  
S32  36781765.083   193289480.1060         -2.398          45.264    36781765.083   144339546.8330         -1.791          46.726  
S34  36783452.901   193298349.6520          0.062          45.208    36783452.901   144346170.1950          0.046          46.694  
S37  37732283.861   198284490.0000         -4.428          43.107    37732283.861   148069586.6890         -3.307          44.286  
S43  36946382.468   194154550.3070         -5.816          44.613    36946382.468   144985540.8140         -4.343          46.321  
S44  37014098.902   194510402.5650         46.171          44.408    37014098.902   145251274.6430         34.478          46.166  
> 2023 01 08 11 00  0.0000000  0 64
C01  38716985.334   203459131.1670         34.866          38.948    38716985.334   201609502.7020         34.549          34.928    38716983.745   151933760.5460         26.036          42.568    38716983.745   155897249.9510         26.715          35.545  
C02  36966979.589   194262788.9040          7.370          42.304    36966979.589   192496763.5500          7.303          38.284    36966974.912   145066349.9850          5.503          46.741    36966974.912   148850689.5490          5.647          39.717  
C03  37047226.525   194684489.4030         37.408          42.030    37047226.525   192914630.4090         37.068          38.009    37047223.408   145381262.3190         27.934          46.491    37047223.408   149173816.9880         28.663          39.467  
C04  40352090.585   212051667.2560         26.162          36.615    40352090.585   210123924.8270         25.924          32.594    40352086.298   158350254.1800         19.537          40.458    40352086.298   162481130.3760         20.046          33.435  
C05  38002339.681   199703642.9110          6.823          40.306    38002339.681   197888155.2480          6.761          36.285    38002336.893   149129332.7910          5.095          44.164    38002336.893   153019663.2120          5.228          37.141  
C06  38175433.368   200613256.3750      -1613.738          39.902    38175433.368   198789499.4990      -1599.067          35.881    38175430.250   149808588.3050      -1205.064          43.809    38175430.250   153716638.4350      -1236.500          36.785  
C07  36308621.213   190803092.2900       -108.002          44.212    36308621.213   189068518.7240       -107.021          40.191    36308617.016   142482812.1880        -80.651          48.591    36308617.016   146199755.1150        -82.755          41.568  
C08  39742505.345   208848275.1960       2014.740          37.453    39742505.345   206949654.5120       1996.424          33.432    39742501.627   155958112.9930       1504.514          40.840    39742501.627   160026585.5060       1543.762          33.816  
C09  36991375.320   194390989.3360      -1382.861          41.545    36991375.320   192623798.5240      -1370.290          37.524    36991374.360   145162098.6620      -1032.656          45.714    36991374.360   148948936.0180      -1059.595          38.690  
C10  36483542.330   191722308.9640        -13.673          44.246    36483542.330   189979378.8820        -13.549          40.225    36483541.401   143169253.0470        -10.210          48.756    36483541.401   146904103.1260        -10.477          41.733  
C13  40040603.663   210414792.4340       1785.928          36.938    40040603.663   208501930.6840       1769.693          32.917    40040607.261   157127943.5320       1333.648          40.609    40040607.261   161226933.3630       1368.439          33.585  
C16  38495609.341   202295792.4710      -1615.328          39.371    38495609.341   200456739.8120      -1600.643          35.350    38495611.469   151065048.1850      -1206.252          43.213    38495611.469   155005875.5290      -1237.719          36.189  
C23  25345034.354   133189054.4810      -2585.887          42.938    25345034.354   131978244.8940      -2562.379          38.917    25345034.354    99459358.8650      -1931.019          46.124    25345034.354   102053950.8360      -1981.394          39.100  
C27  21741205.402   114250805.5170       1017.695          48.942    21741205.402   113212161.8310       1008.444          44.922    21741205.402    85317159.9640        759.967          53.479    21741205.402    87542825.0070        779.793          46.455  
C28  22523097.571   118359676.6000      -1858.843          48.035    22523097.571   117283679.5400      -1841.944          44.015    22523097.571    88385472.7860      -1388.097          50.958    22523097.571    90691180.7720      -1424.308          43.934  
C30  25096212.342   131881485.9830       2947.499          42.862    25096212.342   130682563.3840       2920.704          38.841    25096212.342    98482927.8450       2201.055          46.074    25096212.342   101052047.7020       2258.474          39.051  
C37  22106767.965   116171849.7530       -629.730          48.850    22106767.965   115115742.0280       -624.005          44.829    22106767.965    86751705.9850       -470.253          53.275    22106767.965    89014793.9670       -482.520          46.252  
C38  39047181.765   205194325.1210       1934.859          38.870    39047181.765   203328922.1660       1917.270          34.849    39047181.765   153229528.5000       1444.863          42.440    39047181.765   157226820.5480       1482.555          35.416  
C39  39478210.406   207459395.9200      -1663.319          37.951    39478210.406   205573401.4110      -1648.197          33.931    39478210.406   154920977.4730      -1242.089          41.160    39478210.406   158962394.2760      -1274.491          34.136  
C40  36872972.371   193768777.6400       -274.917          42.684    36872972.371   192007243.2980       -272.418          38.663    36872972.371   144697463.8220       -205.295          46.985    36872972.371   148472180.2690       -210.651          39.961  
C46  23056187.438   121161082.7560       2185.588          46.817    23056187.438   120059618.3670       2165.719          42.797    23056187.438    90477431.9280       1632.095          49.875    23056187.438    92837712.7610       1674.671          42.852  
C59  38646156.699   203086924.1790          2.244          39.456    38646156.699   201240679.4130          2.223          35.435    38646156.699   151655820.0040          1.675          43.360    38646156.699   155612058.7860          1.719          36.336  
C60  37010835.258   194493252.0040         45.298          42.216    37010835.258   192725131.5320         44.886          38.195    37010835.258   145238467.4060         33.826          46.672    37010835.258   149027296.9900         34.709          39.649  
E01  25881628.388   136008875.1650      -1199.528          46.305    25881628.514   101565069.6080       -895.752          49.187    25881628.388   104214592.6590       -919.119          49.163  
E05  27773537.656   145950925.4680       -188.189          42.188    27773539.784   108989335.8100       -140.531          45.689    27773537.656   111832527.3070       -144.197          45.665  
E09  26980197.505   141781894.8360      -1941.793          44.454    26980198.756   105876095.2120      -1450.040          46.973    26980197.505   108638075.2640      -1487.867          46.949  
E10  27218792.261   143035718.7430       3116.109          43.734    27218792.637   106812388.8470       2326.965          46.491    27218792.261   109598797.4790       2387.668          46.467  
E12  25279450.720   132844410.1600       2685.982          47.179    25279445.212    99201972.9870       2005.766          49.656    25279450.720   101789872.7200       2058.090          49.633  
E24  26468611.581   139093492.6640       1743.473          45.504    26468610.455   103868512.8290       1301.944          48.391    26468611.581   106578130.7430       1335.908          48.367  
E26  27100343.926   142413268.5440      -2085.274          44.867    27100341.548   106347561.3330      -1557.185          47.451    27100343.926   109121855.1180      -1597.807          47.427  
E31  24037446.228   126317632.5020        548.451          50.028    24037448.982    94328113.0000        409.558          52.644    24037446.228    96788835.2940        420.242          52.620  
E33  24040585.502   126334129.5010        245.743          50.010    24040583.625    94340414.0120        183.510          52.549    24040585.502    96801475.8510        188.297          52.525  
G01  20735467.972   108965619.6500        482.195          49.708    20735467.972   108965619.6500        482.195          46.708    20735467.972   108965619.6500        482.195          51.208    20735468.875    84908278.7500        375.736          46.010    20735468.875    84908278.7500        375.736          47.510    20735469.079    81370434.6040        360.081          50.480  
G07  20582085.037   108159586.8850      -1753.151          50.279    20582085.037   108159586.8850      -1753.151          47.279    20582085.037   108159586.8850      -1753.151          51.779    20582082.869    84280188.6970      -1366.092          46.527    20582082.869    84280188.6970      -1366.092          48.027    20582082.379    80768512.2440      -1309.171          50.997  
G08  24431516.159   128388483.9690      -3140.003          41.869    24431516.159   128388483.9690      -3140.003          38.869    24431516.159   128388483.9690      -3140.003          43.369    24431517.153   100042978.5890      -2446.755          39.838    24431517.153   100042978.5890      -2446.755          41.338    24431517.378    95874522.0300      -2344.807          44.308  
G13  23790222.497   125018463.0250        501.553          42.958    23790222.497   125018463.0250        501.553          39.958    23790222.497   125018463.0250        501.553          44.458    23790220.239    97416974.9290        390.820          40.352    23790220.239    97416974.9290        390.820          41.852    23790219.728    93357932.3030        374.536          44.821  
G14  21471061.880   112831191.7260       1472.062          48.553    21471061.880   112831191.7260       1472.062          45.553    21471061.880   112831191.7260       1472.062          50.053    21471060.344    87920402.8500       1147.062          45.272    21471060.344    87920402.8500       1147.062          46.772    21471059.997    84257051.3690       1099.267          49.742  
G17  21248579.273   111662037.7370       1241.034          48.629    21248579.273   111662037.7370       1241.034          45.629    21248579.273   111662037.7370       1241.034          50.129    21248577.106    87009371.1790        967.040          45.334    21248577.106    87009371.1790        967.040          46.834    21248576.615    83383978.7900        926.746          49.804  
G19  24022584.322   126239532.6600       2879.213          43.073    24022584.322   126239532.6600       2879.213          40.073    24022584.322   126239532.6600       2879.213          44.573    24022581.342    98368454.8030       2243.542          40.349    24022581.342    98368454.8030       2243.542          41.849    24022580.668    94269766.5410       2150.061          44.819  
G21  22134188.070   116315943.3730      -2107.689          47.430    22134188.070   116315943.3730      -2107.689          44.430    22134188.070   116315943.3730      -2107.689          48.930    22134186.083    90635791.8950      -1642.355          44.138    22134186.083    90635791.8950      -1642.355          45.638    22134185.633    86859298.8030      -1573.923          48.608  
G30  20466602.684   107552723.0240        524.481          50.272    20466602.684   107552723.0240        524.481          47.272    20466602.684   107552723.0240        524.481          51.772    20466603.406    83807319.6010        408.686          48.478    20466603.406    83807319.6010        408.686          49.978    20466603.570    80315348.5920        391.658          52.947  
I02  37301032.621   146377264.1920        189.738          47.394  
I03  37291608.075   146340280.2490        -24.689          48.044  
I06  39794707.484   156162979.9910        -25.976          42.310  
I09  39886421.624   156522885.9760       -398.962          42.187  
J02  39263878.622   206333074.7940        954.845          45.207    39263878.622   206333074.7940        954.845          46.707    39263878.622   206333074.7940        954.845          45.207    39263878.733   154079893.9490        713.033          48.188    39263878.733   154079893.9490        713.033          48.188  
J03  39489182.619   207517055.2890       -536.880          46.375    39489182.619   207517055.2890       -536.880          47.875    39489182.619   207517055.2890       -536.880          46.375    39489182.508   154964034.3590       -400.917          49.806    39489182.508   154964034.3590       -400.917          49.806  
J07  37731859.843   198282261.7720         -3.862          45.508    37731859.843   198282261.7720         -3.862          47.008    37731859.843   198282261.7720         -3.862          45.508    37731858.515   148067917.5370         -2.884          48.288    37731858.515   148067917.5370         -2.884          48.288  
R12  20005993.161   106868424.5340       -522.696          47.831  
R13  20412644.115   109002380.7320       2350.608          46.627  
R22  21039970.802   112312792.9830      -3190.096          45.452  
R23  19300925.085   103246934.5780       1152.309          48.336  
R24  22104036.334   118200215.8580       3934.312          42.597  
S22  38852184.700   204169608.6320         -0.007          41.330    38852184.700   152464318.1340         -0.005          42.378  
S23  40135124.161   210911501.0040         -1.420          39.072    40135124.161   157498848.1520         -1.060          40.079  
S26  37656814.058   197887893.5090          1.303          43.207    37656814.058   147773426.9710          0.973          44.422  
S27  38204731.324   200767218.1770        -11.486          42.334    38204731.324   149923572.0150         -8.577          43.517  
S28  36920889.347   194020583.0520         -8.407          44.743    36920889.347   144885500.3310         -6.278          46.408  
S30  38647834.037   203095738.6460          1.418          41.654    38647834.037   151662402.2360          1.059          42.857  
S32  36781901.468   193290196.8140         -2.380          45.264    36781901.468   144340082.0370         -1.777          46.726  
S34  36783449.492   193298331.7360          0.058          45.208    36783449.492   144346156.8160          0.043          46.694  
S37  37732535.532   198285812.5380         -4.389          43.107    37732535.532   148070574.2980         -3.277          44.286  
S43  36946728.124   194156366.7400         -6.293          44.614    36946728.124   144986897.2410         -4.700          46.322  
S44  37011458.678   194496528.0950         46.322          44.416    37011458.678   145240913.8370         34.591          46.172  
> 2023 01 08 11 05  0.0000000  0 64
C01  38714981.535   203448601.1310         35.332          38.951    38714981.535   201599068.3940         35.011          34.930    38714979.946   151925897.2070         26.384          42.573    38714979.946   155889181.4820         27.073          35.550  
C02  36966545.499   194260507.7460          7.851          42.305    36966545.499   192494503.1300          7.779          38.285    36966540.822   145064646.5220          5.863          46.741    36966540.822   148848941.6490          6.015          39.718  
C03  37045076.505   194673190.9680         37.911          42.034    37045076.505   192903434.6860         37.567          38.013    37045073.387   145372825.1760         28.310          46.496    37045073.387   149165159.7460         29.049          39.472  
C04  40350597.805   212043822.6440         26.144          36.617    40350597.805   210116151.5290         25.906          32.597    40350593.518   158344396.1900         19.523          40.460    40350593.518   162475119.5690         20.032          33.436  
C05  38001925.447   199701466.0960          7.692          40.306    38001925.447   197885998.2220          7.622          36.285    38001922.659   149127707.2480          5.744          44.164    38001922.659   153017995.2630          5.894          37.141  
C06  38268122.931   201100343.3160      -1633.206          39.756    38268122.931   199272158.3760      -1618.359          35.735    38268119.813   150172322.0590      -1219.602          43.671    38268119.813   154089860.8950      -1251.418          36.647  
C07  36314371.826   190833311.9640        -93.424          44.202    36314371.826   189098463.6730        -92.574          40.181    36314367.629   142505378.8270        -69.764          48.565    36314367.629   146222910.4490        -71.584          41.542  
C08  39627199.204   208242337.3350       2024.433          37.682    39627199.204   206349225.1780       2006.029          33.662    39627195.486   155505626.9290       1511.752          40.968    39627195.486   159562295.4570       1551.189          33.944  
C09  37071359.981   194811311.5690      -1419.040          41.407    37071359.981   193040299.6450      -1406.140          37.387    37071359.022   145475975.6530      -1059.673          45.477    37071359.022   149271001.1050      -1087.317          38.453  
C10  36483876.839   191724066.8190          2.016          44.239    36483876.839   189981120.7570          1.998          40.218    36483875.909   143170565.7310          1.506          48.739    36483875.909   146905450.0540          1.545          41.715  
C13  39938189.280   209876601.2160       1801.637          37.161    39938189.280   207968632.1140       1785.258          33.140    39938192.877   156726047.4930       1345.378          40.708    39938192.877   160814553.0800       1380.475          33.684  
C16  38588318.844   202782984.1960      -1632.299          39.227    38588318.844   200939502.5210      -1617.460          35.207    38588320.972   151428860.1870      -1218.924          42.989    38588320.972   155379178.2790      -1250.722          35.965  
C23  25494531.700   133974668.3380      -2651.102          42.565    25494531.700   132756716.8080      -2627.001          38.544    25494531.700   100046018.5640      -1979.719          45.885    25494531.700   102655914.7010      -2031.364          38.861  
C27  21687200.297   113967006.7760        874.304          49.074    21687200.297   112930943.0780        866.356          45.053    21687200.297    85105232.3330        652.889          53.668    21687200.297    87325368.8290        669.921          46.644  
C28  22632134.740   118932670.7880      -1960.010          47.656    22632134.740   117851464.6900      -1942.191          43.635    22632134.740    88813358.0560      -1463.643          50.716    22632134.740    91130228.2660      -1501.826          43.693  
C30  24929782.178   131006889.5680       2882.418          43.249    24929782.178   129815917.8440       2856.215          39.228    24929782.178    97829820.1320       2152.455          46.402    24929782.178   100381902.3960       2208.606          39.378  
C37  22146114.267   116378615.9660       -749.012          48.825    22146114.267   115320628.5480       -742.202          44.804    22146114.267    86906109.3250       -559.327          53.129    22146114.267    89173225.2210       -573.918          46.105  
C38  38936859.959   204614580.1210       1929.724          39.039    38936859.959   202754447.5740       1912.181          35.018    38936859.959   152796602.0380       1441.027          42.739    38936859.959   156782600.3520       1478.619          35.716  
C39  39573271.734   207958946.5690      -1666.682          37.776    39573271.734   206068410.6910      -1651.531          33.755    39573271.734   155294018.5420      -1244.601          41.038    39573271.734   159345166.8520      -1277.068          34.014  
C40  36888047.365   193847997.2690       -253.146          42.620    36888047.365   192085742.7490       -250.845          38.599    36888047.365   144756621.3380       -189.037          46.945    36888047.365   148532881.0250       -193.969          39.921  
C46  22933051.546   120513999.2780       2127.296          47.029    22933051.546   119418417.4660       2107.957          43.009    22933051.546    89994220.2400       1588.565          50.135    22933051.546    92341895.5510       1630.006          43.112  
C59  38646011.188   203086159.5140          2.854          39.456    38646011.188   201239921.7010          2.828          35.435    38646011.188   151655248.9880          2.131          43.359    38646011.188   155611472.8750          2.187          36.336  
C60  37008245.598   194479643.2470         45.428          42.224    37008245.598   192711646.4900         45.015          38.203    37008245.598   145228305.0220         33.924          46.679    37008245.598   149016869.5010         34.809          39.655  
E01  25951175.305   136374346.6790      -1237.287          46.184    25951175.430   101837986.6470       -923.948          49.108    25951175.305   104494629.2730       -948.051          49.084  
E05  27787720.450   146025456.5550       -308.293          42.154    27787722.578   109044992.1420       -230.219          45.664    27787720.450   111889635.5430       -236.224          45.640  
E09  27092503.358   142372066.0790      -1991.548          44.225    27092504.610   106316807.5030      -1487.195          46.783    27092503.358   109090284.3980      -1525.992          46.759  
E10  27041415.711   142103598.6810       3097.019          44.127    27041416.086   106116325.1640       2312.709          46.714    27041415.711   108884575.6130       2373.040          46.690  
E12  25128178.968   132049471.7350       2612.612          47.434    25128173.460    98608350.1370       1950.977          49.852    25128178.968   101180764.0570       2001.872          49.828  
E24  26368740.483   138568666.5020       1755.224          45.676    26368739.357   103476597.1880       1310.719          48.629    26368740.483   106175991.2160       1344.912          48.605  
E26  27222072.272   143052955.3190      -2178.374          44.640    27222069.894   106825249.5100      -1626.708          47.168    27222072.272   109612004.7250      -1669.143          47.144  
E31  24006830.928   126156748.0140        523.672          50.031    24006833.682    94207971.9860        391.053          52.753    24006830.928    96665560.1670        401.255          52.729  
E33  24030735.764   126282368.7740         99.331          50.014    24030733.886    94301761.5220         74.175          52.584    24030735.764    96761815.0350         76.110          52.560  
G01  20714263.183   108854187.7330        260.298          49.774    20714263.183   108854187.7330        260.298          46.774    20714263.183   108854187.7330        260.298          51.274    20714264.086    84821448.6850        202.830          46.047    20714264.086    84821448.6850        202.830          47.547    20714264.291    81287222.4580        194.379          50.517  
G07  20687060.591   108711237.1460      -1923.810          49.995    20687060.591   108711237.1460      -1923.810          46.995    20687060.591   108711237.1460      -1923.810          51.495    20687058.423    84710046.0430      -1499.073          46.199    20687058.423    84710046.0430      -1499.073          47.699    20687057.933    81180458.8670      -1436.611          50.669  
G08  24610172.490   129327329.3220      -3118.307          41.384    24610172.490   129327329.3220      -3118.307          38.384    24610172.490   129327329.3220      -3118.307          42.884    24610173.483   100774546.3970      -2429.849          39.594    24610173.483   100774546.3970      -2429.849          41.094    24610173.708    96575607.8460      -2328.606          44.064  
G13  23766603.191   124894342.7350        326.078          43.051    23766603.191   124894342.7350        326.078          40.051    23766603.191   124894342.7350        326.078          44.551    23766600.933    97320257.8210        254.087          40.394    23766600.933    97320257.8210        254.087          41.894    23766600.422    93265245.0740        243.500          44.864  
G14  21388007.690   112394739.0150       1437.172          48.725    21388007.690   112394739.0150       1437.172          45.725    21388007.690   112394739.0150       1437.172          50.225    21388006.155    87580309.8290       1119.875          45.412    21388006.155    87580309.8290       1119.875          46.912    21388005.808    83931128.8900       1073.213          49.882  
G17  21181169.782   111307798.4710       1120.870          48.831    21181169.782   111307798.4710       1120.870          45.831    21181169.782   111307798.4710       1120.870          50.331    21181167.615    86733340.5820        873.405          45.469    21181167.615    86733340.5820        873.405          46.969    21181167.124    83119449.4670        837.013          49.938  
G19  23860124.396   125385799.9850       2811.881          43.518    23860124.396   125385799.9850       2811.881          40.518    23860124.396   125385799.9850       2811.881          45.018    23860121.416    97703208.5630       2191.076          40.594    23860121.416    97703208.5630       2191.076          42.094    23860120.741    93632238.8950       2099.781          45.063  
G21  22258870.480   116971153.8650      -2259.113          47.235    22258870.480   116971153.8650      -2259.113          44.235    22258870.480   116971153.8650      -2259.113          48.735    22258868.494    91146345.5250      -1760.348          44.010    22258868.494    91146345.5250      -1760.348          45.510    22258868.044    87348579.3650      -1687.000          48.480  
G30  20441956.593   107423206.9450        338.394          50.326    20441956.593   107423206.9450        338.394          47.326    20441956.593   107423206.9450        338.394          51.826    20441957.316    83706397.9810        263.684          48.549    20441957.316    83706397.9810        263.684          50.049    20441957.479    80218632.0400        252.697          53.019  
I02  37286520.195   146320314.3140        189.919          47.431  
I03  37293437.799   146347460.4770        -23.177          48.037  
I06  39796726.409   156170902.6850        -26.840          42.307  
I09  39916322.219   156640222.3300       -383.230          42.160  
J02  39209167.874   206045567.8690        961.674          45.217    39209167.874   206045567.8690        961.674          46.717    39209167.874   206045567.8690        961.674          45.217    39209167.984   153865197.2200        718.133          48.191    39209167.984   153865197.2200        718.133          48.191  
J03  39519879.388   207678367.8990       -538.389          46.395    39519879.388   207678367.8990       -538.389          47.895    39519879.388   207678367.8990       -538.389          46.395    39519879.277   155084495.0740       -402.043          49.817    39519879.277   155084495.0740       -402.043          49.817  
J07  37732078.478   198283410.7030         -3.798          45.508    37732078.478   198283410.7030         -3.798          47.008    37732078.478   198283410.7030         -3.798          45.508    37732077.149   148068775.5050         -2.836          48.288    37732077.149   148068775.5050         -2.836          48.288  
R12  20039708.251   107048524.4930       -678.751          47.701  
R13  20282851.600   108309295.9460       2268.273          46.896  
R22  21223344.896   113291656.3540      -3333.381          45.061  
R23  19243524.740   102939881.4340        894.476          48.555  
R24  21886492.989   117036913.8260       3819.240          43.220  
S22  38852185.145   204169610.9660         -0.008          41.330    38852185.145   152464319.8770         -0.006          42.378  
S23  40135204.151   210911921.3540         -1.382          39.072    40135204.151   157499162.0500         -1.032          40.079  
S26  37656741.043   197887509.8120          1.255          43.207    37656741.043   147773140.4440          0.937          44.422  
S27  38205388.369   200770670.9680        -11.643          42.334    38205388.369   149926150.3980         -8.695          43.517  
S28  36921360.989   194023061.5460         -8.383          44.743    36921360.989   144887351.1550         -6.260          46.408  
S30  38647736.035   203095223.6420          2.016          41.654    38647736.035   151662017.6550          1.505          42.857  
S32  36782036.757   193290907.7660         -2.360          45.264    36782036.757   144340612.9420         -1.762          46.726  
S34  36783446.323   193298315.0830          0.053          45.208    36783446.323   144346144.3800          0.040          46.694  
S37  37732784.893   198287122.9420         -4.347          43.107    37732784.893   148071552.8460         -3.246          44.286  
S43  36947100.950   194158325.9510         -6.767          44.615    36947100.950   144988360.2880         -5.054          46.323  
S44  37008810.476   194482611.6990         46.450          44.424    37008810.476   145230521.7230         34.687          46.179  
> 2023 01 08 11 10  0.0000000  0 64
C01  38712951.611   203437933.8080         35.780          38.954    38712951.611   201588498.0460         35.455          34.933    38712950.022   151917931.3490         26.719          42.578    38712950.022   155881007.8190         27.416          35.555  
C02  36966083.662   194258080.7770          8.328          42.306    36966083.662   192492098.2240          8.253          38.286    36966078.985   145062834.1750          6.219          46.742    36966078.985   148847082.0230          6.382          39.718  
C03  37042898.304   194661744.4460         38.396          42.038    37042898.304   192892092.2240         38.046          38.018    37042895.186   145364277.4490         28.672          46.500    37042895.186   149156389.0340         29.420          39.477  
C04  40349106.117   212035983.7720         26.113          36.620    40349106.117   210108383.9190         25.875          32.599    40349101.830   158338542.4870         19.500          40.461    40349101.830   162469113.1600         20.009          33.437  
C05  38001461.574   199699028.4280          8.558          40.306    38001461.574   197883582.7150          8.480          36.285    38001458.786   149125886.9110          6.391          44.164    38001458.786   153016127.4390          6.557          37.140  
C06  38361871.731   201592996.5880      -1650.840          39.608    38361871.731   199760332.9830      -1635.832          35.587    38361868.613   150540212.4900      -1232.770          43.520    38361868.613   154467348.4680      -1264.929          36.496  
C07  36319284.188   190859126.6010        -78.646          44.193    36319284.188   189124043.6320        -77.931          40.173    36319279.991   142524655.9910        -58.729          48.542    36319279.991   146242690.4950        -60.261          41.519  
C08  39511410.525   207633863.7240       2031.643          37.903    39511410.525   205746283.1440       2013.173          33.882    39511406.808   155051247.2830       1517.136          41.120    39511406.808   159096062.4300       1556.713          34.096  
C09  37153367.141   195242262.1050      -1453.705          41.270    37153367.141   193467332.4500      -1440.489          37.250    37153366.182   145797789.3660      -1085.559          45.246    37153366.182   149601209.9580      -1113.878          38.222  
C10  36483305.567   191721064.7650         18.050          44.233    36483305.567   189978145.9940         17.886          40.213    36483304.638   143168323.9370         13.479          48.724    36483304.638   146903149.7790         13.830          41.700  
C13  39834942.714   209334036.8520       1815.080          37.381    39834942.714   207431000.1540       1798.579          33.361    39834946.312   156320885.7930       1355.417          40.810    39834946.312   160398821.9440       1390.775          33.786  
C16  38681942.364   203274979.1150      -1647.343          39.084    38681942.364   201427024.7600      -1632.368          35.063    38681944.492   151796258.9910      -1230.159          42.744    38681944.492   155756161.3990      -1262.250          35.721  
C23  25647674.898   134779441.2770      -2713.573          42.167    25647674.898   133554173.6290      -2688.904          38.147    25647674.898   100646985.3690      -2026.369          45.679    25647674.898   103272558.9010      -2079.231          38.655  
C27  21641374.914   113726192.7620        731.217          49.213    21641374.914   112692318.2820        724.569          45.192    21641374.914    84925403.6860        546.039          53.842    21641374.914    87140848.9990        560.283          46.818  
C28  22746756.517   119535012.2920      -2054.477          47.357    22746756.517   118448330.3620      -2035.800          43.336    22746756.517    89263158.5300      -1534.188          50.487    22746756.517    91591762.6660      -1574.210          43.463  
C30  24767189.325   130152458.3620       2813.104          43.601    24767189.325   128969254.1950       2787.530          39.581    24767189.325    97191770.8550       2100.695          46.809    24767189.325    99727208.3550       2155.495          39.785  
C37  22192318.021   116621418.3290       -869.909          48.823    22192318.021   115561223.6170       -862.001          44.803    22192318.021    87087422.7780       -649.607          52.939    22192318.021    89359268.5900       -666.554          45.916  
C38  38826896.975   204036720.7390       1922.290          39.207    38826896.975   202181841.4600       1904.815          35.187    38826896.975   152365083.6690       1435.476          43.023    38826896.975   156339824.9820       1472.924          35.999  
C39  39668467.308   208459202.6890      -1668.019          37.592    39668467.308   206564119.0280      -1652.856          33.572    39668467.308   155667586.4240      -1245.599          40.931    39668467.308   159728479.9820      -1278.093          33.907  
C40  36901868.583   193920628.2590       -231.006          42.563    36901868.583   192157713.4560       -228.906          38.542    36901868.583   144810858.7640       -172.504          46.907    36901868.583   148588533.3410       -177.004          39.883  
C46  22813416.840   119885314.6520       2062.911          47.258    22813416.840   118795448.1560       2044.158          43.237    22813416.840    89524747.9550       1540.486          50.390    22813416.840    91860176.1620       1580.672          43.367  
C59  38645830.868   203085211.9220          3.463          39.456    38645830.868   201238982.7220          3.431          35.435    38645830.868   151654541.3700          2.586          43.359    38645830.868   155610746.7970          2.653          36.336  
C60  37005648.965   194465997.8470         45.538          42.232    37005648.965   192698125.1400         45.124          38.212    37005648.965   145218115.2760         34.005          46.685    37005648.965   149006413.9350         34.892          39.661  
E01  26022935.287   136751447.9300      -1277.049          46.058    26022935.412   102119588.2310       -953.641          49.016    26022935.287   104783576.9850       -978.518          48.992  
E05  27808688.753   146135645.7320       -425.842          42.104    27808690.881   109127276.2670       -317.999          45.628    27808688.753   111974066.2100       -326.295          45.604  
E09  27207454.864   142976140.3180      -2034.470          43.978    27207456.115   106767901.9030      -1519.247          46.623    27207454.864   109553146.4780      -1558.880          46.600  
E10  26865301.120   141178110.2570       3071.902          44.489    26865301.495   105425213.6790       2293.953          47.004    26865301.120   108175435.1320       2353.795          46.980  
E12  24981264.517   131277431.0890       2533.361          47.675    24981259.010    98031826.2780       1891.795          50.113    24981264.517   100589200.4440       1941.147          50.089  
E24  26268225.274   138040455.5140       1766.003          45.850    26268224.148   103082153.9170       1318.768          48.833    26268225.274   105771258.1210       1353.171          48.810  
E26  27348954.597   143719726.4380      -2265.812          44.393    27348952.219   107323163.0070      -1692.002          46.917    27348954.597   110122907.2700      -1736.142          46.893  
E31  23977707.069   126003701.1020        496.177          50.031    23977709.823    94093683.7070        370.522          52.860    23977707.069    96548290.4550        380.187          52.836  
E33  24029239.106   126274503.7850        -46.809          50.015    24029237.229    94295888.3160        -34.955          52.591    24029239.106    96755788.6150        -35.866          52.568  
G01  20705781.901   108809618.2940         36.626          49.791    20705781.901   108809618.2940         36.626          46.791    20705781.901   108809618.2940         36.626          51.291    20705782.804    84786719.2520         28.540          46.058    20705782.804    84786719.2520         28.540          47.558    20705783.008    81253940.0850         27.351          50.528  
G07  20801650.843   109313412.9850      -2089.872          49.517    20801650.843   109313412.9850      -2089.872          46.517    20801650.843   109313412.9850      -2089.872          51.017    20801648.675    85179273.9690      -1628.471          45.903    20801648.675    85179273.9690      -1628.471          47.403    20801648.185    81630135.6300      -1560.618          50.373  
G08  24787480.740   130259090.4660      -3092.835          40.924    24787480.740   130259090.4660      -3092.835          37.924    24787480.740   130259090.4660      -3092.835          42.424    24787481.734   101500594.0420      -2410.001          39.306    24787481.734   101500594.0420      -2410.001          40.806    24787481.958    97271403.5050      -2309.585          43.775  
G13  23752965.926   124822678.4270        151.979          43.114    23752965.926   124822678.4270        151.979          40.114    23752965.926   124822678.4270        151.979          44.614    23752963.668    97264415.5020        118.425          40.423    23752963.668    97264415.5020        118.425          41.923    23752963.158    93211729.5190        113.491          44.893  
G14  21307024.935   111969171.7660       1399.448          48.937    21307024.935   111969171.7660       1399.448          45.937    21307024.935   111969171.7660       1399.448          50.437    21307023.400    87248698.9850       1090.479          45.542    21307023.400    87248698.9850       1090.479          47.042    21307023.053    83613335.1650       1045.042          50.012  
G17  21120563.335   110989309.4410       1002.767          49.072    21120563.335   110989309.4410       1002.767          46.072    21120563.335   110989309.4410       1002.767          50.572    21120561.167    86485167.3120        781.377          45.601    21120561.167    86485167.3120        781.377          47.101    21120560.677    82881616.7500        748.820          50.070  
G19  23701584.091   124552665.0580       2741.941          43.928    23701584.091   124552665.0580       2741.941          40.928    23701584.091   124552665.0580       2741.941          45.428    23701581.110    97054012.5170       2136.577          40.889    23701581.110    97054012.5170       2136.577          42.389    23701580.436    93010092.6830       2047.553          45.358  
G21  22391976.336   117670629.8560      -2402.727          47.020    22391976.336   117670629.8560      -2402.727          44.020    22391976.336   117670629.8560      -2402.727          48.520    22391974.349    91691391.7520      -1872.255          43.883    22391974.349    91691391.7520      -1872.255          45.383    22391973.900    87870915.3320      -1794.244          48.353  
G30  20428023.520   107349988.1500        149.293          50.351    20428023.520   107349988.1500        149.293          47.351    20428023.520   107349988.1500        149.293          51.851    20428024.243    83649344.3750        116.332          48.580    20428024.243    83649344.3750        116.332          50.080    20428024.406    80163955.6670        111.485          53.050  
I02  37271996.037   146263318.3980        190.042          47.468  
I03  37295151.307   146354184.6500        -21.649          48.030  
I06  39798810.875   156179082.5760        -27.690          42.305  
I09  39945008.677   156752794.1550       -367.201          42.133  
J02  39154100.764   205756188.2570        967.326          45.228    39154100.764   205756188.2570        967.326          46.728    39154100.764   205756188.2570        967.326          45.228    39154100.875   153649102.0550        722.354          48.194    39154100.875   153649102.0550        722.354          48.194  
J03  39550636.747   207839998.9110       -539.001          46.411    39550636.747   207839998.9110       -539.001          47.911    39550636.747   207839998.9110       -539.001          46.411    39550636.636   155205193.5570       -402.501          49.825    39550636.636   155205193.5570       -402.501          49.825  
J07  37732293.426   198284540.2630         -3.732          45.507    37732293.426   198284540.2630         -3.732          47.007    37732293.426   198284540.2630         -3.732          45.507    37732292.097   148069619.0070         -2.787          48.288    37732292.097   148069619.0070         -2.787          48.288  
R12  20082314.381   107276118.7880       -839.234          47.534  
R13  20157970.863   107642439.7740       2175.710          47.257  
R22  21414386.423   114311448.9980      -3462.948          44.635  
R23  19200611.158   102710322.7080        635.912          48.782  
R24  21675705.391   115909737.8110       3693.521          43.803  
S22  38852185.648   204169613.6100         -0.009          41.330    38852185.648   152464321.8520         -0.007          42.378  
S23  40135281.980   210912330.3440         -1.344          39.072    40135281.980   157499467.4640         -1.004          40.079  
S26  37656670.743   197887140.3850          1.207          43.207    37656670.743   147772864.5730          0.902          44.422  
S27  38206054.246   200774170.1760        -11.795          42.334    38206054.246   149928763.4430         -8.808          43.516  
S28  36921831.146   194025532.2390         -8.355          44.743    36921831.146   144889196.1520         -6.239          46.408  
S30  38647603.918   203094529.3670          2.613          41.654    38647603.918   151661499.2020          1.951          42.857  
S32  36782170.887   193291612.6210         -2.339          45.264    36782170.887   144341139.2950         -1.747          46.726  
S34  36783443.396   193298299.7010          0.049          45.208    36783443.396   144346132.8930          0.037          46.694  
S37  37733031.826   198288420.5810         -4.303          43.106    37733031.826   148072521.8620         -3.214          44.286  
S43  36947500.738   194160426.8520         -7.238          44.617    36947500.738   144989929.1430         -5.405          46.323  
S44  37006155.572   194468660.0870         46.557          44.433    37006155.572   145220103.3120         34.766          46.185  
> 2023 01 08 11 15  0.0000000  0 63
C01  38710896.635   203427134.8360         36.210          38.957    38710896.635   201577797.2470         35.881          34.936    38710895.046   151909867.1820         27.040          42.583    38710895.046   155872733.2820         27.745          35.560  
C02  36965594.657   194255511.0420          8.802          42.307    36965594.657   192489551.8500          8.722          38.287    36965589.981   145060915.2180          6.573          46.743    36965589.981   148845113.0060          6.745          39.719  
C03  37040693.024   194650155.6230         38.860          42.042    37040693.024   192880608.7540         38.507          38.022    37040689.906   145355623.4580         29.019          46.505    37040689.906   149147509.2870         29.776          39.482  
C04  40347616.587   212028156.2370         26.068          36.623    40347616.587   210100627.5440         25.831          32.602    40347612.300   158332697.2500         19.467          40.462    40347612.300   162463115.4390         19.975          33.438  
C05  38000948.407   199696331.7160          9.419          40.306    38000948.407   197880910.5190          9.334          36.285    38000945.619   149123873.1330          7.034          44.164    38000945.619   153014061.1270          7.217          37.140  
C06  38456573.928   202090659.9910      -1666.601          39.461    38456573.928   200253472.1730      -1651.450          35.440    38456570.810   150911844.2520      -1244.540          43.347    38456570.810   154848674.9710      -1277.006          36.323  
C07  36323348.630   190880485.3900        -63.728          44.186    36323348.630   189145208.2500        -63.149          40.165    36323344.433   142540605.7360        -47.589          48.522    36323344.433   146259056.3210        -48.831          41.498  
C08  39395281.428   207023601.1960       2036.358          38.112    39395281.428   205141568.4580       2017.845          34.091    39395277.710   154595531.7600       1520.657          41.309    39395277.710   158628458.6750       1560.326          34.286  
C09  37237308.323   195683375.9890      -1486.785          41.131    37237308.323   193904436.2070      -1473.269          37.111    37237307.363   146127192.5910      -1110.261          45.028    37237307.363   149939206.3100      -1139.225          38.005  
C10  36481810.541   191713208.3480         34.369          44.229    36481810.541   189970360.9990         34.056          40.208    36481809.611   143162457.1320         25.665          48.712    36481809.611   146897129.9270         26.335          41.688  
C13  39730993.794   208787781.5890       1826.240          37.597    39730993.794   206889710.8470       1809.638          33.577    39730997.391   155912967.9010       1363.751          40.921    39730997.391   159980262.7160       1399.327          33.897  
C16  38776368.943   203771194.1380      -1660.427          38.938    38776368.943   201918728.7370      -1645.333          34.917    38776371.072   152166809.1700      -1239.930          42.489    38776371.072   156136378.1050      -1272.276          35.465  
C23  25804300.237   135602512.9890      -2773.054          41.745    25804300.237   134369762.8710      -2747.844          37.724    25804300.237   101261616.8420      -2070.787          45.488    25804300.237   103903224.2380      -2124.808          38.464  
C27  21603697.169   113528194.8770        588.947          49.351    21603697.169   112496120.3780        583.593          45.330    21603697.169    84777548.1230        439.798          53.992    21603697.169    86989136.3350        451.271          46.968  
C28  22866578.478   120164680.9480      -2142.183          47.117    22866578.478   119072274.7580      -2122.709          43.096    22866578.478    89733365.6430      -1599.682          50.238    22866578.478    92074236.0510      -1641.413          43.214  
C30  24608668.540   129319426.0120       2739.801          43.921    24608668.540   128143794.8670       2714.894          39.900    24608668.540    96569701.2430       2045.956          47.258    24608668.540    99088910.8410       2099.328          40.235  
C37  22245460.655   116900684.7590       -992.040          48.840    22245460.655   115837951.2620       -983.022          44.820    22245460.655    87295965.8920       -740.809          52.711    22245460.655    89573251.9580       -760.135          45.687  
C38  38717423.658   203461434.5770       1912.571          39.378    38717423.658   201611785.1710       1895.184          35.357    38717423.658   151935486.8590       1428.219          43.271    38717423.658   155899021.2990       1465.477          36.247  
C39  39763681.058   208959554.3190      -1667.318          37.403    39763681.058   207059922.0070      -1652.160          33.383    39763681.058   156041225.6280      -1245.075          40.835    39763681.058   160111866.2970      -1277.555          33.811  
C40  36914417.163   193986571.4920       -208.574          42.510    36914417.163   192223057.2060       -206.678          38.490    36914417.163   144860102.0880       -155.753          46.872    36914417.163   148639061.2730       -159.816          39.849  
C46  22697633.808   119276870.7150       1992.345          47.523    22697633.808   118192535.5270       1974.233          43.503    22697633.808    89070390.4690       1487.790          50.625    22697633.808    91393965.8730       1526.602          43.601  
C59  38645615.837   203084081.9300          4.070          39.456    38645615.837   201237863.0030          4.033          35.435    38645615.837   151653697.5450          3.039          43.360    38645615.837   155609880.9590          3.119          36.336  
C60  37003046.692   194452322.8120         45.626          42.241    37003046.692   192684574.4230         45.211          38.220    37003046.692   145207903.3980         34.071          46.691    37003046.692   148995935.6610         34.960          39.668  
E01  26097020.663   137140769.2070      -1318.741          45.928    26097020.788   102410315.1590       -984.774          48.908    26097020.663   105081888.0930      -1010.464          48.884  
E05  27836285.248   146280666.2920       -540.437          42.039    27836287.376   109235570.8410       -403.573          45.581    27836285.248   112085185.8600       -414.101          45.557  
E09  27324660.566   143592060.4420      -2070.516          43.714    27324661.818   107227842.2550      -1546.164          46.479    27324660.566   110025085.2740      -1586.499          46.455  
E10  26690791.780   140261057.4870       3040.787          44.820    26690792.155   104740401.5450       2270.718          47.386    26690791.780   107472758.3340       2329.954          47.363  
E12  24839037.629   130530023.7460       2448.425          47.911    24839032.122    97473697.4180       1828.370          50.422    24839037.629   100016511.7020       1876.066          50.398  
E24  26167127.514   137509183.1990       1775.597          46.027    26167126.388   102685424.5910       1325.933          48.996    26167127.514   105364179.3340       1360.523          48.972  
E26  27480663.854   144411863.2530      -2347.459          44.122    27480661.476   107840018.4210      -1752.973          46.707    27480663.854   110653245.8690      -1798.702          46.684  
E31  23950233.663   125859327.3790        465.828          50.029    23950236.417    93985872.1610        347.859          52.966    23950233.663    96437666.4330        356.933          52.942  
E33  24036065.244   126310375.3830       -192.162          50.014    24036063.367    94322675.5480       -143.498          52.571    24036065.244    96783274.6440       -147.241          52.547  
G01  20710094.410   108832280.6830       -187.732          49.763    20710094.410   108832280.6830       -187.732          46.763    20710094.410   108832280.6830       -187.732          51.263    20710095.313    84804378.2570       -146.285          46.041    20710095.313    84804378.2570       -146.285          47.541    20710095.518    81270863.2970       -140.190          50.511  
G07  20925573.717   109964632.0830      -2250.655          49.042    20925573.717   109964632.0830      -2250.655          46.042    20925573.717   109964632.0830      -2250.655          50.542    20925571.549    85686717.4230      -1753.757          45.656    20925571.549    85686717.4230      -1753.757          47.156    20925571.059    82116435.6060      -1680.684          50.126  
G13  23749209.536   124802938.4620        -19.953          43.148    23749209.536   124802938.4620        -19.953          40.148    23749209.536   124802938.4620        -19.953          44.648    23749207.278    97249033.7120        -15.548          40.437    23749207.278    97249033.7120        -15.548          41.937    23749206.767    93196988.6370        -14.900          44.907  
G14  21228283.071   111555380.4770       1358.622          49.190    21228283.071   111555380.4770       1358.622          46.190    21228283.071   111555380.4770       1358.622          50.690    21228281.536    86926264.2150       1058.667          45.679    21228281.536    86926264.2150       1058.667          47.179    21228281.189    83304335.1760       1014.556          50.149  
G17  21066630.963   110705892.9140        887.117          49.321    21066630.963   110705892.9140        887.117          46.321    21066630.963   110705892.9140        887.117          50.821    21066628.796    86264323.2650        691.260          45.735    21066628.796    86264323.2650        691.260          47.235    21066628.305    82669974.5390        662.457          50.205  
G19  23547104.297   123740868.2630       2669.674          44.311    23547104.297   123740868.2630       2669.674          41.311    23547104.297   123740868.2630       2669.674          45.811    23547101.317    96421443.5850       2080.265          41.254    23547101.317    96421443.5850       2080.265          42.754    23547100.642    92403880.7900       1993.587          45.724  
G21  22533049.183   118411972.6740      -2538.171          46.786    22533049.183   118411972.6740      -2538.171          43.786    22533049.183   118411972.6740      -2538.171          48.286    22533047.197    92269061.4800      -1977.795          43.753    22533047.197    92269061.4800      -1977.795          45.253    22533046.747    88424515.4880      -1895.387          48.222  
G30  20424953.456   107333854.8570        -42.043          50.343    20424953.456   107333854.8570        -42.043          47.343    20424953.456   107333854.8570        -42.043          51.843    20424954.179    83636772.9770        -32.761          48.570    20424954.179    83636772.9770        -32.761          50.070    20424954.342    80151908.0780        -31.396          53.039  
I02  37257465.186   146206296.2150        190.092          47.506  
I03  37296747.463   146360448.3100        -20.107          48.024  
I06  39800959.779   156187515.3380        -28.526          42.303  
I09  39972459.079   156860515.4290       -350.896          42.107  
J02  39098745.027   205465291.8940        971.782          45.237    39098745.027   205465291.8940        971.782          46.737    39098745.027   205465291.8940        971.782          45.237    39098745.138   153431874.2520        725.682          48.196    39098745.138   153431874.2520        725.682          48.196  
J03  39581403.322   208001678.3520       -538.710          46.424    39581403.322   208001678.3520       -538.710          47.924    39581403.322   208001678.3520       -538.710          46.424    39581403.211   155325928.2040       -402.284          49.831    39581403.211   155325928.2040       -402.284          49.831  
J07  37732504.603   198285650.0060         -3.666          45.507    37732504.603   198285650.0060         -3.666          47.007    37732504.603   198285650.0060         -3.666          45.507    37732503.274   148070447.7120         -2.737          48.288    37732503.274   148070447.7120         -2.737          48.288  
R12  20134043.562   107552446.7870      -1003.536          47.340  
R13  20038582.929   107004914.8670       2072.701          47.691  
R22  21612324.290   115368054.7750      -3578.813          44.150  
R23  19172185.792   102558266.1660        378.030          48.998  
R24  21472260.902   114821828.7030       3557.531          44.339  
S22  38852186.210   204169616.5640         -0.010          41.330    38852186.210   152464324.0580         -0.008          42.378  
S23  40135357.621   210912727.8440         -1.306          39.072    40135357.621   157499764.2990         -0.975          40.079  
S26  37656603.183   197886785.3540          1.159          43.207    37656603.183   147772599.4530          0.866          44.422  
S27  38206728.643   200777714.1580        -11.942          42.334    38206728.643   149931409.9230         -8.918          43.516  
S28  36922299.595   194027993.9530         -8.323          44.743    36922299.595   144891034.4450         -6.215          46.408  
S30  38647437.728   203093656.0300          3.209          41.654    38647437.728   151660847.0350          2.397          42.857  
S32  36782303.793   193292311.0450         -2.317          45.264    36782303.793   144341660.8460         -1.730          46.726  
S34  36783440.711   193298285.5950          0.045          45.208    36783440.711   144346122.3600          0.034          46.694  
S37  37733276.210   198289704.8310         -4.258          43.106    37733276.210   148073480.8800         -3.180          44.286  
S43  36947927.270   194162668.2920         -7.704          44.618    36947927.270   144991602.9450         -5.753          46.324  
S44  37003495.242   194454679.9600         46.641          44.441    37003495.242   145209663.6070         34.829          46.191  
> 2023 01 08 11 20  0.0000000  0 62
C01  38708817.680   203416209.8570         36.620          38.960    38708817.680   201566971.5860         36.287          34.939    38708816.092   151901708.9180         27.346          42.588    38708816.092   155864362.1940         28.060          35.565  
C02  36965078.715   194252799.7460          9.272          42.309    36965078.715   192486865.2030          9.188          38.288    36965074.038   145058890.5490          6.924          46.744    36965074.038   148843035.5190          7.105          39.720  
C03  37038461.806   194638430.4940         39.304          42.047    37038461.806   192868990.2170         38.947          38.026    37038458.689   145346867.6790         29.351          46.510    37038458.689   149138525.0970         30.116          39.487  
C04  40346129.976   212020344.0440         26.011          36.625    40346129.976   210092886.3700         25.774          32.605    40346125.689   158326863.4690         19.424          40.463    40346125.689   162457129.4730         19.930          33.440  
C05  38000386.201   199693377.3050         10.276          40.306    38000386.201   197877982.9650         10.183          36.285    38000383.413   149121666.9160          7.674          44.164    38000383.413   153011797.3580          7.874          37.140  
C06  38552121.571   202592766.2450      -1680.453          39.314    38552121.571   200751013.8250      -1665.177          35.293    38552118.453   151286793.7270      -1254.884          43.143    38552118.453   155233405.7370      -1287.620          36.119  
C07  36326558.954   190897355.7530        -48.733          44.179    36326558.954   189161925.2460        -48.290          40.158    36326554.757   142553203.7350        -36.391          48.504    36326554.757   146271982.9630        -37.341          41.480  
C08  39278954.558   206412299.3710       2038.570          38.312    39278954.558   204535823.9230       2020.038          34.291    39278950.841   154139040.1370       1522.309          41.545    39278950.841   158160058.5760       1562.022          34.521  
C09  37323091.196   196134168.0320      -1518.215          40.988    37323091.196   194351130.1410      -1504.413          36.967    37323090.237   146463823.0120      -1133.732          44.830    37323090.237   150284618.3950      -1163.308          37.806  
C10  36479377.166   191700420.8780         50.914          44.226    36479377.166   189957689.7790         50.451          40.205    36479376.237   143152908.0480         38.020          48.702    36479376.237   146887331.7360         39.012          41.679  
C13  39626473.184   208238522.0780       1835.106          37.807    39626473.184   206345444.6040       1818.423          33.786    39626476.782   155502806.5780       1370.372          41.048    39626476.782   159559401.5320       1406.120          34.024  
C16  38871485.771   204271036.4450      -1671.520          38.790    38871485.771   202414027.0230      -1656.325          34.770    38871487.900   152540068.0360      -1248.213          42.230    38871487.900   156519374.1580      -1280.775          35.206  
C23  25964230.329   136442951.2930      -2829.312          41.314    25964230.329   135202560.8260      -2803.591          37.293    25964230.329   101889216.8740      -2112.798          45.292    25964230.329   104547196.4450      -2167.914          38.269  
C27  21574106.032   113372692.3990        447.996          49.480    21574106.032   112342031.5590        443.924          45.459    21574106.032    84661426.1420        334.543          54.110    21574106.032    86869985.0850        343.270          47.086  
C28  22991213.721   120819643.5710      -2223.103          46.896    22991213.721   119721283.1750      -2202.893          42.875    22991213.721    90222461.1080      -1660.109          49.973    22991213.721    92576090.5280      -1703.417          42.950  
C30  24454440.142   128508950.3100       2662.771          44.217    24454440.142   127340687.1250       2638.564          40.197    24454440.142    95964475.8810       1988.433          47.700    24454440.142    98467896.9900       2040.305          40.676  
C37  22305601.374   117216726.3680      -1115.009          48.869    22305601.374   116151119.7650      -1104.873          44.848    22305601.374    87531970.9890       -832.637          52.453    22305601.374    89815413.7110       -854.358          45.429  
C38  38608570.065   202889405.0830       1900.582          39.551    38608570.065   201044955.9460       1883.304          35.530    38608570.065   151508321.9780       1419.266          43.477    38608570.065   155460712.9860       1456.290          36.453  
C39  39858796.338   209459388.4910      -1664.569          37.211    39858796.338   207555212.2320      -1649.436          33.190    39858796.338   156414478.4190      -1243.022          40.745    39858796.338   160494856.1160      -1275.449          33.721  
C40  36925678.661   194045751.0640       -185.927          42.463    36925678.661   192281698.7820       -184.237          38.442    36925678.661   144904294.6260       -138.842          46.841    36925678.661   148684406.6600       -142.464          39.817  
C46  22586057.262   118690532.0090       1915.536          47.881    22586057.262   117611527.1730       1898.122          43.860    22586057.262    88632540.1370       1430.432          50.861    22586057.262    90944693.3580       1467.748          43.838  
C59  38645366.214   203082770.1530          4.675          39.456    38645366.214   201236563.1510          4.632          35.436    38645366.214   151652717.9710          3.491          43.360    38645366.214   155608875.8310          3.582          36.336  
C60  37000439.983   194438624.4630         45.693          42.249    37000439.983   192671000.6040         45.278          38.228    37000439.983   145197674.1120         34.121          46.698    37000439.983   148985439.5230         35.012          39.674  
E01  26173539.234   137542877.0100      -1362.277          45.794    26173539.359   102710590.4660      -1017.285          48.773    26173539.234   105389996.6700      -1043.823          48.749  
E09  27443727.270   144217760.1940      -2099.667          43.439    27443728.522   107695085.5760      -1567.933          46.346    27443727.270   110504517.5510      -1608.835          46.322  
E10  26518228.773   139354232.7660       3003.724          45.129    26518229.149   104063227.2410       2243.041          47.826    26518228.773   106777918.6130       2301.555          47.802  
E12  24701816.519   129808921.9440       2358.030          48.158    24701811.011    96935212.3060       1760.867          50.752    24701816.519    99463979.1520       1806.802          50.729  
E24  26065520.965   136975237.1780       1783.792          46.207    26065519.839   102286698.6670       1332.052          49.128    26065520.965   104955051.8640       1366.801          49.105  
E26  27616866.446   145127612.7040      -2423.215          43.822    27616864.068   108374506.6480      -1809.544          46.532    27616866.446   111201677.2670      -1856.749          46.509  
E31  23924577.296   125724502.2590        432.499          50.024    23924580.049    93885191.0650        322.970          53.067    23924577.296    96334358.8740        331.396          53.044  
E33  24051154.888   126389671.9970       -336.226          50.010    24051153.010    94381890.5520       -251.078          52.523    24051154.888    96844034.3870       -257.628          52.500  
G01  20727208.738   108922217.0840       -411.686          49.686    20727208.738   108922217.0840       -411.686          46.686    20727208.738   108922217.0840       -411.686          51.186    20727209.641    84874458.5690       -320.795          45.999    20727209.641    84874458.5690       -320.795          47.499    20727209.846    81338023.5970       -307.428          50.469  
G07  21058509.370   110663213.6550      -2405.518          48.700    21058509.370   110663213.6550      -2405.518          45.700    21058509.370   110663213.6550      -2405.518          50.200    21058507.203    86231066.7000      -1874.430          45.415    21058507.203    86231066.7000      -1874.430          46.915    21058506.712    82638103.6630      -1796.329          49.885  
G13  23755187.993   124834355.4660       -188.939          43.154    23755187.993   124834355.4660       -188.939          40.154    23755187.993   124834355.4660       -188.939          44.654    23755185.735    97273514.4940       -147.225          40.438    23755185.735    97273514.4940       -147.225          41.938    23755185.224    93220449.3860       -141.091          44.907  
G14  21151966.552   111154334.4620       1314.437          49.466    21151966.552   111154334.4620       1314.437          46.466    21151966.552   111154334.4620       1314.437          50.966    21151965.017    86613760.8260       1024.237          45.827    21151965.017    86613760.8260       1024.237          47.327    21151964.670    83004852.7620        981.560          50.297  
G17  21019222.126   110456757.7930        774.282          49.556    21019222.126   110456757.7930        774.282          46.556    21019222.126   110456757.7930        774.282          51.056    21019219.958    86070192.0020        603.337          45.870    21019219.958    86070192.0020        603.337          47.370    21019219.468    82483932.0780        578.198          50.339  
G19  23396809.749   122951065.0820       2595.364          44.670    23396809.749   122951065.0820       2595.364          41.670    23396809.749   122951065.0820       2595.364          46.170    23396806.769    95806012.5350       2022.362          41.663    23396806.769    95806012.5350       2022.362          43.163    23396806.094    91814092.7010       1938.097          46.133  
G21  22681613.938   119192685.7260      -2665.151          46.532    22681613.938   119192685.7260      -2665.151          43.532    22681613.938   119192685.7260      -2665.151          48.032    22681611.951    92877409.3130      -2076.741          43.606    22681611.951    92877409.3130      -2076.741          45.106    22681611.501    89007515.4950      -1990.210          48.076  
G30  20432850.938   107375356.4050       -234.802          50.302    20432850.938   107375356.4050       -234.802          47.302    20432850.938   107375356.4050       -234.802          51.802    20432851.661    83669111.8460       -182.963          48.517    20432851.661    83669111.8460       -182.963          50.017    20432851.824    80182899.4930       -175.339          52.987  
I02  37242933.774   146149271.8340        190.055          47.543  
I03  37298225.196   146366247.2500        -18.551          48.017  
I06  39803171.980   156196196.4880        -29.346          42.300  
I09  39998652.911   156963305.6530       -334.331          42.082  
J02  39043169.437   205173240.1970        975.025          45.246    39043169.437   205173240.1970        975.025          46.746    39043169.437   205173240.1970        975.025          45.246    39043169.548   153213783.6990        728.103          48.196    39043169.548   153213783.6990        728.103          48.196  
J03  39612127.304   208163133.9700       -537.508          46.433    39612127.304   208163133.9700       -537.508          47.933    39612127.304   208163133.9700       -537.508          46.433    39612127.194   155446495.7110       -401.386          49.835    39612127.194   155446495.7110       -401.386          49.835  
J07  37732711.928   198286739.5050         -3.597          45.507    37732711.928   198286739.5050         -3.597          47.007    37732711.928   198286739.5050         -3.597          45.507    37732710.599   148071261.2990         -2.686          48.287    37732710.599   148071261.2990         -2.686          48.287  
R12  20195092.081   107878557.0200      -1170.998          47.128  
R13  19925279.165   106399879.0900       1959.098          48.101  
R22  21816391.044   116457376.9630      -3681.084          43.602  
R23  19158170.809   102483295.4580        122.237          49.167  
R24  21276723.168   113776200.5650       3411.731          44.798  
S22  38852186.831   204169619.8290         -0.011          41.330    38852186.831   152464326.4950         -0.009          42.378  
S23  40135431.054   210913113.7340         -1.267          39.071    40135431.054   157500052.4640         -0.946          40.078  
S26  37656538.385   197886444.8390          1.111          43.207    37656538.385   147772345.1720          0.829          44.422  
S27  38207411.244   200781301.2480        -12.083          42.333    38207411.244   149934088.5940         -9.023          43.516  
S28  36922766.112   194030445.5170         -8.287          44.743    36922766.112   144892865.1590         -6.188          46.408  
S30  38647237.521   203092603.9330          3.804          41.654    38647237.521   151660061.3790          2.841          42.857  
S32  36782435.411   193293002.7060         -2.294          45.264    36782435.411   144342177.3450         -1.713          46.726  
S34  36783438.271   193298272.7720          0.041          45.208    36783438.271   144346112.7840          0.030          46.694  
S37  37733517.930   198290975.0740         -4.210          43.106    37733517.930   148074429.4390         -3.144          44.286  
S43  36948380.313   194165049.0530         -8.167          44.619    36948380.313   144993380.7870         -6.098          46.325  
S44  37000830.759   194440678.0050         46.702          44.449    37000830.759   145199207.6010         34.875          46.198  
> 2023 01 08 11 25  0.0000000  0 63
C01  38706715.833   203405164.5750         37.012          38.962    38706715.833   201556026.7150         36.675          34.942    38706714.244   151893460.8180         27.639          42.593    38706714.244   155855898.9260         28.360          35.570  
C02  36964536.080   194249948.1790          9.738          42.310    36964536.080   192484039.5590          9.649          38.289    36964531.403   145056761.1320          7.272          46.745    36964531.403   148840850.5520          7.461          39.721  
C03  37036205.807   194626575.1350         39.728          42.051    37036205.807   192857242.6330         39.367          38.031    37036202.689   145338014.6510         29.667          46.515    37036202.689   149129441.1200         30.441          39.492  
C04  40344647.044   212012551.1850         25.940          36.628    40344647.044   210085164.3560         25.704          32.607    40344642.757   158321044.1270         19.370          40.465    40344642.757   162451158.3210         19.876          33.441  
C05  37999775.239   199690166.6810         11.127          40.306    37999775.239   197874801.5290         11.026          36.285    37999772.451   149119269.3730          8.309          44.164    37999772.451   153009337.2690          8.526          37.140  
C06  38648404.810   203098738.0810      -1692.366          39.169    38648404.810   201252385.9170      -1676.981          35.148    38648401.692   151664629.8390      -1263.780          42.911    38648401.692   155621098.4430      -1296.748          35.887  
C07  36328912.438   190909723.3940        -33.720          44.173    36328912.438   189174180.4540        -33.414          40.152    36328908.240   142562439.3110        -25.181          48.489    36328908.240   146281459.4670        -25.838          41.466  
C08  39162572.871   205800709.4760       2038.278          38.502    39162572.871   203929793.9350       2019.748          34.482    39162569.153   153682333.3970       1522.091          41.823    39162569.153   157691437.7470       1561.797          34.799  
C09  37410619.786   196594133.8790      -1547.933          40.839    37410619.786   194806914.4800      -1533.861          36.819    37410618.827   146807304.0020      -1155.924          44.653    37410618.827   150637059.7580      -1186.079          37.630  
C10  36475994.264   191682643.6110         67.624          44.224    36475994.264   189940074.1230         67.009          40.203    36475993.335   143139632.8160         50.499          48.696    36475993.335   146873710.1930         51.816          41.672  
C13  39521512.192   207686948.3380       1841.667          38.007    39521512.192   205798885.1710       1824.925          33.986    39521515.789   155090917.0970       1375.271          41.203    39521515.789   159136767.1090       1411.148          34.179  
C16  38967178.402   204773904.6140      -1680.596          38.639    38967178.402   202912323.6630      -1665.318          34.619    38967180.531   152915586.4740      -1254.990          41.977    38967180.531   156904688.7290      -1287.729          34.953  
C23  26127274.708   137299755.2900      -2882.122          40.875    26127274.708   136051575.6960      -2855.921          36.855    26127274.708   102529038.0410      -2152.234          45.072    26127274.708   105203708.5980      -2208.379          38.049  
C27  21552512.344   113259216.8060        308.847          49.591    21552512.344   112229587.5620        306.040          45.570    21552512.344    84576687.8740        230.633          54.198    21552512.344    86783036.2540        236.649          47.174  
C28  23120275.018   121497865.2620      -2297.249          46.682    23120275.018   120393339.2140      -2276.365          42.662    23120275.018    90728925.3580      -1715.478          49.713    23120275.018    93095766.8890      -1760.230          42.689  
C30  24304709.127   127722108.5180       2582.289          44.501    24304709.127   126560998.4410       2558.814          40.480    24304709.127    95376899.2180       1928.333          48.093    24304709.127    97864992.2410       1978.637          41.069  
C37  22372776.350   117569733.2510      -1238.406          48.894    22372776.350   116500917.4950      -1227.148          44.874    22372776.350    87795580.0250       -924.784          52.178    22372776.350    90085899.5040       -948.909          45.155  
C38  38500465.232   202321310.3520       1886.343          39.725    38500465.232   200482025.7120       1869.194          35.704    38500465.232   151084095.3920       1408.633          43.654    38500465.232   155025419.6200       1445.380          36.630  
C39  39953696.130   209958090.2630      -1659.768          37.015    39953696.130   208049380.3520      -1644.679          32.995    39953696.130   156786885.5860      -1239.437          40.658    39953696.130   160876978.2530      -1271.770          33.634  
C40  36935643.064   194098114.3540       -163.145          42.420    36935643.064   192333586.0420       -161.662          38.399    36935643.064   144943397.0820       -121.829          46.812    36935643.064   148724529.1800       -125.007          39.789  
C46  22479044.606   118128176.7040       1832.454          48.278    22479044.606   117054284.1880       1815.795          44.257    22479044.606    88212599.4870       1368.391          51.110    22479044.606    90513797.7340       1404.088          44.087  
C59  38645082.135   203081277.3040          5.277          39.456    38645082.135   201235083.8740          5.229          35.436    38645082.135   151651603.1820          3.941          43.360    38645082.135   155607731.9600          4.043          36.336  
C60  36997830.038   194424909.1110         45.739          42.257    36997830.038   192657409.9370         45.323          38.237    36997830.038   145187432.1280         34.156          46.704    36997830.038   148974930.3570         35.047          39.681  
E01  26252593.460   137958309.7720      -1407.556          45.658    26252593.585   103020816.2300      -1051.097          48.608    26252593.460   105708315.2800      -1078.517          48.584  
E09  27564261.374   144851171.1830      -2121.927          43.154    27564262.625   108168087.2890      -1584.556          46.216    27564261.374   110989858.4390      -1625.892          46.193  
E10  26347949.885   138459411.1720       2960.779          45.424    26347950.261   103395016.3100       2210.972          48.271    26347949.885   106092276.0930       2268.649          48.248  
E12  24569905.895   129115726.9390       2262.424          48.432    24569900.388    96417566.6860       1689.472          51.083    24569905.895    98932829.7330       1733.545          51.060  
E24  25963491.732   136439069.9370       1790.369          46.385    25963490.605   101886314.0390       1336.964          49.241    25963491.732   104544222.4190       1371.841          49.217  
E26  27757223.869   145865195.9390      -2493.008          43.501    27757221.490   108925299.3230      -1861.662          46.372    27757223.869   111766838.4470      -1910.227          46.348  
E31  23900911.372   125600136.9930        396.078          50.020    23900914.126    93792320.8980        295.773          53.163    23900911.372    96239066.0070        303.489          53.139  
E33  24074420.413   126511933.1550       -478.512          49.990    24074418.535    94473189.4690       -357.330          52.453    24074420.413    96937715.0150       -366.652          52.429  
G01  20757070.980   109079144.2250       -634.159          49.563    20757070.980   109079144.2250       -634.159          46.563    20757070.980   109079144.2250       -634.159          51.063    20757071.883    84996739.4580       -494.150          45.932    20757071.883    84996739.4580       -494.150          47.432    20757072.088    81455209.4490       -473.560          50.402  
G07  21200102.648   111407291.3510      -2553.867          48.419    21200102.648   111407291.3510      -2553.867          45.419    21200102.648   111407291.3510      -2553.867          49.919    21200100.480    86810867.5020      -1990.026          45.127    21200100.480    86810867.5020      -1990.026          46.627    21200099.990    83193746.0990      -1907.108          49.597  
G13  23770711.414   124915931.5950       -354.223          43.131    23770711.414   124915931.5950       -354.223          40.131    23770711.414   124915931.5950       -354.223          44.631    23770709.156    97337080.3090       -276.018          40.424    23770709.156    97337080.3090       -276.018          41.924    23770708.646    93281366.6250       -264.517          44.894  
G14  21078274.340   110767079.2750       1266.643          49.736    21078274.340   110767079.2750       1266.643          46.736    21078274.340   110767079.2750       1266.643          51.236    21078272.805    86312003.5380        986.994          45.988    21078272.805    86312003.5380        986.994          47.488    21078272.458    82715668.6940        945.870          50.457  
G17  20978166.380   110241008.3950        664.598          49.751    20978166.380   110241008.3950        664.598          46.751    20978166.380   110241008.3950        664.598          51.251    20978164.213    85902075.5880        517.868          45.999    20978164.213    85902075.5880        517.868          47.499    20978163.723    82322820.5150        496.291          50.468  
G19  23250808.823   122183825.0370       2519.301          45.001    23250808.823   122183825.0370       2519.301          42.001    23250808.823   122183825.0370       2519.301          46.501    23250805.842    95208163.1490       1963.092          42.083    23250805.842    95208163.1490       1963.092          43.583    23250805.168    91241153.7060       1881.296          46.553  
G21  22837180.531   120010193.6900      -2783.437          46.259    22837180.531   120010193.6900      -2783.437          43.259    22837180.531   120010193.6900      -2783.437          47.759    22837178.544    93514428.5060      -2168.912          43.430    22837178.544    93514428.5060      -2168.912          44.930    22837178.094    89617992.2210      -2078.540          47.900  
G30  20451773.542   107474795.3580       -428.152          50.236    20451773.542   107474795.3580       -428.152          47.236    20451773.542   107474795.3580       -428.152          51.736    20451774.264    83746596.7440       -333.625          48.426    20451774.264    83746596.7440       -333.625          49.926    20451774.428    80257155.8540       -319.724          52.896  
I02  37228409.032   146092273.6260        189.915          47.581  
I03  37299583.499   146371577.5230        -16.982          48.011  
I06  39805446.295   156205121.3900        -30.151          42.298  
I09  40023571.086   157061089.9220       -317.526          42.058  
J02  38987443.718   204880399.5670        977.039          45.255    38987443.718   204880399.5670        977.039          46.755    38987443.718   204880399.5670        977.039          45.255    38987443.829   152995104.0070        729.607          48.196    38987443.829   152995104.0070        729.607          48.196  
J03  39642756.543   208324091.7050       -535.390          46.438    39642756.543   208324091.7050       -535.390          47.938    39642756.543   208324091.7050       -535.390          46.438    39642756.432   155566691.4230       -399.804          49.837    39642756.432   155566691.4230       -399.804          49.837  
J04  38267822.539   201098764.7470        -98.093          41.250    38267822.539   201098764.7470        -98.093          42.750    38267822.539   201098764.7470        -98.093          41.250    38267821.542   150171151.5810        -73.251          44.183    38267821.542   150171151.5810        -73.251          44.183  
J07  37732915.322   198287808.3510         -3.528          45.507    37732915.322   198287808.3510         -3.528          47.007    37732915.322   198287808.3510         -3.528          45.507    37732913.993   148072059.4630         -2.635          48.287    37732913.993   148072059.4630         -2.635          48.287  
R12  20265617.459   108255290.9280      -1340.909          46.923  
R13  19818657.049   105830522.9410       1834.829          48.334  
R22  22025827.816   117575364.6790      -3769.953          43.018  
R23  19158410.657   102484578.4820       -130.103          49.174  
R24  21089628.047   112775718.8720       3256.648          45.211  
S22  38852187.511   204169623.4030         -0.012          41.330    38852187.511   152464329.1640         -0.009          42.378  
S23  40135502.255   210913487.8970         -1.228          39.071    40135502.255   157500331.8710         -0.917          40.078  
S26  37656476.371   197886118.9520          1.062          43.207    37656476.371   147772101.8150          0.793          44.422  
S27  38208101.727   200784929.7640        -12.218          42.333    38208101.727   149936798.2000         -9.124          43.516  
S28  36923230.476   194032885.7650         -8.247          44.743    36923230.476   144894687.4220         -6.159          46.408  
S30  38647003.371   203091373.4670          4.398          41.654    38647003.371   151659142.5240          3.284          42.857  
S32  36782565.680   193293687.2730         -2.270          45.264    36782565.680   144342688.5480         -1.695          46.726  
S34  36783436.076   193298261.2380          0.036          45.208    36783436.076   144346104.1710          0.027          46.694  
S37  37733756.867   198292230.7000         -4.160          43.106    37733756.867   148075367.0810         -3.107          44.286  
S43  36948859.626   194167567.8600         -8.625          44.620    36948859.626   144995261.7130         -6.440          46.326  
S44  36998163.391   194426660.8930         46.742          44.458    36998163.391   145188740.2770         34.904          46.204  
> 2023 01 08 11 30  0.0000000  0 64
C01  38704592.191   203394004.7590         37.384          38.965    38704592.191   201544968.3520         37.044          34.945    38704590.602   151885127.1890         27.917          42.598    38704590.602   155847347.8980         28.645          35.575  
C02  36963967.013   194246957.7120         10.198          42.312    36963967.013   192481076.2790         10.105          38.291    36963962.336   145054527.9910          7.615          46.746    36963962.336   148838559.1560          7.814          39.722  
C03  37033926.196   194614595.6990         40.131          42.056    37033926.196   192845372.1020         39.767          38.035    37033923.078   145329068.9690         29.968          46.521    37033923.078   149120262.0720         30.750          39.497  
C04  40343168.549   212004781.6390         25.855          36.630    40343168.549   210077465.4420         25.620          32.610    40343164.262   158315242.1930         19.307          40.466    40343164.262   162445205.0330         19.811          33.442  
C05  37999115.833   199686701.4750         11.973          40.306    37999115.833   197871367.8250         11.864          36.285    37999113.045   149116681.7190          8.941          44.164    37999113.045   153006682.1110          9.174          37.141  
C06  38745312.101   203607989.3300      -1702.312          39.024    38745312.101   201757007.6090      -1686.836          35.004    38745308.983   152044914.8620      -1271.207          42.660    38745308.983   156011303.9450      -1304.369          35.637  
C07  36330409.843   190917592.3120        -18.752          44.169    36330409.843   189181977.8370        -18.581          40.148    36330405.646   142568315.4510        -14.003          48.478    36330405.646   146287488.8980        -14.368          41.454  
C08  39046279.395   205189583.1340       2035.481          38.687    39046279.395   203324223.2870       2016.976          34.666    39046275.677   153225972.8170       1520.002          42.129    39046275.677   157223172.1080       1559.654          35.105  
C09  37499794.678   197062751.1000      -1575.881          40.689    37499794.678   195271271.5440      -1561.555          36.668    37499793.719   147157245.4330      -1176.795          44.497    37499793.719   150996130.0970      -1207.494          37.473  
C10  36471654.101   191659835.8980         84.440          44.223    36471654.101   189917473.7530         83.672          40.203    36471653.172   143122601.0820         63.056          48.692    36471653.172   146856234.1540         64.701          41.668  
C13  39416242.559   207133752.6850       1845.918          38.197    39416242.559   205250718.5700       1829.137          34.176    39416246.156   154677816.4470       1378.445          41.398    39416246.156   158712889.9200       1414.405          34.374  
C16  39063330.966   205279189.7480      -1687.630          38.484    39063330.966   203413015.2960      -1672.288          34.463    39063333.095   153292909.7880      -1260.243          41.740    39063333.095   157291855.2610      -1293.119          34.716  
C23  26293230.492   138171858.8170      -2931.274          40.446    26293230.492   136915751.0100      -2904.626          36.426    26293230.492   103180284.1820      -2188.939          44.803    26293230.492   105871943.7690      -2246.041          37.780  
C27  21538799.875   113187157.2930        171.965          49.672    21538799.875   112158183.1350        170.401          45.652    21538799.875    84522877.1990        128.415          54.258    21538799.875    86727821.8220        131.765          47.234  
C28  23253376.837   122197320.0410      -2364.667          46.464    23253376.837   121086435.3140      -2343.170          42.443    23253376.837    91251245.4850      -1765.823          49.475    23253376.837    93631712.7590      -1811.888          42.451  
C30  24159664.345   126959893.0410       2498.645          44.777    24159664.345   125805712.1950       2475.930          40.757    24159664.345    94807712.3360       1865.871          48.397    24159664.345    97280957.0060       1914.546          41.374  
C37  22446998.100   117959771.1800      -1361.813          48.902    22446998.100   116887409.6240      -1349.433          44.881    22446998.100    88086842.1150      -1016.938          51.905    22446998.100    90384759.7350      -1043.467          44.881  
C38  38393236.943   201757821.8900       1869.878          39.897    38393236.943   199923659.8730       1852.879          35.876    38393236.943   150663308.5540       1396.337          43.815    38393236.943   154593655.7340       1432.764          36.791  
C39  40048263.235   210455043.7520      -1652.913          36.820    40048263.235   208541816.0820      -1637.887          32.799    40048263.235   157157987.2180      -1234.318          40.571    40048263.235   161257760.7970      -1266.518          33.548  
C40  36944304.796   194143632.0660       -140.303          42.385    36944304.796   192378689.9570       -139.028          38.364    36944304.796   144977387.5820       -104.772          46.786    36944304.796   148759406.3890       -107.505          39.762  
C46  22376953.979   117591686.8400       1743.103          48.628    22376953.979   116522671.5050       1727.257          44.607    22376953.979    87811973.9390       1301.668          51.365    22376953.979    90102721.0850       1335.624          44.342  
C59  38644763.753   203079604.1950          5.876          39.457    38644763.753   201233425.9750          5.823          35.436    38644763.753   151650353.7820          4.388          43.360    38644763.753   155606449.9680          4.503          36.337  
C60  36995218.055   194411183.0490         45.764          42.266    36995218.055   192643808.6570         45.348          38.245    36995218.055   145177182.1470         34.175          46.711    36995218.055   148964412.9860         35.066          39.687  
E01  26334279.668   138387573.6950      -1454.465          45.518    26334279.793   103341370.4580      -1086.126          48.414    26334279.668   106037231.7920      -1114.460          48.390  
E09  27685870.139   145490229.5600      -2137.322          42.861    27685871.391   108645306.2070      -1596.052          46.077    27685870.139   111479526.5460      -1637.688          46.054  
E10  26180288.484   137578344.5630       2912.041          45.710    26180288.860   102737076.9590       2174.576          48.669    26180288.484   105417173.1070       2231.304          48.646  
E12  24443595.512   128451961.3970       2161.881          48.760    24443590.005    95921897.6120       1614.392          51.388    24443595.512    98424230.1610       1656.506          51.365  
E24  25861138.358   135901199.3300       1795.111          46.562    25861137.232   101484657.4160       1340.505          49.338    25861138.358   104132087.7980       1375.475          49.314  
E26  27901394.295   146622816.6420      -2556.793          43.163    27901391.917   109491055.0430      -1909.293          46.216    27901394.295   112347353.0120      -1959.101          46.192  
E31  23879415.300   125487174.3720        356.467          50.016    23879418.054    93707965.6950        266.193          53.251    23879415.300    96152510.2330        273.137          53.227  
E33  24105746.734   126676554.0830       -618.547          49.955    24105744.856    94596120.6810       -461.902          52.360    24105746.734    97063853.1290       -473.952          52.336  
G01  20799566.347   109302458.8840       -854.097          49.399    20799566.347   109302458.8840       -854.097          46.399    20799566.347   109302458.8840       -854.097          50.899    20799567.250    85170750.8800       -665.530          45.849    20799567.250    85170750.8800       -665.530          47.349    20799567.454    81621970.3950       -637.800          50.318  
G07  21349965.759   112194827.3140      -2695.153          48.145    21349965.759   112194827.3140      -2695.153          45.145    21349965.759   112194827.3140      -2695.153          49.645    21349963.591    87424531.8890      -2100.119          44.817    21349963.591    87424531.8890      -2100.119          46.317    21349963.101    83781841.1360      -2012.614          49.287  
G13  23795547.437   125046445.7770       -515.074          43.080    23795547.437   125046445.7770       -515.074          40.080    23795547.437   125046445.7770       -515.074          44.580    23795545.179    97438779.6720       -401.356          40.398    23795545.179    97438779.6720       -401.356          41.898    23795544.669    93378828.5150       -384.633          44.867  
G14  21007419.277   110394733.4030       1215.003          49.968    21007419.277   110394733.4030       1215.003          46.968    21007419.277   110394733.4030       1215.003          51.468    21007417.741    86021863.8970        946.756          46.156    21007417.741    86021863.8970        946.756          47.656    21007417.394    82437618.2050        907.308          50.626  
G17  20943275.186   110057653.9310        558.363          49.899    20943275.186   110057653.9310        558.363          46.899    20943275.186   110057653.9310        558.363          51.399    20943273.019    85759201.9800        435.088          46.120    20943273.019    85759201.9800        435.088          47.620    20943272.528    82185899.9730        416.960          50.589  
G19  23109193.438   121439631.1650       2441.771          45.311    23109193.438   121439631.1650       2441.771          42.311    23109193.438   121439631.1650       2441.771          46.811    23109190.457    94628271.8200       1902.679          42.488    23109190.457    94628271.8200       1902.679          43.988    23109189.783    90685424.5160       1823.401          46.957  
G21  22999247.441   120861861.0540      -2892.857          45.967    22999247.441   120861861.0540      -2892.857          42.967    22999247.441   120861861.0540      -2892.857          47.467    22999245.454    94178065.4120      -2254.174          43.211    22999245.454    94178065.4120      -2254.174          44.711    22999245.005    90253977.5900      -2160.250          47.681  
G30  20481730.862   107632222.1350       -621.246          50.159    20481730.862   107632222.1350       -621.246          47.159    20481730.862   107632222.1350       -621.246          51.659    20481731.584    83869266.9600       -484.088          48.299    20481731.584    83869266.9600       -484.088          49.799    20481731.748    80374714.8120       -463.918          52.769  
I02  37213899.285   146035334.2620        189.660          47.617  
I03  37300821.433   146376435.4420        -15.402          48.005  
I06  39807781.505   156214285.2560        -30.939          42.295  
I09  40047195.957   157153798.9930       -300.499          42.034  
J02  38931638.444   204587140.8710        977.810          45.262    38931638.444   204587140.8710        977.810          46.762    38931638.444   204587140.8710        977.810          45.262    38931638.554   152776112.1240        730.183          48.194    38931638.554   152776112.1240        730.183          48.194  
J03  39673238.630   208484276.1560       -532.353          46.440    39673238.630   208484276.1560       -532.353          47.940    39673238.630   208484276.1560       -532.353          46.440    39673238.520   155686309.6820       -397.536          49.836    39673238.520   155686309.6820       -397.536          49.836  
J04  38273233.755   201127200.8780        -91.569          41.332    38273233.755   201127200.8780        -91.569          42.832    38273233.755   201127200.8780        -91.569          41.332    38273232.758   150192386.3550        -68.379          44.239    38273232.758   150192386.3550        -68.379          44.239  
J07  37733114.712   198288856.1540         -3.457          45.507    37733114.712   198288856.1540         -3.457          47.007    37733114.712   198288856.1540         -3.457          45.507    37733113.384   148072841.9130         -2.582          48.287    37733113.384   148072841.9130         -2.582          48.287  
R12  20345736.715   108683273.6180      -1512.531          46.739  
R13  19719316.138   105300048.0180       1699.898          48.353  
R14  23443230.433   124965610.1570       3673.813          38.720  
R22  22239888.301   118718034.0840      -3845.677          42.412  
R23  19172674.450   102560880.1560       -377.674          49.009  
R24  20911479.906   111823080.7010       3092.879          45.586  
S22  38852188.250   204169627.2860         -0.013          41.330    38852188.250   152464332.0640         -0.010          42.378  
S23  40135571.203   210913850.2210         -1.188          39.071    40135571.203   157500602.4380         -0.887          40.078  
S26  37656417.160   197885807.7980          1.012          43.207    37656417.160   147771869.4590          0.756          44.422  
S27  38208799.769   200788597.9990        -12.348          42.333    38208799.769   149939537.4670         -9.221          43.516  
S28  36923692.465   194035313.5360         -8.204          44.743    36923692.465   144896500.3680         -6.126          46.408  
S30  38646735.370   203089965.1120          4.990          41.654    38646735.370   151658090.8310          3.727          42.857  
S32  36782694.537   193294364.4210         -2.244          45.264    36782694.537   144343194.2100         -1.676          46.726  
S34  36783434.128   193298250.9980          0.032          45.208    36783434.128   144346096.5240          0.024          46.694  
S37  37733992.908   198293471.1030         -4.109          43.106    37733992.908   148076293.3560         -3.068          44.286  
S43  36949364.953   194170223.3720         -9.078          44.621    36949364.953   144997244.7260         -6.779          46.326  
S44  36995494.405   194412635.2750         46.759          44.466    36995494.405   145178266.6020         34.917          46.211  
> 2023 01 08 11 35  0.0000000  0 63
C01  38702447.862   203382736.2360         37.736          38.968    38702447.862   201533802.2710         37.393          34.948    38702446.273   151876712.3830         28.180          42.603    38702446.273   155838713.5760         28.915          35.580  
C02  36963371.791   194243829.8020         10.654          42.313    36963371.791   192477976.8040         10.557          38.293    36963367.115   145052192.2140          7.956          46.747    36963367.115   148836162.4450          8.163          39.724  
C03  37031624.159   194602498.4140         40.514          42.061    37031624.159   192833384.7920         40.145          38.040    37031621.041   145320035.2820         30.254          46.526    37031621.041   149110992.7240         31.043          39.502  
C04  40341695.243   211997039.3650         25.758          36.633    40341695.243   210069793.5520         25.524          32.612    40341690.956   158309460.6240         19.235          40.467    40341690.956   162439272.6410         19.736          33.443  
C05  37998408.318   199682983.4580         12.813          40.306    37998408.318   197867683.6090         12.696          36.286    37998405.530   149113905.2780          9.568          44.164    37998405.530   153003833.2420          9.817          37.141  
C06  38842730.411   204119926.0070      -1710.266          38.877    38842730.411   202264290.3170      -1694.718          34.856    38842727.293   152427205.2380      -1277.146          42.402    38842727.293   156403567.1140      -1310.463          35.379  
C07  36331055.409   190920984.7850         -3.887          44.165    36331055.409   189185339.4680         -3.852          40.145    36331051.212   142570848.7910         -2.903          48.469    36331051.212   146290088.3250         -2.979          41.445  
C08  38930217.000   204579671.1340       2030.183          38.867    38930217.000   202719855.9420       2011.727          34.847    38930213.282   152770519.0510       1516.046          42.444    38930213.282   156755836.9390       1555.595          35.420  
C09  37590513.231   197539480.3120      -1602.005          40.537    37590513.231   195743666.8550      -1587.441          36.516    37590512.272   147513244.5210      -1196.302          44.353    37590512.272   151361416.1170      -1227.510          37.330  
C10  36466352.406   191631975.3040        101.300          44.224    36466352.406   189889866.4370        100.379          40.203    36466351.477   143101796.0930         75.646          48.691    36466351.477   146834886.4260         77.619          41.668  
C13  39310796.258   206579628.6350       1847.857          38.379    39310796.258   204701632.0110       1831.058          34.358    39310799.856   154264022.5140       1379.893          41.633    39310799.856   158288301.3620       1415.890          34.609  
C16  39159826.385   205786276.5950      -1692.604          38.323    39159826.385   203915492.2620      -1677.217          34.303    39159828.513   153671578.5370      -1263.958          41.525    39159828.513   157680402.3250      -1296.930          34.501  
C27  21532826.571   113155767.3720         37.788          49.712    21532826.571   112127078.5770         37.444          45.692    21532826.571    84499436.6740         28.218          54.286    21532826.571    86703769.8040         28.954          47.262  
C28  23390137.229   122916000.7550      -2425.437          46.230    23390137.229   121798582.5660      -2403.388          42.209    23390137.229    91787922.6420      -1811.203          49.279    23390137.229    94182390.1890      -1858.452          42.255  
C30  24019477.743   126223207.4740       2412.141          45.047    24019477.743   125075723.7700       2390.213          41.026    24019477.743    94257589.9970       1801.274          48.612    24019477.743    96716483.6490       1848.264          41.588  
C37  22528255.028   118386779.2150      -1484.803          48.843    22528255.028   117310535.7670      -1471.304          44.822    22528255.028    88405711.7510      -1108.781          51.645    22528255.028    90711947.7100      -1137.706          44.622  
C38  38287011.494   201199603.3840       1851.215          40.068    38287011.494   199370516.0810       1834.386          36.047    38287011.494   150246457.0720       1382.401          43.965    38287011.494   154165929.8660       1418.463          36.941  
C39  40142380.466   210949633.1420      -1644.008          36.624    40142380.466   209031909.2040      -1629.062          32.604    40142380.466   157527323.4500      -1227.668          40.479    40142380.466   161636731.8880      -1259.694          33.455  
C40  36951662.723   194182298.2330       -117.481          42.354    36951662.723   192417004.6120       -116.413          38.334    36951662.723   145006261.6670        -87.729          46.763    36951662.723   148789033.7110        -90.018          39.739  
C46  22280142.283   117082937.9400       1647.523          48.861    22280142.283   116018547.5950       1632.546          44.840    22280142.283    87432064.0460       1230.294          51.634    22280142.283    89712900.4990       1262.388          44.610  
C59  38644411.241   203077751.7350          6.473          39.457    38644411.241   201231590.3560          6.414          35.436    38644411.241   151648970.4520          4.833          43.361    38644411.241   155605030.5500          4.960          36.337  
C60  36992605.229   194397452.5530         45.769          42.274    36992605.229   192630202.9840         45.353          38.253    36992605.229   145166928.8540         34.178          46.717    36992605.229   148953892.2160         35.070          39.693  
E01  26418687.292   138831138.7500      -1502.875          45.374    26418687.417   103672604.1030      -1122.277          48.199    26418687.292   106377106.3150      -1151.553          48.176  
E09  27808162.893   146132882.3210      -2145.898          42.569    27808164.145   109125209.2420      -1602.457          45.925    27808162.893   111971948.7910      -1644.260          45.902  
E10  26015572.366   136712755.5170       2857.615          45.995    26015572.741   102090695.5280       2133.934          48.966    26015572.366   104753929.5520       2189.601          48.942  
E12  24323158.748   127819061.9270       2056.702          49.160    24323153.240    95449277.8780       1535.849          51.678    24323158.748    97939281.2170       1575.914          51.654  
E24  25758571.874   135362208.8180       1797.799          46.739    25758570.748   101082164.5020       1342.512          49.427    25758571.874   103719095.0680       1377.534          49.403  
E26  28049034.094   147398669.0220      -2614.552          42.809    28049031.716   110070425.3260      -1952.425          46.048    28049034.094   112941837.3030      -2003.358          46.024  
E31  23860273.615   125386584.1370        313.583          50.012    23860276.369    93632849.6100        234.169          53.330    23860273.615    96075434.5980        240.278          53.307  
E33  24144992.368   126882791.2830       -755.880          49.885    24144990.491    94750128.9800       -564.456          52.248    24144992.368    97221879.0350       -579.181          52.224  
G01  20854520.905   109591247.0360      -1070.483          49.205    20854520.905   109591247.0360      -1070.483          46.205    20854520.905   109591247.0360      -1070.483          50.705    20854521.808    85395780.6090       -834.143          45.752    20854521.808    85395780.6090       -834.143          47.252    20854522.012    81837623.8850       -799.387          50.221  
G07  21507681.119   113023627.1270      -2828.881          47.852    21507681.119   113023627.1270      -2828.881          44.852    21507681.119   113023627.1270      -2828.881          49.352    21507678.951    88070349.9240      -2204.323          44.527    21507678.951    88070349.9240      -2204.323          46.027    21507678.461    84400750.0870      -2112.476          48.996  
G13  23829422.945   125224462.7730       -670.795          43.002    23829422.945   125224462.7730       -670.795          40.002    23829422.945   125224462.7730       -670.795          44.502    23829420.687    97577494.2140       -522.698          40.358    23829420.687    97577494.2140       -522.698          41.858    23829420.177    93511763.2840       -500.918          44.828  
G14  20939627.304   110038484.1830       1159.296          50.130    20939627.304   110038484.1830       1159.296          47.130    20939627.304   110038484.1830       1159.296          51.630    20939625.769    85744267.1020        903.348          46.332    20939625.769    85744267.1020        903.348          47.832    20939625.422    82171587.9440        865.708          50.801  
G17  20914343.816   109905618.5550        455.845          50.001    20914343.816   109905618.5550        455.845          47.001    20914343.816   109905618.5550        455.845          51.501    20914341.648    85640732.8550        355.204          46.232    20914341.648    85640732.8550        355.204          47.732    20914341.158    82072367.0630        340.404          50.702  
G19  22972039.064   120718880.0670       2363.063          45.600    22972039.064   120718880.0670       2363.063          42.600    22972039.064   120718880.0670       2363.063          47.100    22972036.084    94066647.5890       1841.348          42.845    22972036.084    94066647.5890       1841.348          44.345    22972035.410    90147201.2940       1764.625          47.315  
G21  23167305.067   121745009.8400      -2993.299          45.661    23167305.067   121745009.8400      -2993.299          42.661    23167305.067   121745009.8400      -2993.299          47.161    23167303.081    94866233.2980      -2332.441          42.924    23167303.081    94866233.2980      -2332.441          44.424    23167302.631    90913471.8140      -2235.256          47.393  
G30  20522683.993   107847432.2910       -813.233          50.105    20522683.993   107847432.2910       -813.233          47.105    20522683.993   107847432.2910       -813.233          51.605    20522684.715    84036963.1850       -633.688          48.132    20522684.715    84036963.1850       -633.688          49.632    20522684.878    80535423.6940       -607.284          52.602  
I02  37199413.948   145978490.6920        189.274          47.654  
I03  37301938.126   146380817.5870        -13.811          48.000  
I06  39810176.353   156223683.1520        -31.711          42.293  
I09  40069511.338   157241369.3380       -283.271          42.010  
J02  38875824.936   204293838.9100        977.326          45.269    38875824.936   204293838.9100        977.326          46.769    38875824.936   204293838.9100        977.326          45.269    38875825.047   152557087.9330        729.821          48.191    38875825.047   152557087.9330        729.821          48.191  
J03  39703520.991   208643411.0370       -528.393          46.439    39703520.991   208643411.0370       -528.393          47.939    39703520.991   208643411.0370       -528.393          46.439    39703520.881   155805144.1710       -394.579          49.834    39703520.881   155805144.1710       -394.579          49.834  
J04  38278287.611   201153759.0720        -85.576          41.417    38278287.611   201153759.0720        -85.576          42.917    38278287.611   201153759.0720        -85.576          41.417    38278286.614   150212218.7720        -63.904          44.292    38278286.614   150212218.7720        -63.904          44.292  
J07  37733310.028   198289882.5420         -3.385          45.507    37733310.028   198289882.5420         -3.385          47.007    37733310.028   198289882.5420         -3.385          45.507    37733308.699   148073608.3720         -2.528          48.287    37733308.699   148073608.3720         -2.528          48.287  
R12  20435524.718   109162905.0110      -1685.101          46.561  
R13  19627853.532   104811642.8030       1554.390          48.294  
R14  23235881.155   123860321.8250       3693.513          39.345  
R22  22457842.730   119881489.6250      -3908.581          41.780  
R23  19200659.535   102710581.4900       -619.233          48.799  
R24  20742747.992   110920795.3290       2921.084          45.916  
S22  38852189.048   204169631.4790         -0.015          41.330    38852189.048   152464335.1950         -0.011          42.378  
S23  40135637.878   210914200.6010         -1.148          39.071    40135637.878   157500864.0850         -0.857          40.078  
S26  37656360.772   197885511.4750          0.963          43.207    37656360.772   147771648.1790          0.719          44.422  
S27  38209505.042   200792304.2330        -12.471          42.333    38209505.042   149942305.1090         -9.313          43.516  
S28  36924151.861   194037727.6740         -8.156          44.743    36924151.861   144898303.1340         -6.091          46.408  
S30  38646433.627   203088379.4420          5.580          41.655    38646433.627   151656906.7260          4.167          42.858  
S32  36782821.921   193295033.8270         -2.218          45.264    36782821.921   144343694.0920         -1.656          46.726  
S34  36783432.426   193298242.0550          0.028          45.208    36783432.426   144346089.8470          0.021          46.694  
S37  37734225.939   198294695.6880         -4.055          43.106    37734225.939   148077207.8190         -3.028          44.286  
S43  36949896.028   194173014.1890         -9.527          44.622    36949896.028   144999328.7780         -7.114          46.327  
S44  36992825.062   194398607.7820         46.754          44.474    36992825.062   145167791.5260         34.914          46.217  
> 2023 01 08 11 40  0.0000000  0 65
C01  38700283.967   203371364.8880         38.069          38.971    38700283.967   201522534.2990         37.723          34.951    38700282.378   151868220.7920         28.428          42.609    38700282.378   155830000.4650         29.170          35.585  
C02  36962750.708   194240565.9850         11.104          42.315    36962750.708   192474742.6580         11.003          38.294    36962746.031   145049754.9480          8.292          46.749    36962746.031   148833661.5990          8.508          39.725  
C03  37029300.894   194590289.5750         40.875          42.066    37029300.894   192821286.9420         40.503          38.045    37029297.776   145310918.2910         30.524          46.531    37029297.776   149101637.8990         31.320          39.507  
C04  40340227.877   211989328.3020         25.647          36.635    40340227.877   210062152.5900         25.414          32.615    40340223.590   158303702.3630         19.152          40.468    40340223.590   162433364.1640         19.652          33.445  
C05  37997653.059   199679014.5450         13.646          40.307    37997653.059   197863750.7770         13.522          36.286    37997650.271   149110941.4790         10.190          44.165    37997650.271   153000792.1270         10.456          37.141  
C06  38940545.431   204633947.4060      -1716.207          38.728    38940545.431   202773638.7940      -1700.605          34.707    38940542.313   152811052.3870      -1281.583          42.144    38940542.313   156797427.6660      -1315.016          35.120  
C07  36330856.842   190919941.3090         10.811          44.163    36330856.842   189184305.4790         10.713          40.143    36330852.645   142570069.5720          8.073          48.462    36330852.645   146289288.7780          8.284          41.439  
C08  38814528.156   203971722.1580       2022.396          39.044    38814528.156   202117433.7750       2004.010          35.023    38814524.439   152316531.1790       1510.231          42.757    38814524.439   156290005.9060       1549.628          35.734  
C09  37682669.795   198023766.3260      -1626.252          40.383    37682669.795   196223550.2680      -1611.468          36.363    37682668.836   147874886.6730      -1214.409          44.218    37682668.836   151732492.4120      -1246.089          37.194  
C10  36460088.393   191599057.6910        118.143          44.226    36460088.393   189857248.0760        117.069          40.205    36460087.463   143077214.7590         88.224          48.694    36460087.463   146809663.8390         90.525          41.670  
C13  39205305.277   206025269.7860       1847.484          38.555    39205305.277   204152312.7880       1830.689          34.534    39205308.874   153850053.2440       1379.615          41.900    39205308.874   157863532.8930       1415.605          34.876  
C16  39256546.582   206294544.6640      -1695.503          38.157    39256546.582   204419139.7130      -1680.089          34.136    39256548.711   154051129.3680      -1266.122          41.339    39256548.711   158069854.4820      -1299.151          34.315  
C27  21534426.012   113164172.4880        -93.269          49.703    21534426.012   112135407.2840        -92.421          45.682    21534426.012    84505713.2210        -69.649          54.278    21534426.012    86710210.0880        -71.466          47.254  
C28  23530179.571   123651928.2270      -2479.666          45.982    23530179.571   122527819.7890      -2457.124          41.961    23530179.571    92337478.8710      -1851.699          49.127    23530179.571    94746282.6680      -1900.004          42.103  
C30  23884303.701   125512863.0920       2323.090          45.303    23884303.701   124371837.0640       2301.971          41.282    23884303.701    93727138.0230       1734.775          48.777    23884303.701    96172193.7980       1780.030          41.753  
C36  26154581.695   137443254.4750       3017.888          40.735    26154581.695   136193770.3440       2990.453          36.714    26154581.695   102636196.5240       2253.618          44.988    26154581.695   105313662.5200       2312.408          37.965  
C37  22616511.151   118850568.2730      -1606.948          48.640    22616511.151   117770108.5620      -1592.339          44.619    22616511.151    88752047.7370      -1199.994          51.397    22616511.151    91067318.5470      -1231.298          44.374  
C38  38181913.452   200647309.4510       1830.387          40.237    38181913.452   198823243.0010       1813.747          36.216    38181913.452   149834029.7850       1366.847          44.110    38181913.452   153742743.6050       1402.504          37.087  
C39  40235930.840   211441243.6730      -1633.055          36.431    40235930.840   209519050.5490      -1618.210          32.410    40235930.840   157894435.2110      -1219.489          40.376    40235930.840   162013420.4770      -1251.302          33.353  
C40  36957720.140   194214130.1710        -94.755          42.328    36957720.140   192448547.1690        -93.893          38.308    36957720.140   145030032.2700        -70.758          46.743    36957720.140   148813424.4170        -72.604          39.719  
C46  22188963.087   116603788.0340       1545.792          48.924    22188963.087   115543753.5970       1531.740          44.904    22188963.087    87074257.2980       1154.325          51.925    22188963.087    89345759.6630       1184.438          44.902  
C59  38644024.792   203075720.9290          7.065          39.457    38644024.792   201229578.0120          7.001          35.437    38644024.792   151647453.9410          5.276          43.361    38644024.792   155603474.4780          5.414          36.337  
C60  36989992.749   194383723.8760         45.752          42.283    36989992.749   192616599.1140         45.336          38.262    36989992.749   145156676.9210         34.166          46.724    36989992.749   148943372.8400         35.057          39.700  
E01  26505898.140   139289434.8520      -1552.647          45.223    26505898.265   104014838.2050      -1159.444          47.970    26505898.140   106728268.2630      -1189.691          47.946  
E09  27930752.157   146777093.2470      -2147.722          42.281    27930753.408   109606275.8440      -1603.818          45.752    27930752.157   112465564.9560      -1645.657          45.728  
E10  25854122.569   135864331.1100       2797.633          46.277    25854122.945   101457131.8480       2089.141          49.169    25854122.569   104103838.1230       2143.641          49.145  
E12  24208851.228   127218371.8540       1947.208          49.557    24208845.720    95000710.6160       1454.084          51.963    24208851.228    97479012.2000       1492.016          51.939  
E24  25655915.788   134822747.4450       1798.214          46.916    25655914.661   100679319.9700       1342.822          49.514    25655915.788   103305741.5480       1377.852          49.490  
E26  28199799.279   148190945.4190      -2666.289          42.451    28199796.901   110662060.2980      -1991.060          45.856    28199799.279   113548906.2300      -2043.001          45.832  
E31  23843675.048   125299358.0780        267.363          50.010    23843677.802    93567713.2670        199.654          53.399    23843675.048    96008599.0470        204.863          53.375  
E33  24191990.672   127129769.0390       -890.082          49.768    24191988.795    94934560.4210       -664.671          52.120    24191990.672    97411121.7310       -682.011          52.097  
G01  20921703.971   109944296.4330      -1282.348          49.003    20921703.971   109944296.4330      -1282.348          46.003    20921703.971   109944296.4330      -1282.348          50.503    20921704.875    85670884.0360       -999.232          45.643    20921704.875    85670884.0360       -999.232          47.143    20921705.079    82101264.6690       -957.598          50.113  
G06  24347238.846   127945603.6980       3806.503          41.094    24347238.846   127945603.6980       3806.503          38.094    24347238.846   127945603.6980       3806.503          42.594    24347239.569    99697875.9700       2966.106          39.467    24347239.569    99697875.9700       2966.106          40.967    24347239.732    95543798.4460       2842.519          43.936  
G07  21672804.318   113891355.3940      -2954.607          47.520    21672804.318   113891355.3940      -2954.607          44.520    21672804.318   113891355.3940      -2954.607          49.020    21672802.150    88746501.8210      -2302.291          44.293    21672802.150    88746501.8210      -2302.291          45.793    21672801.660    85048728.9870      -2206.362          48.762  
G13  23872026.106   125448343.8920       -820.728          42.900    23872026.106   125448343.8920       -820.728          39.900    23872026.106   125448343.8920       -820.728          44.400    23872023.848    97751947.0340       -639.529          40.306    23872023.848    97751947.0340       -639.529          41.806    23872023.337    93678947.2370       -612.881          44.776  
G14  20875136.542   109699582.9410       1099.317          50.212    20875136.542   109699582.9410       1099.317          47.212    20875136.542   109699582.9410       1099.317          51.712    20875135.007    85480188.2120        856.611          46.515    20875135.007    85480188.2120        856.611          48.015    20875134.660    81918512.3410        820.919          50.984  
G17  20891153.356   109783751.8680        357.274          50.064    20891153.356   109783751.8680        357.274          47.064    20891153.356   109783751.8680        357.274          51.564    20891151.189    85545771.8000        278.396          46.334    20891151.189    85545771.8000        278.396          47.834    20891150.699    81981362.7180        266.796          50.804  
G19  22839404.845   120021882.5420       2283.461          45.871    22839404.845   120021882.5420       2283.461          42.871    22839404.845   120021882.5420       2283.461          47.371    22839401.865    93523532.6340       1779.320          43.137    22839401.865    93523532.6340       1779.320          44.637    22839401.191    89626716.1290       1705.182          47.606  
G21  23340838.915   122656936.3630      -3084.703          45.338    23340838.915   122656936.3630      -3084.703          42.338    23340838.915   122656936.3630      -3084.703          46.838    23340836.928    95576825.3940      -2403.665          42.533    23340836.928    95576825.3940      -2403.665          44.033    23340836.478    91594455.9060      -2303.512          47.003  
G30  20574545.521   108119966.4630      -1003.266          50.094    20574545.521   108119966.4630      -1003.266          47.094    20574545.521   108119966.4630      -1003.266          51.594    20574546.244    84249327.4750       -781.766          47.912    20574546.244    84249327.4750       -781.766          49.412    20574546.407    80738939.4720       -749.192          52.382  
I02  37184963.523   145921784.1180        188.744          47.690  
I03  37302932.776   146384720.8060        -12.209          47.994  
I06  39812629.543   156233309.9990        -32.465          42.290  
I09  40090502.509   157323743.2030       -265.859          41.988  
J02  38820075.161   204000871.8660        975.576          45.275    38820075.161   204000871.8660        975.576          46.775    38820075.161   204000871.8660        975.576          45.275    38820075.272   152338313.8410        728.515          48.187    38820075.272   152338313.8410        728.515          48.187  
J03  39733550.971   208801219.6450       -523.511          46.434    39733550.971   208801219.6450       -523.511          47.934    39733550.971   208801219.6450       -523.511          46.434    39733550.860   155922988.2610       -390.933          49.829    39733550.860   155922988.2610       -390.933          49.829  
J04  38283014.891   201178601.0980        -80.130          41.506    38283014.891   201178601.0980        -80.130          43.006    38283014.891   201178601.0980        -80.130          41.506    38283013.895   150230769.6360        -59.837          44.341    38283013.895   150230769.6360        -59.837          44.341  
J07  37733501.201   198290887.1640         -3.312          45.507    37733501.201   198290887.1640         -3.312          47.007    37733501.201   198290887.1640         -3.312          45.507    37733499.872   148074358.5760         -2.473          48.287    37733499.872   148074358.5760         -2.473          48.287  
R12  20535012.228   109694349.4320      -1857.822          46.377  
R13  19544858.268   104368452.7240       1398.499          48.210  
R14  23027641.173   122750285.5420       3705.377          39.997  
R22  22678980.351   121061937.2630      -3959.028          41.116  
R23  19241995.826   102931702.7760       -853.622          48.579  
R24  20583861.814   110071159.5290       2742.003          46.203  
S22  38852189.905   204169635.9810         -0.016          41.330    38852189.905   152464338.5570         -0.012          42.378  
S23  40135702.261   210914538.9380         -1.108          39.071    40135702.261   157501116.7390         -0.827          40.078  
S26  37656307.223   197885230.0740          0.913          43.208    37656307.223   147771438.0420          0.682          44.423  
S27  38210217.214   200796046.7230        -12.589          42.333    38210217.214   149945099.8260         -9.401          43.516  
S28  36924608.443   194040127.0320         -8.105          44.743    36924608.443   144900094.8620         -6.053          46.408  
S30  38646098.267   203086617.1160          6.168          41.655    38646098.267   151655590.7040          4.606          42.858  
S32  36782947.771   193295695.1740         -2.191          45.264    36782947.771   144344187.9540         -1.636          46.726  
S34  36783430.972   193298234.4150          0.023          45.208    36783430.972   144346084.1410          0.017          46.694  
S37  37734455.847   198295903.8650         -3.999          43.106    37734455.847   148078110.0290         -2.986          44.286  
S43  36950452.573   194175938.8530         -9.970          44.622    36950452.573   145001512.7800         -7.445          46.327  
S44  36990156.618   194384585.0170         46.727          44.483    36990156.618   145157319.9800         34.894          46.224  
