     3.04           OBSERVATION DATA    M: MIXED            RINEX VERSION / TYPE
PosApp V8.01.00     Spirent             20230108 100018 UTC PGM / RUN BY / DATE 
                                                            MARKER NAME         
GEODETIC                                                    MARKER TYPE         
gpssim              Spirent                                 OBSERVER / AGENCY   
rec_num             rec_type            rec_vers            REC # / TYPE / VERS 
1                   ant_type                                ANT # / TYPE        
     1.000                                                  INTERVAL            
  2023     1     8    10     0    0.0000000     GPS         TIME OF FIRST OBS   
  4157177.0658   671230.4766  4774767.0311                  APPROX POSITION XYZ 
        0.0000        0.0000        0.0000                  ANTENNA: DELTA H/E/N
G   12 C1C L1C D1C S1C C2X L2X D2X S2X C5I L5I D5I S5I      SYS / # / OBS TYPES 
E   32 C1B L1B D1B S1B C1C L1C D1C S1C C5I L5I D5I S5I C5Q  SYS / # / OBS TYPES 
       L5Q D5Q S5Q C7I L7I D7I S7I C7Q L7Q D7Q S7Q C8I L8I  SYS / # / OBS TYPES 
       D8I S8I C8Q L8Q D8Q S8Q                              SYS / # / OBS TYPES 
GNSS SIMULATOR OUTPUTS ALIGNED CARRIER PHASES.              COMMENT             
NO FURTHER PHASE SHIFTS APPLIED IN THE RINEX ENCODER.       COMMENT             
G L1C                                                       SYS / PHASE SHIFT   
G L2X  0.00000                                              SYS / PHASE SHIFT   
G L5I                                                       SYS / PHASE SHIFT   
E L1B                                                       SYS / PHASE SHIFT   
E L1C  0.00000                                              SYS / PHASE SHIFT   
E L5I                                                       SYS / PHASE SHIFT   
E L5Q  0.00000                                              SYS / PHASE SHIFT   
E L7I                                                       SYS / PHASE SHIFT   
E L7Q  0.00000                                              SYS / PHASE SHIFT   
E L8I                                                       SYS / PHASE SHIFT   
E L8Q  0.00000                                              SYS / PHASE SHIFT   
DBHZ                                                        SIGNAL STRENGTH UNIT
                                                            END OF HEADER       
> 2023 01 08 10 00  0.0000000  0 20       0.000000000000
G08  25065224.554 9 131718593.471 9     -1476.856 9        54.233 9  25065228.662 8 102637856.360 8     -1150.797 8        49.733 8  25065228.373 9  98361272.349 9     -1102.847 9        56.333 9
G13  20028872.875 9 105252416.357 9       584.920 9        56.112 9  20028871.910 8  82014855.350 8       455.782 8        51.612 8  20028874.460 9  78597577.423 9       436.791 9        58.212 9
G17  24978846.756 9 131264642.468 9      2932.541 9        54.181 9  24978849.710 8 102284107.141 8      2285.097 8        49.681 8  24978853.036 9  98022273.304 9      2189.885 9        56.281 9
G24  24539476.377 9 128955766.578 9      3533.695 9        54.409 9  24539480.130 8 100485001.988 8      2753.528 8        49.909 8  24539480.315 9  96298121.929 9      2638.798 9        56.509 9
G07  24589966.356 9 129221084.914 9     -2971.645 9        54.361 9  24589967.910 8 100691730.364 8     -2315.567 8        49.861 8  24589970.919 9  96496246.802 9     -2219.085 9        56.461 9
G18  24762976.871 9 130130276.290 9     -1359.064 9        54.338 9  24762978.045 8 101400197.172 8     -1059.011 8        49.838 8  24762980.304 9  97175192.852 9     -1014.885 9        56.438 9
G20  23505247.626 9 123520858.940 9     -3646.923 9        54.730 9  23505249.142 8  96250000.434 8     -2841.758 8        50.230 8  23505251.478 9  92239587.340 9     -2723.351 9        56.830 9
G14  20964009.944 9 110166591.329 9       137.363 9        55.781 9  20964009.916 8  85844084.680 8       107.036 8        51.281 8  20964011.792 9  82267252.505 9       102.577 9        57.881 9
G23  24878153.709 9 130735536.206 9      3233.755 9        54.287 9  24878154.788 8 101871828.665 8      2519.809 8        49.787 8  24878157.025 9  97627173.117 9      2414.817 9        56.387 9
G05  21735747.317 9 114222094.087 9     -2422.114 9        55.474 9  21735746.934 8  89004212.973 8     -1887.362 8        50.974 8  21735749.506 9  85295711.021 9     -1808.722 9        57.574 9
G30  21850653.781 9 114825931.813 9     -2258.480 9        55.478 9  21850656.277 8  89474747.758 8     -1759.854 8        50.978 8  21850655.955 9  85746628.858 9     -1686.527 9        57.578 9
G15  21124834.013 9 111011726.282 9      2301.404 9        55.708 9  21124833.519 8  86502628.866 8      1793.302 8        51.208 8  21124835.954 9  82898359.410 9      1718.581 9        57.808 9
E05  23314820.121 9 122520185.705 9       364.405 9        57.976 9  23314820.121 9 122520185.705 9       364.405 9        57.976 9  23314822.645 9  91492343.950 9       272.121 9        57.836 9  23314822.645 9  91492343.950 9       272.121 9        57.836 9  23314822.465 9  93879101.472 9       279.220 9        57.836 9  23314822.465 9  93879101.472 9       279.220 9        57.836 9  23314822.553 9  92685722.713 9       275.670 9        60.846 9  23314822.553 9  92685722.713 9       275.670 9        60.846 9
E09  25209498.747 9 132476778.052 9     -2091.576 9        57.368 9  25209498.747 9 132476778.052 9     -2091.576 9        57.368 9  25209501.661 9  98927456.605 9     -1561.891 9        57.228 9  25209501.661 9  98927456.605 9     -1561.891 9        57.228 9  25209501.387 9 101508173.968 9     -1602.636 9        57.228 9  25209501.387 9 101508173.968 9     -1602.636 9        57.228 9  25209501.521 9 100217815.290 9     -1582.264 9        60.238 9  25209501.521 9 100217815.290 9     -1582.264 9        60.238 9
E13  28148515.210 9 147921399.187 9       333.612 9        56.288 9  28148515.210 9 147921399.187 9       333.612 9        56.288 9  28148518.895 9 110460771.948 9       249.126 9        56.148 9  28148518.895 9 110460771.948 9       249.126 9        56.148 9  28148518.496 9 113342358.912 9       255.625 9        56.148 9  28148518.496 9 113342358.912 9       255.625 9        56.148 9  28148518.692 9 111901565.435 9       252.375 9        59.158 9  28148518.692 9 111901565.435 9       252.375 9        59.158 9
E25  27086488.330 9 142340406.190 9      3132.171 9        56.719 9  27086488.330 9 142340406.190 9      3132.171 9        56.719 9  27086493.209 9 106293149.578 9      2338.959 9        56.579 9  27086493.209 9 106293149.578 9      2338.959 9        56.579 9  27086492.774 9 109066016.098 9      2399.975 9        56.579 9  27086492.774 9 109066016.098 9      2399.975 9        56.579 9  27086492.987 9 107679582.843 9      2369.467 9        59.589 9  27086492.987 9 107679582.843 9      2369.467 9        59.589 9
E31  24963249.672 9 131182733.572 9     -1533.746 9        57.424 9  24963249.672 9 131182733.572 9     -1533.746 9        57.424 9  24963252.848 9  97961127.574 9     -1145.330 9        57.284 9  24963252.848 9  97961127.574 9     -1145.330 9        57.284 9  24963252.600 9 100516636.246 9     -1175.208 9        57.284 9  24963252.600 9 100516636.246 9     -1175.208 9        57.284 9  24963252.722 9  99238881.913 9     -1160.269 9        60.295 9  24963252.722 9  99238881.913 9     -1160.269 9        60.295 9
E15  27821001.577 9 146200303.499 9     -1854.151 9        56.364 9  27821001.577 9 146200303.499 9     -1854.151 9        56.364 9  27821006.697 9 109175543.825 9     -1384.593 9        56.224 9  27821006.697 9 109175543.825 9     -1384.593 9        56.224 9  27821006.298 9 112023603.096 9     -1420.713 9        56.224 9  27821006.298 9 112023603.096 9     -1420.713 9        56.224 9  27821006.494 9 110599573.466 9     -1402.653 9        59.235 9  27821006.494 9 110599573.466 9     -1402.653 9        59.235 9
E03  26332226.691 9 138376750.541 9      2464.622 9        56.970 9  26332226.691 9 138376750.541 9      2464.622 9        56.970 9  26332230.195 9 103333280.945 9      1840.465 9        56.830 9  26332230.195 9 103333280.945 9      1840.465 9        56.830 9  26332229.898 9 106028932.948 9      1888.477 9        56.830 9  26332229.898 9 106028932.948 9      1888.477 9        56.830 9  26332230.044 9 104681106.950 9      1864.471 9        59.841 9  26332230.044 9 104681106.950 9      1864.471 9        59.841 9
E24  24088577.611 9 126586305.951 9      1250.649 9        57.794 9  24088577.611 9 126586305.951 9      1250.649 9        57.794 9  24088578.630 9  94528724.878 9       933.926 9        57.654 9  24088578.630 9  94528724.878 9       933.926 9        57.654 9  24088578.427 9  96994692.435 9       958.289 9        57.654 9  24088578.427 9  96994692.435 9       958.289 9        57.654 9  24088578.526 9  95761708.659 9       946.108 9        60.665 9  24088578.526 9  95761708.659 9       946.108 9        60.665 9
> 2023 01 08 10 00  1.0000000  0 20       0.000000000000
G08  25065505.651 9 131720070.647 9     -1477.465 9        54.233 9  25065509.759 8 102639007.406 8     -1151.271 8        49.733 8  25065509.470 9  98362375.435 9     -1103.302 9        56.333 9
G13  20028761.614 9 105251831.672 9       584.447 9        56.112 9  20028760.648 8  82014399.752 8       455.413 8        51.612 8  20028763.199 9  78597140.808 9       436.438 9        58.212 9
G17  24978288.689 9 131261709.817 9      2932.645 9        54.181 9  24978291.642 8 102281821.962 8      2285.181 8        49.681 8  24978294.967 9  98020083.342 9      2189.966 9        56.281 9
G24  24538803.937 9 128952232.886 9      3533.641 9        54.409 9  24538807.690 8 100482248.463 8      2753.488 8        49.909 8  24538807.874 9  96295483.134 9      2638.759 9        56.509 9
G07  24590531.853 9 129224056.612 9     -2971.736 9        54.361 9  24590533.408 8 100694045.970 8     -2315.641 8        49.861 8  24590536.418 9  96498465.923 9     -2219.157 9        56.461 9
G18  24763235.547 9 130131635.637 9     -1359.612 9        54.337 9  24763236.720 8 101401256.403 8     -1059.439 8        49.837 8  24763238.979 9  97176207.947 9     -1015.296 9        56.437 9
G20  23505941.630 9 123524505.946 9     -3647.091 9        54.730 9  23505943.147 8  96252842.254 8     -2841.892 8        50.230 8  23505945.483 9  92242310.751 9     -2723.480 9        56.830 9
G14  20963983.867 9 110166454.295 9       136.704 9        55.781 9  20963983.840 8  85843977.900 8       106.523 8        51.281 8  20963985.716 9  82267150.175 9       102.084 9        57.881 9
G23  24877538.365 9 130732302.558 9      3233.499 9        54.288 9  24877539.443 8 101869308.941 8      2519.611 8        49.788 8  24877541.681 9  97624758.382 9      2414.627 9        56.388 9
G05  21736208.280 9 114224516.463 9     -2422.639 9        55.473 9  21736207.898 8  89006100.538 8     -1887.771 8        50.973 8  21736210.470 9  85297519.937 9     -1809.115 9        57.573 9
G30  21851083.581 9 114828190.426 9     -2258.753 9        55.478 9  21851086.078 8  89476507.715 8     -1760.069 8        50.978 8  21851085.756 9  85748315.484 9     -1686.733 9        57.578 9
G15  21124396.110 9 111009425.090 9      2300.978 9        55.708 9  21124395.616 8  86500835.730 8      1792.970 8        51.208 8  21124398.052 9  82896640.988 9      1718.263 9        57.808 9
E05  23314750.807 9 122519821.457 9       364.089 9        57.976 9  23314750.807 9 122519821.457 9       364.089 9        57.976 9  23314753.331 9  91492071.947 9       271.884 9        57.836 9  23314753.331 9  91492071.947 9       271.884 9        57.836 9  23314753.151 9  93878822.373 9       278.977 9        57.836 9  23314753.151 9  93878822.373 9       278.977 9        57.836 9  23314753.239 9  92685447.162 9       275.431 9        60.846 9  23314753.239 9  92685447.162 9       275.431 9        60.846 9
E09  25209896.783 9 132478869.744 9     -2091.816 9        57.367 9  25209896.783 9 132478869.744 9     -2091.816 9        57.367 9  25209899.698 9  98929018.582 9     -1562.071 9        57.228 9  25209899.698 9  98929018.582 9     -1562.071 9        57.228 9  25209899.424 9 101509776.692 9     -1602.821 9        57.228 9  25209899.424 9 101509776.692 9     -1602.821 9        57.228 9  25209899.558 9 100219397.641 9     -1582.446 9        60.238 9  25209899.558 9 100219397.641 9     -1582.446 9        60.238 9
E13  28148451.771 9 147921065.814 9       333.127 9        56.288 9  28148451.771 9 147921065.814 9       333.127 9        56.288 9  28148455.456 9 110460523.001 9       248.763 9        56.148 9  28148455.456 9 110460523.001 9       248.763 9        56.148 9  28148455.057 9 113342103.470 9       255.253 9        56.148 9  28148455.057 9 113342103.470 9       255.253 9        56.148 9  28148455.253 9 111901313.240 9       252.008 9        59.158 9  28148455.253 9 111901313.240 9       252.008 9        59.158 9
E25  27085892.306 9 142337274.068 9      3132.068 9        56.719 9  27085892.306 9 142337274.068 9      3132.068 9        56.719 9  27085897.184 9 106290810.657 9      2338.884 9        56.579 9  27085897.184 9 106290810.657 9      2338.884 9        56.579 9  27085896.750 9 109063616.162 9      2399.898 9        56.579 9  27085896.750 9 109063616.162 9      2399.898 9        56.579 9  27085896.963 9 107677213.415 9      2369.391 9        59.590 9  27085896.963 9 107677213.415 9      2369.391 9        59.590 9
E31  24963541.570 9 131184267.505 9     -1534.124 9        57.424 9  24963541.570 9 131184267.505 9     -1534.124 9        57.424 9  24963544.746 9  97962273.043 9     -1145.613 9        57.284 9  24963544.746 9  97962273.043 9     -1145.613 9        57.284 9  24963544.499 9 100517811.596 9     -1175.498 9        57.284 9  24963544.499 9 100517811.596 9     -1175.498 9        57.284 9  24963544.620 9  99240042.323 9     -1160.556 9        60.294 9  24963544.620 9  99240042.323 9     -1160.556 9        60.294 9
E15  27821354.450 9 146202157.855 9     -1854.532 9        56.364 9  27821354.450 9 146202157.855 9     -1854.532 9        56.364 9  27821359.570 9 109176928.570 9     -1384.879 9        56.224 9  27821359.570 9 109176928.570 9     -1384.879 9        56.224 9  27821359.171 9 112025023.965 9     -1421.006 9        56.224 9  27821359.171 9 112025023.965 9     -1421.006 9        56.224 9  27821359.367 9 110600976.273 9     -1402.942 9        59.235 9  27821359.367 9 110600976.273 9     -1402.942 9        59.235 9
E03  26331757.697 9 138374285.962 9      2464.530 9        56.970 9  26331757.697 9 138374285.962 9      2464.530 9        56.970 9  26331761.201 9 103331440.513 9      1840.397 9        56.830 9  26331761.201 9 103331440.513 9      1840.397 9        56.830 9  26331760.904 9 106027044.505 9      1888.407 9        56.830 9  26331760.904 9 106027044.505 9      1888.407 9        56.830 9  26331761.049 9 104679242.513 9      1864.402 9        59.841 9  26331761.049 9 104679242.513 9      1864.402 9        59.841 9
E24  24088339.661 9 126585055.519 9      1250.217 9        57.794 9  24088339.661 9 126585055.519 9      1250.217 9        57.794 9  24088340.681 9  94527791.114 9       933.604 9        57.654 9  24088340.681 9  94527791.114 9       933.604 9        57.654 9  24088340.477 9  96993734.311 9       957.958 9        57.654 9  24088340.477 9  96993734.311 9       957.958 9        57.654 9  24088340.577 9  95760762.715 9       945.781 9        60.665 9  24088340.577 9  95760762.715 9       945.781 9        60.665 9
> 2023 01 08 10 00  2.0000000  0 20       0.000000000000
G08  25065786.859 9 131721548.402 9     -1478.044 9        54.233 9  25065790.966 8 102640158.903 8     -1151.722 8        49.733 8  25065790.677 9  98363478.953 9     -1103.734 9        56.333 9
G13  20028650.442 9 105251247.461 9       583.974 9        56.112 9  20028649.477 8  82013944.522 8       455.044 8        51.612 8  20028652.027 9  78596704.547 9       436.084 9        58.212 9
G17  24977730.629 9 131258777.210 9      2932.601 9        54.181 9  24977733.582 8 102279536.817 8      2285.147 8        49.681 8  24977736.907 9  98017893.412 9      2189.934 9        56.281 9
G24  24538131.517 9 128948699.297 9      3533.537 9        54.409 9  24538135.269 8 100479495.019 8      2753.407 8        49.909 8  24538135.454 9  96292844.417 9      2638.682 9        56.509 9
G07  24591097.360 9 129227028.359 9     -2971.787 9        54.360 9  24591098.916 8 100696361.614 8     -2315.681 8        49.860 8  24591101.925 9  96500685.082 9     -2219.195 9        56.460 9
G18  24763494.323 9 130132995.512 9     -1360.141 9        54.337 9  24763495.497 8 101402316.045 8     -1059.851 8        49.837 8  24763497.756 9  97177223.438 9     -1015.690 9        56.437 9
G20  23506635.663 9 123528153.102 9     -3647.240 9        54.730 9  23506637.180 8  96255684.190 8     -2842.008 8        50.230 8  23506639.516 9  92245034.273 9     -2723.592 9        56.830 9
G14  20963957.916 9 110166317.920 9       136.045 9        55.781 9  20963957.888 8  85843871.634 8       106.009 8        51.281 8  20963959.765 9  82267048.336 9       101.592 9        57.881 9
G23  24876923.080 9 130729069.217 9      3233.192 9        54.288 9  24876924.158 8 101866789.455 8      2519.372 8        49.788 8  24876926.395 9  97622343.875 9      2414.398 9        56.388 9
G05  21736669.343 9 114226939.358 9     -2423.159 9        55.473 9  21736668.961 8  89007988.507 8     -1888.177 8        50.973 8  21736671.532 9  85299329.241 9     -1809.503 9        57.573 9
G30  21851513.433 9 114830449.309 9     -2259.023 9        55.478 9  21851515.930 8  89478267.882 8     -1760.278 8        50.978 8  21851515.608 9  85750002.311 9     -1686.934 9        57.578 9
G15  21123958.289 9 111007124.327 9      2300.548 9        55.708 9  21123957.795 8  86499042.929 8      1792.635 8        51.208 8  21123960.231 9  82894922.886 9      1717.942 9        57.808 9
E05  23314681.553 9 122519457.526 9       363.773 9        57.976 9  23314681.553 9 122519457.526 9       363.773 9        57.976 9  23314684.077 9  91491800.180 9       271.648 9        57.836 9  23314684.077 9  91491800.180 9       271.648 9        57.836 9  23314683.897 9  93878543.517 9       278.735 9        57.836 9  23314683.897 9  93878543.517 9       278.735 9        57.836 9  23314683.986 9  92685171.850 9       275.191 9        60.846 9  23314683.986 9  92685171.850 9       275.191 9        60.846 9
E09  25210294.865 9 132480961.672 9     -2092.051 9        57.367 9  25210294.865 9 132480961.672 9     -2092.051 9        57.367 9  25210297.780 9  98930580.734 9     -1562.247 9        57.227 9  25210297.780 9  98930580.734 9     -1562.247 9        57.227 9  25210297.505 9 101511379.597 9     -1603.001 9        57.227 9  25210297.505 9 101511379.597 9     -1603.001 9        57.227 9  25210297.640 9 100220980.169 9     -1582.624 9        60.238 9  25210297.640 9 100220980.169 9     -1582.624 9        60.238 9
E13  28148388.426 9 147920732.935 9       332.632 9        56.288 9  28148388.426 9 147920732.935 9       332.632 9        56.288 9  28148392.112 9 110460274.423 9       248.394 9        56.148 9  28148392.112 9 110460274.423 9       248.394 9        56.148 9  28148391.712 9 113341848.407 9       254.874 9        56.148 9  28148391.712 9 113341848.407 9       254.874 9        56.148 9  28148391.908 9 111901061.420 9       251.634 9        59.158 9  28148391.908 9 111901061.420 9       251.634 9        59.158 9
E25  27085296.304 9 142334142.064 9      3131.950 9        56.719 9  27085296.304 9 142334142.064 9      3131.950 9        56.719 9  27085301.182 9 106288471.825 9      2338.796 9        56.580 9  27085301.182 9 106288471.825 9      2338.796 9        56.580 9  27085300.748 9 109061216.316 9      2399.808 9        56.580 9  27085300.748 9 109061216.316 9      2399.808 9        56.580 9  27085300.961 9 107674844.076 9      2369.302 9        59.590 9  27085300.961 9 107674844.076 9      2369.302 9        59.590 9
E31  24963833.540 9 131185801.813 9     -1534.499 9        57.424 9  24963833.540 9 131185801.813 9     -1534.499 9        57.424 9  24963836.716 9  97963418.792 9     -1145.893 9        57.284 9  24963836.716 9  97963418.792 9     -1145.893 9        57.284 9  24963836.468 9 100518987.235 9     -1175.786 9        57.284 9  24963836.468 9 100518987.235 9     -1175.786 9        57.284 9  24963836.590 9  99241203.017 9     -1160.839 9        60.294 9  24963836.590 9  99241203.017 9     -1160.839 9        60.294 9
E15  27821707.389 9 146204012.560 9     -1854.881 9        56.364 9  27821707.389 9 146204012.560 9     -1854.881 9        56.364 9  27821712.510 9 109178313.576 9     -1385.139 9        56.224 9  27821712.510 9 109178313.576 9     -1385.139 9        56.224 9  27821712.111 9 112026445.102 9     -1421.273 9        56.224 9  27821712.111 9 112026445.102 9     -1421.273 9        56.224 9  27821712.306 9 110602379.344 9     -1403.206 9        59.234 9  27821712.306 9 110602379.344 9     -1403.206 9        59.234 9
E03  26331288.721 9 138371821.481 9      2464.433 9        56.970 9  26331288.721 9 138371821.481 9      2464.433 9        56.970 9  26331292.225 9 103329600.154 9      1840.324 9        56.831 9  26331292.225 9 103329600.154 9      1840.324 9        56.831 9  26331291.928 9 106025156.137 9      1888.332 9        56.831 9  26331291.928 9 106025156.137 9      1888.332 9        56.831 9  26331292.074 9 104677378.150 9      1864.328 9        59.841 9  26331292.074 9 104677378.150 9      1864.328 9        59.841 9
E24  24088101.794 9 126583805.520 9      1249.783 9        57.794 9  24088101.794 9 126583805.520 9      1249.783 9        57.794 9  24088102.814 9  94526857.673 9       933.280 9        57.655 9  24088102.814 9  94526857.673 9       933.280 9        57.655 9  24088102.610 9  96992776.520 9       957.626 9        57.655 9  24088102.610 9  96992776.520 9       957.626 9        57.655 9  24088102.710 9  95759817.099 9       945.453 9        60.665 9  24088102.710 9  95759817.099 9       945.453 9        60.665 9
> 2023 01 08 10 00  3.0000000  0 20       0.000000000000
G08  25066068.176 9 131723026.735 9     -1478.622 9        54.233 9  25066072.283 8 102641310.851 8     -1152.173 8        49.733 8  25066071.994 9  98364582.903 9     -1104.166 9        56.333 9
G13  20028539.361 9 105250663.724 9       583.500 9        56.112 9  20028538.395 8  82013489.662 8       454.676 8        51.612 8  20028540.946 9  78596268.639 9       435.731 9        58.212 9
G17  24977172.579 9 131255844.647 9      2932.558 9        54.181 9  24977175.530 8 102277251.706 8      2285.113 8        49.681 8  24977178.855 9  98015703.515 9      2189.901 9        56.281 9
G24  24537459.116 9 128945165.813 9      3533.434 9        54.409 9  24537462.868 8 100476741.655 8      2753.326 8        49.909 8  24537463.053 9  96290205.777 9      2638.604 9        56.509 9
G07  24591662.877 9 129230000.157 9     -2971.837 9        54.360 9  24591664.433 8 100698677.298 8     -2315.720 8        49.860 8  24591667.442 9  96502904.278 9     -2219.232 9        56.460 9
G18  24763753.200 9 130134355.916 9     -1360.669 9        54.337 9  24763754.374 8 101403376.099 8     -1060.263 8        49.837 8  24763756.633 9  97178239.323 9     -1016.085 9        56.437 9
G20  23507329.724 9 123531800.407 9     -3647.389 9        54.729 9  23507331.242 8  96258526.243 8     -2842.124 8        50.229 8  23507333.578 9  92247757.906 9     -2723.703 9        56.829 9
G14  20963932.090 9 110166182.204 9       135.386 9        55.781 9  20963932.062 8  85843765.881 8       105.496 8        51.281 8  20963933.939 9  82266946.990 9       101.100 9        57.881 9
G23  24876307.853 9 130725836.182 9      3232.886 9        54.288 9  24876308.930 8 101864270.209 8      2519.133 8        49.788 8  24876311.167 9  97619929.597 9      2414.170 9        56.388 9
G05  21737130.504 9 114229362.774 9     -2423.679 9        55.473 9  21737130.123 8  89009876.882 8     -1888.582 8        50.973 8  21737132.694 9  85301138.933 9     -1809.891 9        57.573 9
G30  21851943.336 9 114832708.461 9     -2259.292 9        55.478 9  21851945.833 8  89480028.260 8     -1760.488 8        50.978 8  21851945.512 9  85751689.339 9     -1687.135 9        57.578 9
G15  21123520.550 9 111004823.994 9      2300.119 9        55.708 9  21123520.056 8  86497250.462 8      1792.301 8        51.208 8  21123522.491 9  82893205.105 9      1717.622 9        57.808 9
E05  23314612.359 9 122519093.911 9       363.456 9        57.976 9  23314612.359 9 122519093.911 9       363.456 9        57.976 9  23314614.884 9  91491528.649 9       271.412 9        57.836 9  23314614.884 9  91491528.649 9       271.412 9        57.836 9  23314614.704 9  93878264.902 9       278.492 9        57.836 9  23314614.704 9  93878264.902 9       278.492 9        57.836 9  23314614.792 9  92684896.778 9       274.952 9        60.846 9  23314614.792 9  92684896.778 9       274.952 9        60.846 9
E09  25210692.991 9 132483053.835 9     -2092.286 9        57.367 9  25210692.991 9 132483053.835 9     -2092.286 9        57.367 9  25210695.906 9  98932143.063 9     -1562.423 9        57.227 9  25210695.906 9  98932143.063 9     -1562.423 9        57.227 9  25210695.632 9 101512982.682 9     -1603.182 9        57.227 9  25210695.632 9 101512982.682 9     -1603.182 9        57.227 9  25210695.766 9 100222562.876 9     -1582.802 9        60.238 9  25210695.766 9 100222562.876 9     -1582.802 9        60.238 9
E13  28148325.175 9 147920400.551 9       332.138 9        56.288 9  28148325.175 9 147920400.551 9       332.138 9        56.288 9  28148328.861 9 110460026.214 9       248.025 9        56.148 9  28148328.861 9 110460026.214 9       248.025 9        56.148 9  28148328.461 9 113341593.723 9       254.495 9        56.148 9  28148328.461 9 113341593.723 9       254.495 9        56.148 9  28148328.657 9 111900809.974 9       251.260 9        59.158 9  28148328.657 9 111900809.974 9       251.260 9        59.158 9
E25  27084700.325 9 142331010.178 9      3131.833 9        56.720 9  27084700.325 9 142331010.178 9      3131.833 9        56.720 9  27084705.202 9 106286133.080 9      2338.708 9        56.580 9  27084705.202 9 106286133.080 9      2338.708 9        56.580 9  27084704.768 9 109058816.561 9      2399.718 9        56.580 9  27084704.768 9 109058816.561 9      2399.718 9        56.580 9  27084704.981 9 107672474.826 9      2369.213 9        59.590 9  27084704.981 9 107672474.826 9      2369.213 9        59.590 9
E31  24964125.581 9 131187336.497 9     -1534.875 9        57.424 9  24964125.581 9 131187336.497 9     -1534.875 9        57.424 9  24964128.757 9  97964564.821 9     -1146.173 9        57.284 9  24964128.757 9  97964564.821 9     -1146.173 9        57.284 9  24964128.510 9 100520163.160 9     -1176.073 9        57.284 9  24964128.510 9 100520163.160 9     -1176.073 9        57.284 9  24964128.631 9  99242363.994 9     -1161.123 9        60.294 9  24964128.631 9  99242363.994 9     -1161.123 9        60.294 9
E15  27822060.395 9 146205867.614 9     -1855.229 9        56.364 9  27822060.395 9 146205867.614 9     -1855.229 9        56.364 9  27822065.516 9 109179698.843 9     -1385.400 9        56.224 9  27822065.516 9 109179698.843 9     -1385.400 9        56.224 9  27822065.117 9 112027866.506 9     -1421.540 9        56.224 9  27822065.117 9 112027866.506 9     -1421.540 9        56.224 9  27822065.312 9 110603782.679 9     -1403.470 9        59.234 9  27822065.312 9 110603782.679 9     -1403.470 9        59.234 9
E03  26330819.764 9 138369357.098 9      2464.335 9        56.971 9  26330819.764 9 138369357.098 9      2464.335 9        56.971 9  26330823.268 9 103327759.869 9      1840.251 9        56.831 9  26330823.268 9 103327759.869 9      1840.251 9        56.831 9  26330822.971 9 106023267.844 9      1888.257 9        56.831 9  26330822.971 9 106023267.844 9      1888.257 9        56.831 9  26330823.116 9 104675513.860 9      1864.254 9        59.841 9  26330823.116 9 104675513.860 9      1864.254 9        59.841 9
E24  24087864.009 9 126582555.954 9      1249.350 9        57.794 9  24087864.009 9 126582555.954 9      1249.350 9        57.794 9  24087865.029 9  94525924.556 9       932.957 9        57.655 9  24087865.029 9  94525924.556 9       932.957 9        57.655 9  24087864.825 9  96991819.061 9       957.294 9        57.655 9  24087864.825 9  96991819.061 9       957.294 9        57.655 9  24087864.925 9  95758871.811 9       945.126 9        60.665 9  24087864.925 9  95758871.811 9       945.126 9        60.665 9
> 2023 01 08 10 00  4.0000000  0 20       0.000000000000
G08  25066349.603 9 131724505.646 9     -1479.201 9        54.233 9  25066353.711 8 102642463.250 8     -1152.624 8        49.733 8  25066353.421 9  98365687.285 9     -1104.598 9        56.333 9
G13  20028428.369 9 105250080.460 9       583.027 9        56.112 9  20028427.404 8  82013035.170 8       454.307 8        51.612 8  20028429.954 9  78595833.084 9       435.377 9        58.212 9
G17  24976614.536 9 131252912.127 9      2932.514 9        54.182 9  24976617.487 8 102274966.630 8      2285.079 8        49.682 8  24976620.812 9  98013513.650 9      2189.868 9        56.282 9
G24  24536786.735 9 128941632.432 9      3533.330 9        54.410 9  24536790.487 8 100473988.373 8      2753.245 8        49.910 8  24536790.671 9  96287567.215 9      2638.527 9        56.510 9
G07  24592228.403 9 129232972.005 9     -2971.887 9        54.360 9  24592229.959 8 100700993.021 8     -2315.759 8        49.860 8  24592232.969 9  96505123.512 9     -2219.270 9        56.460 9
G18  24764012.177 9 130135716.848 9     -1361.198 9        54.337 9  24764013.351 8 101404436.565 8     -1060.674 8        49.837 8  24764015.610 9  97179255.602 9     -1016.480 9        56.437 9
G20  23508023.814 9 123535447.861 9     -3647.539 9        54.729 9  23508025.332 8  96261368.413 8     -2842.241 8        50.229 8  23508027.669 9  92250481.651 9     -2723.815 9        56.829 9
G14  20963906.390 9 110166047.147 9       134.727 9        55.781 9  20963906.362 8  85843660.642 8       104.982 8        51.281 8  20963908.238 9  82266846.135 9       100.608 9        57.881 9
G23  24875692.684 9 130722603.453 9      3232.579 9        54.288 9  24875693.761 8 101861751.201 8      2518.894 8        49.788 8  24875695.998 9  97617515.548 9      2413.941 9        56.388 9
G05  21737591.765 9 114231786.710 9     -2424.199 9        55.473 9  21737591.383 8  89011765.662 8     -1888.987 8        50.973 8  21737593.955 9  85302949.014 9     -1810.279 9        57.573 9
G30  21852373.290 9 114834967.882 9     -2259.562 9        55.478 9  21852375.788 8  89481788.847 8     -1760.698 8        50.978 8  21852375.466 9  85753376.568 9     -1687.336 9        57.578 9
G15  21123082.893 9 111002524.091 9      2299.689 9        55.708 9  21123082.399 8  86495458.329 8      1791.966 8        51.208 8  21123084.834 9  82891487.645 9      1717.301 9        57.808 9
E05  23314543.226 9 122518730.613 9       363.140 9        57.976 9  23314543.226 9 122518730.613 9       363.140 9        57.976 9  23314545.750 9  91491257.355 9       271.175 9        57.836 9  23314545.750 9  91491257.355 9       271.175 9        57.836 9  23314545.571 9  93877986.531 9       278.250 9        57.836 9  23314545.571 9  93877986.531 9       278.250 9        57.836 9  23314545.659 9  92684621.945 9       274.713 9        60.846 9  23314545.659 9  92684621.945 9       274.713 9        60.846 9
E09  25211091.162 9 132485146.233 9     -2092.522 9        57.367 9  25211091.162 9 132485146.233 9     -2092.522 9        57.367 9  25211094.077 9  98933705.567 9     -1562.599 9        57.227 9  25211094.077 9  98933705.567 9     -1562.599 9        57.227 9  25211093.803 9 101514585.947 9     -1603.362 9        57.227 9  25211093.803 9 101514585.947 9     -1603.362 9        57.227 9  25211093.938 9 100224145.760 9     -1582.980 9        60.237 9  25211093.938 9 100224145.760 9     -1582.980 9        60.237 9
E13  28148262.019 9 147920068.661 9       331.643 9        56.288 9  28148262.019 9 147920068.661 9       331.643 9        56.288 9  28148265.704 9 110459778.374 9       247.656 9        56.148 9  28148265.704 9 110459778.374 9       247.656 9        56.148 9  28148265.305 9 113341339.418 9       254.116 9        56.148 9  28148265.305 9 113341339.418 9       254.116 9        56.148 9  28148265.500 9 111900558.901 9       250.886 9        59.158 9  28148265.500 9 111900558.901 9       250.886 9        59.158 9
E25  27084104.368 9 142327878.409 9      3131.715 9        56.720 9  27084104.368 9 142327878.409 9      3131.715 9        56.720 9  27084109.245 9 106283794.424 9      2338.620 9        56.580 9  27084109.245 9 106283794.424 9      2338.620 9        56.580 9  27084108.811 9 109056416.896 9      2399.627 9        56.580 9  27084108.811 9 109056416.896 9      2399.627 9        56.580 9  27084109.024 9 107670105.665 9      2369.124 9        59.590 9  27084109.024 9 107670105.665 9      2369.124 9        59.590 9
E31  24964417.693 9 131188871.556 9     -1535.250 9        57.424 9  24964417.693 9 131188871.556 9     -1535.250 9        57.424 9  24964420.870 9  97965711.131 9     -1146.454 9        57.284 9  24964420.870 9  97965711.131 9     -1146.454 9        57.284 9  24964420.622 9 100521339.374 9     -1176.361 9        57.284 9  24964420.622 9 100521339.374 9     -1176.361 9        57.284 9  24964420.744 9  99243525.256 9     -1161.407 9        60.294 9  24964420.744 9  99243525.256 9     -1161.407 9        60.294 9
E15  27822413.467 9 146207723.016 9     -1855.578 9        56.364 9  27822413.467 9 146207723.016 9     -1855.578 9        56.364 9  27822418.588 9 109181084.369 9     -1385.660 9        56.224 9  27822418.588 9 109181084.369 9     -1385.660 9        56.224 9  27822418.189 9 112029288.177 9     -1421.808 9        56.224 9  27822418.189 9 112029288.177 9     -1421.808 9        56.224 9  27822418.384 9 110605186.278 9     -1403.734 9        59.234 9  27822418.384 9 110605186.278 9     -1403.734 9        59.234 9
E03  26330350.826 9 138366892.813 9      2464.237 9        56.971 9  26330350.826 9 138366892.813 9      2464.237 9        56.971 9  26330354.329 9 103325919.657 9      1840.177 9        56.831 9  26330354.329 9 103325919.657 9      1840.177 9        56.831 9  26330354.032 9 106021379.626 9      1888.182 9        56.831 9  26330354.032 9 106021379.626 9      1888.182 9        56.831 9  26330354.178 9 104673649.645 9      1864.180 9        59.841 9  26330354.178 9 104673649.645 9      1864.180 9        59.841 9
E24  24087626.307 9 126581306.822 9      1248.917 9        57.795 9  24087626.307 9 126581306.822 9      1248.917 9        57.795 9  24087627.327 9  94524991.763 9       932.633 9        57.655 9  24087627.327 9  94524991.763 9       932.633 9        57.655 9  24087627.123 9  96990861.933 9       956.962 9        57.655 9  24087627.123 9  96990861.933 9       956.962 9        57.655 9  24087627.223 9  95757926.851 9       944.798 9        60.665 9  24087627.223 9  95757926.851 9       944.798 9        60.665 9
> 2023 01 08 10 00  5.0000000  0 20       0.000000000000
G08  25066631.141 9 131725985.136 9     -1479.779 9        54.233 9  25066635.248 8 102643616.099 8     -1153.075 8        49.733 8  25066634.959 9  98366792.099 9     -1105.030 9        56.333 9
G13  20028317.468 9 105249497.669 9       582.554 9        56.112 9  20028316.503 8  82012581.047 8       453.938 8        51.612 8  20028319.053 9  78595397.883 9       435.024 9        58.212 9
G17  24976056.502 9 131249979.651 9      2932.470 9        54.182 9  24976059.451 8 102272681.587 8      2285.045 8        49.682 8  24976062.776 9  98011323.818 9      2189.836 9        56.282 9
G24  24536114.374 9 128938099.156 9      3533.226 9        54.410 9  24536118.126 8 100471235.171 8      2753.164 8        49.910 8  24536118.310 9  96284928.731 9      2638.449 9        56.510 9
G07  24592793.938 9 129235943.904 9     -2971.937 9        54.360 9  24592795.496 8 100703308.783 8     -2315.798 8        49.860 8  24592798.506 9  96507342.784 9     -2219.307 9        56.460 9
G18  24764271.255 9 130137078.309 9     -1361.726 9        54.337 9  24764272.429 8 101405497.443 8     -1061.086 8        49.837 8  24764274.688 9  97180272.277 9     -1016.874 9        56.437 9
G20  23508717.931 9 123539095.464 9     -3647.688 9        54.729 9  23508719.450 8  96264210.698 8     -2842.357 8        50.229 8  23508721.787 9  92253205.507 9     -2723.926 9        56.829 9
G14  20963880.815 9 110165912.749 9       134.068 9        55.781 9  20963880.787 8  85843555.916 8       104.469 8        51.281 8  20963882.663 9  82266745.773 9       100.116 9        57.881 9
G23  24875077.573 9 130719371.031 9      3232.272 9        54.288 9  24875078.650 8 101859232.432 8      2518.655 8        49.788 8  24875080.887 9  97615101.728 9      2413.712 9        56.388 9
G05  21738053.124 9 114234211.165 9     -2424.718 9        55.473 9  21738052.743 8  89013654.847 8     -1889.392 8        50.973 8  21738055.315 9  85304759.483 9     -1810.668 9        57.573 9
G30  21852803.296 9 114837227.573 9     -2259.831 9        55.478 9  21852805.793 8  89483549.644 8     -1760.908 8        50.978 8  21852805.472 9  85755063.998 9     -1687.537 9        57.578 9
G15  21122645.317 9 111000224.616 9      2299.260 9        55.709 9  21122644.823 8  86493666.532 8      1791.631 8        51.209 8  21122647.258 9  82889770.506 9      1716.980 9        57.809 9
E05  23314474.153 9 122518367.631 9       362.823 9        57.976 9  23314474.153 9 122518367.631 9       362.823 9        57.976 9  23314476.677 9  91490986.297 9       270.939 9        57.836 9  23314476.677 9  91490986.297 9       270.939 9        57.836 9  23314476.498 9  93877708.402 9       278.007 9        57.836 9  23314476.498 9  93877708.402 9       278.007 9        57.836 9  23314476.586 9  92684347.352 9       274.473 9        60.846 9  23314476.586 9  92684347.352 9       274.473 9        60.846 9
E09  25211489.378 9 132487238.867 9     -2092.757 9        57.367 9  25211489.378 9 132487238.867 9     -2092.757 9        57.367 9  25211492.293 9  98935268.246 9     -1562.774 9        57.227 9  25211492.293 9  98935268.246 9     -1562.774 9        57.227 9  25211492.019 9 101516189.392 9     -1603.542 9        57.227 9  25211492.019 9 101516189.392 9     -1603.542 9        57.227 9  25211492.154 9 100225728.823 9     -1583.158 9        60.237 9  25211492.154 9 100225728.823 9     -1583.158 9        60.237 9
E13  28148198.956 9 147919737.265 9       331.149 9        56.288 9  28148198.956 9 147919737.265 9       331.149 9        56.288 9  28148202.641 9 110459530.904 9       247.287 9        56.148 9  28148202.641 9 110459530.904 9       247.287 9        56.148 9  28148202.242 9 113341085.492 9       253.738 9        56.148 9  28148202.242 9 113341085.492 9       253.738 9        56.148 9  28148202.438 9 111900308.203 9       250.512 9        59.158 9  28148202.438 9 111900308.203 9       250.512 9        59.158 9
E25  27083508.433 9 142324746.758 9      3131.597 9        56.720 9  27083508.433 9 142324746.758 9      3131.597 9        56.720 9  27083513.310 9 106281455.855 9      2338.532 9        56.580 9  27083513.310 9 106281455.855 9      2338.532 9        56.580 9  27083512.876 9 109054017.321 9      2399.537 9        56.580 9  27083512.876 9 109054017.321 9      2399.537 9        56.580 9  27083513.089 9 107667736.593 9      2369.034 9        59.590 9  27083513.089 9 107667736.593 9      2369.034 9        59.590 9
E31  24964709.877 9 131190406.990 9     -1535.625 9        57.424 9  24964709.877 9 131190406.990 9     -1535.625 9        57.424 9  24964713.054 9  97966857.721 9     -1146.734 9        57.284 9  24964713.054 9  97966857.721 9     -1146.734 9        57.284 9  24964712.806 9 100522515.875 9     -1176.648 9        57.284 9  24964712.806 9 100522515.875 9     -1176.648 9        57.284 9  24964712.928 9  99244686.801 9     -1161.691 9        60.294 9  24964712.928 9  99244686.801 9     -1161.691 9        60.294 9
E15  27822766.605 9 146209578.767 9     -1855.927 9        56.364 9  27822766.605 9 146209578.767 9     -1855.927 9        56.364 9  27822771.726 9 109182470.157 9     -1385.920 9        56.224 9  27822771.726 9 109182470.157 9     -1385.920 9        56.224 9  27822771.327 9 112030710.115 9     -1422.075 9        56.224 9  27822771.327 9 112030710.115 9     -1422.075 9        56.224 9  27822771.523 9 110606590.141 9     -1403.998 9        59.234 9  27822771.523 9 110606590.141 9     -1403.998 9        59.234 9
E03  26329881.906 9 138364428.626 9      2464.139 9        56.971 9  26329881.906 9 138364428.626 9      2464.139 9        56.971 9  26329885.410 9 103324079.517 9      1840.104 9        56.831 9  26329885.410 9 103324079.517 9      1840.104 9        56.831 9  26329885.113 9 106019491.483 9      1888.107 9        56.831 9  26329885.113 9 106019491.483 9      1888.107 9        56.831 9  26329885.258 9 104671785.504 9      1864.106 9        59.841 9  26329885.258 9 104671785.504 9      1864.106 9        59.841 9
E24  24087388.688 9 126580058.122 9      1248.484 9        57.795 9  24087388.688 9 126580058.122 9      1248.484 9        57.795 9  24087389.707 9  94524059.293 9       932.309 9        57.655 9  24087389.707 9  94524059.293 9       932.309 9        57.655 9  24087389.503 9  96989905.138 9       956.630 9        57.655 9  24087389.503 9  96989905.138 9       956.630 9        57.655 9  24087389.603 9  95756982.218 9       944.470 9        60.665 9  24087389.603 9  95756982.218 9       944.470 9        60.665 9
> 2023 01 08 10 00  6.0000000  0 20       0.000000000000
G08  25066912.788 9 131727465.205 9     -1480.358 9        54.233 9  25066916.895 8 102644769.399 8     -1153.525 8        49.733 8  25066916.606 9  98367897.345 9     -1105.462 9        56.333 9
G13  20028206.657 9 105248915.352 9       582.080 9        56.112 9  20028205.691 8  82012127.294 8       453.569 8        51.612 8  20028208.242 9  78594963.036 9       434.670 9        58.212 9
G17  24975498.476 9 131247047.219 9      2932.426 9        54.182 9  24975501.425 8 102270396.578 8      2285.011 8        49.682 8  24975504.750 9  98009134.019 9      2189.803 9        56.282 9
G24  24535442.033 9 128934565.983 9      3533.122 9        54.410 9  24535445.784 8 100468482.051 8      2753.083 8        49.910 8  24535445.968 9  96282290.324 9      2638.372 9        56.510 9
G07  24593359.483 9 129238915.852 9     -2971.987 9        54.360 9  24593361.041 8 100705624.585 8     -2315.837 8        49.860 8  24593364.052 9  96509562.093 9     -2219.344 9        56.460 9
G18  24764530.433 9 130138440.297 9     -1362.254 9        54.337 9  24764531.608 8 101406558.732 8     -1061.498 8        49.837 8  24764533.867 9  97181289.345 9     -1017.269 9        56.437 9
G20  23509412.078 9 123542743.216 9     -3647.837 9        54.729 9  23509413.597 8  96267053.100 8     -2842.473 8        50.229 8  23509415.934 9  92255929.475 9     -2724.037 9        56.829 9
G14  20963855.365 9 110165779.010 9       133.409 9        55.781 9  20963855.337 8  85843451.704 8       103.955 8        51.281 8  20963857.214 9  82266645.903 9        99.624 9        57.881 9
G23  24874462.521 9 130716138.916 9      3231.966 9        54.289 9  24874463.598 8 101856713.902 8      2518.416 8        49.789 8  24874465.834 9  97612688.137 9      2413.482 9        56.389 9
G05  21738514.582 9 114236636.141 9     -2425.238 9        55.472 9  21738514.201 8  89015544.438 8     -1889.797 8        50.972 8  21738516.773 9  85306570.339 9     -1811.056 9        57.572 9
G30  21853233.353 9 114839487.533 9     -2260.100 9        55.477 9  21853235.851 8  89485310.651 8     -1761.118 8        50.977 8  21853235.530 9  85756751.629 9     -1687.738 9        57.577 9
G15  21122207.823 9 110997925.572 9      2298.830 9        55.709 9  21122207.329 8  86491875.069 8      1791.297 8        51.209 8  21122209.764 9  82888053.688 9      1716.659 9        57.809 9
E05  23314405.140 9 122518004.966 9       362.506 9        57.976 9  23314405.140 9 122518004.966 9       362.506 9        57.976 9  23314407.665 9  91490715.475 9       270.703 9        57.836 9  23314407.665 9  91490715.475 9       270.703 9        57.836 9  23314407.485 9  93877430.515 9       277.765 9        57.836 9  23314407.485 9  93877430.515 9       277.765 9        57.836 9  23314407.573 9  92684072.998 9       274.234 9        60.847 9  23314407.573 9  92684072.998 9       274.234 9        60.847 9
E09  25211887.638 9 132489331.736 9     -2092.992 9        57.367 9  25211887.638 9 132489331.736 9     -2092.992 9        57.367 9  25211890.554 9  98936831.102 9     -1562.950 9        57.227 9  25211890.554 9  98936831.102 9     -1562.950 9        57.227 9  25211890.280 9 101517793.018 9     -1603.722 9        57.227 9  25211890.280 9 101517793.018 9     -1603.722 9        57.227 9  25211890.414 9 100227312.063 9     -1583.336 9        60.237 9  25211890.414 9 100227312.063 9     -1583.336 9        60.237 9
E13  28148135.988 9 147919406.364 9       330.654 9        56.288 9  28148135.988 9 147919406.364 9       330.654 9        56.288 9  28148139.673 9 110459283.802 9       246.917 9        56.148 9  28148139.673 9 110459283.802 9       246.917 9        56.148 9  28148139.273 9 113340831.944 9       253.359 9        56.148 9  28148139.273 9 113340831.944 9       253.359 9        56.148 9  28148139.469 9 111900057.878 9       250.138 9        59.158 9  28148139.469 9 111900057.878 9       250.138 9        59.158 9
E25  27082912.521 9 142321615.225 9      3131.479 9        56.720 9  27082912.521 9 142321615.225 9      3131.479 9        56.720 9  27082917.397 9 106279117.374 9      2338.444 9        56.580 9  27082917.397 9 106279117.374 9      2338.444 9        56.580 9  27082916.963 9 109051617.836 9      2399.447 9        56.580 9  27082916.963 9 109051617.836 9      2399.447 9        56.580 9  27082917.176 9 107665367.611 9      2368.945 9        59.591 9  27082917.176 9 107665367.611 9      2368.945 9        59.591 9
E31  24965002.133 9 131191942.800 9     -1536.000 9        57.424 9  24965002.133 9 131191942.800 9     -1536.000 9        57.424 9  24965005.309 9  97968004.591 9     -1147.014 9        57.284 9  24965005.309 9  97968004.591 9     -1147.014 9        57.284 9  24965005.062 9 100523692.663 9     -1176.936 9        57.284 9  24965005.062 9 100523692.663 9     -1176.936 9        57.284 9  24965005.183 9  99245848.630 9     -1161.975 9        60.294 9  24965005.183 9  99245848.630 9     -1161.975 9        60.294 9
E15  27823119.810 9 146211434.867 9     -1856.276 9        56.364 9  27823119.810 9 146211434.867 9     -1856.276 9        56.364 9  27823124.931 9 109183856.204 9     -1386.181 9        56.224 9  27823124.931 9 109183856.204 9     -1386.181 9        56.224 9  27823124.532 9 112032132.320 9     -1422.342 9        56.224 9  27823124.532 9 112032132.320 9     -1422.342 9        56.224 9  27823124.728 9 110607994.267 9     -1404.261 9        59.234 9  27823124.728 9 110607994.267 9     -1404.261 9        59.234 9
E03  26329413.005 9 138361964.536 9      2464.041 9        56.971 9  26329413.005 9 138361964.536 9      2464.041 9        56.971 9  26329416.508 9 103322239.451 9      1840.031 9        56.831 9  26329416.508 9 103322239.451 9      1840.031 9        56.831 9  26329416.211 9 106017603.415 9      1888.032 9        56.831 9  26329416.211 9 106017603.415 9      1888.032 9        56.831 9  26329416.357 9 104669921.437 9      1864.031 9        59.842 9  26329416.357 9 104669921.437 9      1864.031 9        59.842 9
E24  24087151.150 9 126578809.856 9      1248.050 9        57.795 9  24087151.150 9 126578809.856 9      1248.050 9        57.795 9  24087152.170 9  94523127.146 9       931.986 9        57.655 9  24087152.170 9  94523127.146 9       931.986 9        57.655 9  24087151.966 9  96988948.675 9       956.298 9        57.655 9  24087151.966 9  96988948.675 9       956.298 9        57.655 9  24087152.066 9  95756037.913 9       944.142 9        60.665 9  24087152.066 9  95756037.913 9       944.142 9        60.665 9
> 2023 01 08 10 00  7.0000000  0 20       0.000000000000
G08  25067194.546 9 131728945.851 9     -1480.936 9        54.232 9  25067198.653 8 102645923.150 8     -1153.976 8        49.732 8  25067198.364 9  98369003.023 9     -1105.894 9        56.332 9
G13  20028095.935 9 105248333.508 9       581.607 9        56.112 9  20028094.970 8  82011673.909 8       453.200 8        51.612 8  20028097.520 9  78594528.542 9       434.317 9        58.212 9
G17  24974940.459 9 131244114.831 9      2932.382 9        54.182 9  24974943.406 8 102268111.604 8      2284.976 8        49.682 8  24974946.731 9  98006944.253 9      2189.770 9        56.282 9
G24  24534769.712 9 128931032.914 9      3533.018 9        54.410 9  24534773.463 8 100465729.011 8      2753.002 8        49.910 8  24534773.647 9  96279651.994 9      2638.294 9        56.510 9
G07  24593925.038 9 129241887.851 9     -2972.037 9        54.359 9  24593926.597 8 100707940.425 8     -2315.876 8        49.859 8  24593929.607 9  96511781.439 9     -2219.382 9        56.459 9
G18  24764789.712 9 130139802.814 9     -1362.782 9        54.337 9  24764790.887 8 101407620.432 8     -1061.909 8        49.837 8  24764793.146 9  97182306.808 9     -1017.663 9        56.437 9
G20  23510106.252 9 123546391.117 9     -3647.986 9        54.728 9  23510107.772 8  96269895.617 8     -2842.589 8        50.228 8  23510110.110 9  92258653.554 9     -2724.148 9        56.828 9
G14  20963830.041 9 110165645.930 9       132.750 9        55.781 9  20963830.013 8  85843348.005 8       103.442 8        51.281 8  20963831.890 9  82266546.525 9        99.132 9        57.881 9
G23  24873847.527 9 130712907.107 9      3231.659 9        54.289 9  24873848.603 8 101854195.611 8      2518.177 8        49.789 8  24873850.840 9  97610274.775 9      2413.253 9        56.389 9
G05  21738976.140 9 114239061.635 9     -2425.758 9        55.472 9  21738975.759 8  89017434.432 8     -1890.202 8        50.972 8  21738978.331 9  85308381.584 9     -1811.444 9        57.572 9
G30  21853663.461 9 114841747.763 9     -2260.369 9        55.477 9  21853665.959 8  89487071.867 8     -1761.328 8        50.977 8  21853665.638 9  85758439.462 9     -1687.939 9        57.577 9
G15  21121770.411 9 110995626.957 9      2298.400 9        55.709 9  21121769.916 8  86490083.941 8      1790.962 8        51.209 8  21121772.352 9  82886337.190 9      1716.338 9        57.809 9
E05  23314336.188 9 122517642.617 9       362.190 9        57.976 9  23314336.188 9 122517642.617 9       362.190 9        57.976 9  23314338.712 9  91490444.890 9       270.466 9        57.836 9  23314338.712 9  91490444.890 9       270.466 9        57.836 9  23314338.532 9  93877152.872 9       277.522 9        57.836 9  23314338.532 9  93877152.872 9       277.522 9        57.836 9  23314338.621 9  92683798.883 9       273.994 9        60.847 9  23314338.621 9  92683798.883 9       273.994 9        60.847 9
E09  25212285.943 9 132491424.840 9     -2093.227 9        57.367 9  25212285.943 9 132491424.840 9     -2093.227 9        57.367 9  25212288.860 9  98938394.133 9     -1563.126 9        57.227 9  25212288.860 9  98938394.133 9     -1563.126 9        57.227 9  25212288.585 9 101519396.824 9     -1603.903 9        57.227 9  25212288.585 9 101519396.824 9     -1603.903 9        57.227 9  25212288.720 9 100228895.482 9     -1583.514 9        60.237 9  25212288.720 9 100228895.482 9     -1583.514 9        60.237 9
E13  28148073.113 9 147919075.957 9       330.160 9        56.288 9  28148073.113 9 147919075.957 9       330.160 9        56.288 9  28148076.798 9 110459037.070 9       246.548 9        56.148 9  28148076.798 9 110459037.070 9       246.548 9        56.148 9  28148076.399 9 113340578.776 9       252.980 9        56.148 9  28148076.399 9 113340578.776 9       252.980 9        56.148 9  28148076.595 9 111899807.928 9       249.764 9        59.158 9  28148076.595 9 111899807.928 9       249.764 9        59.158 9
E25  27082316.632 9 142318483.810 9      3131.361 9        56.720 9  27082316.632 9 142318483.810 9      3131.361 9        56.720 9  27082321.507 9 106276778.982 9      2338.356 9        56.581 9  27082321.507 9 106276778.982 9      2338.356 9        56.581 9  27082321.073 9 109049218.442 9      2399.356 9        56.581 9  27082321.073 9 109049218.442 9      2399.356 9        56.581 9  27082321.286 9 107662998.717 9      2368.856 9        59.591 9  27082321.286 9 107662998.717 9      2368.856 9        59.591 9
E31  24965294.459 9 131193478.984 9     -1536.375 9        57.423 9  24965294.459 9 131193478.984 9     -1536.375 9        57.423 9  24965297.636 9  97969151.741 9     -1147.294 9        57.284 9  24965297.636 9  97969151.741 9     -1147.294 9        57.284 9  24965297.388 9 100524869.739 9     -1177.223 9        57.284 9  24965297.388 9 100524869.739 9     -1177.223 9        57.284 9  24965297.510 9  99247010.743 9     -1162.259 9        60.294 9  24965297.510 9  99247010.743 9     -1162.259 9        60.294 9
E15  27823473.081 9 146213291.315 9     -1856.624 9        56.363 9  27823473.081 9 146213291.315 9     -1856.624 9        56.363 9  27823478.202 9 109185242.512 9     -1386.441 9        56.224 9  27823478.202 9 109185242.512 9     -1386.441 9        56.224 9  27823477.803 9 112033554.793 9     -1422.609 9        56.224 9  27823477.803 9 112033554.793 9     -1422.609 9        56.224 9  27823477.999 9 110609398.658 9     -1404.525 9        59.234 9  27823477.999 9 110609398.658 9     -1404.525 9        59.234 9
E03  26328944.123 9 138359500.545 9      2463.943 9        56.971 9  26328944.123 9 138359500.545 9      2463.943 9        56.971 9  26328947.626 9 103320399.459 9      1839.958 9        56.831 9  26328947.626 9 103320399.459 9      1839.958 9        56.831 9  26328947.329 9 106015715.423 9      1887.957 9        56.831 9  26328947.329 9 106015715.423 9      1887.957 9        56.831 9  26328947.474 9 104668057.444 9      1863.957 9        59.842 9  26328947.474 9 104668057.444 9      1863.957 9        59.842 9
E24  24086913.696 9 126577562.024 9      1247.617 9        57.795 9  24086913.696 9 126577562.024 9      1247.617 9        57.795 9  24086914.715 9  94522195.324 9       931.662 9        57.655 9  24086914.715 9  94522195.324 9       931.662 9        57.655 9  24086914.511 9  96987992.543 9       955.966 9        57.655 9  24086914.511 9  96987992.543 9       955.966 9        57.655 9  24086914.611 9  95755093.936 9       943.814 9        60.665 9  24086914.611 9  95755093.936 9       943.814 9        60.665 9
> 2023 01 08 10 00  8.0000000  0 20       0.000000000000
G08  25067476.413 9 131730427.076 9     -1481.514 9        54.232 9  25067480.521 8 102647077.352 8     -1154.427 8        49.732 8  25067480.231 9  98370109.133 9     -1106.325 9        56.332 9
G13  20027985.304 9 105247752.138 9       581.133 9        56.112 9  20027984.339 8  82011220.893 8       452.831 8        51.612 8  20027986.889 9  78594094.402 9       433.963 9        58.212 9
G17  24974382.449 9 131241182.487 9      2932.338 9        54.182 9  24974385.397 8 102265826.664 8      2284.942 8        49.682 8  24974388.721 9  98004754.519 9      2189.737 9        56.282 9
G24  24534097.410 9 128927499.949 9      3532.914 9        54.411 9  24534101.161 8 100462976.053 8      2752.921 8        49.911 8  24534101.344 9  96277013.743 9      2638.216 9        56.511 9
G07  24594490.602 9 129244859.899 9     -2972.088 9        54.359 9  24594492.162 8 100710256.304 8     -2315.915 8        49.859 8  24594495.172 9  96514000.823 9     -2219.419 9        56.459 9
G18  24765049.091 9 130141165.859 9     -1363.310 9        54.337 9  24765050.266 8 101408682.545 8     -1062.321 8        49.837 8  24765052.525 9  97183324.666 9     -1018.057 9        56.437 9
G20  23510800.455 9 123550039.167 9     -3648.134 9        54.728 9  23510801.976 8  96272738.251 8     -2842.705 8        50.228 8  23510804.313 9  92261377.744 9     -2724.259 9        56.828 9
G14  20963804.842 9 110165513.509 9       132.091 9        55.781 9  20963804.814 8  85843244.820 8       102.928 8        51.281 8  20963806.691 9  82266447.639 9        98.639 9        57.881 9
G23  24873232.592 9 130709675.606 9      3231.352 9        54.289 9  24873233.668 8 101851677.559 8      2517.938 8        49.789 8  24873235.904 9  97607861.643 9      2413.024 9        56.389 9
G05  21739437.796 9 114241487.650 9     -2426.277 9        55.472 9  21739437.415 8  89019324.832 8     -1890.607 8        50.972 8  21739439.987 9  85310193.217 9     -1811.832 9        57.572 9
G30  21854093.620 9 114844008.261 9     -2260.639 9        55.477 9  21854096.118 8  89488833.294 8     -1761.538 8        50.977 8  21854095.798 9  85760127.495 9     -1688.140 9        57.577 9
G15  21121333.081 9 110993328.772 9      2297.970 9        55.709 9  21121332.586 8  86488293.148 8      1790.627 8        51.209 8  21121335.021 9  82884621.014 9      1716.017 9        57.809 9
E05  23314267.295 9 122517280.585 9       361.873 9        57.976 9  23314267.295 9 122517280.585 9       361.873 9        57.976 9  23314269.820 9  91490174.541 9       270.230 9        57.836 9  23314269.820 9  91490174.541 9       270.230 9        57.836 9  23314269.640 9  93876875.470 9       277.279 9        57.836 9  23314269.640 9  93876875.470 9       277.279 9        57.836 9  23314269.728 9  92683525.008 9       273.755 9        60.847 9  23314269.728 9  92683525.008 9       273.755 9        60.847 9
E09  25212684.294 9 132493518.179 9     -2093.463 9        57.366 9  25212684.294 9 132493518.179 9     -2093.463 9        57.366 9  25212687.210 9  98939957.339 9     -1563.301 9        57.227 9  25212687.210 9  98939957.339 9     -1563.301 9        57.227 9  25212686.936 9 101521000.810 9     -1604.083 9        57.227 9  25212686.936 9 101521000.810 9     -1604.083 9        57.227 9  25212687.070 9 100230479.078 9     -1583.692 9        60.237 9  25212687.070 9 100230479.078 9     -1583.692 9        60.237 9
E13  28148010.333 9 147918746.045 9       329.665 9        56.288 9  28148010.333 9 147918746.045 9       329.665 9        56.288 9  28148014.018 9 110458790.707 9       246.179 9        56.148 9  28148014.018 9 110458790.707 9       246.179 9        56.148 9  28148013.619 9 113340325.986 9       252.601 9        56.148 9  28148013.619 9 113340325.986 9       252.601 9        56.148 9  28148013.814 9 111899558.352 9       249.390 9        59.158 9  28148013.814 9 111899558.352 9       249.390 9        59.158 9
E25  27081720.765 9 142315352.514 9      3131.243 9        56.721 9  27081720.765 9 142315352.514 9      3131.243 9        56.721 9  27081725.640 9 106274440.678 9      2338.268 9        56.581 9  27081725.640 9 106274440.678 9      2338.268 9        56.581 9  27081725.206 9 109046819.138 9      2399.266 9        56.581 9  27081725.206 9 109046819.138 9      2399.266 9        56.581 9  27081725.419 9 107660629.913 9      2368.767 9        59.591 9  27081725.419 9 107660629.913 9      2368.767 9        59.591 9
E31  24965586.857 9 131195015.543 9     -1536.750 9        57.423 9  24965586.857 9 131195015.543 9     -1536.750 9        57.423 9  24965590.034 9  97970299.171 9     -1147.574 9        57.283 9  24965590.034 9  97970299.171 9     -1147.574 9        57.283 9  24965589.787 9 100526047.102 9     -1177.511 9        57.283 9  24965589.787 9 100526047.102 9     -1177.511 9        57.283 9  24965589.908 9  99248173.139 9     -1162.542 9        60.294 9  24965589.908 9  99248173.139 9     -1162.542 9        60.294 9
E15  27823826.418 9 146215148.112 9     -1856.973 9        56.363 9  27823826.418 9 146215148.112 9     -1856.973 9        56.363 9  27823831.540 9 109186629.080 9     -1386.701 9        56.223 9  27823831.540 9 109186629.080 9     -1386.701 9        56.223 9  27823831.141 9 112034977.533 9     -1422.876 9        56.223 9  27823831.141 9 112034977.533 9     -1422.876 9        56.223 9  27823831.337 9 110610803.312 9     -1404.789 9        59.234 9  27823831.337 9 110610803.312 9     -1404.789 9        59.234 9
E03  26328475.259 9 138357036.652 9      2463.844 9        56.971 9  26328475.259 9 138357036.652 9      2463.844 9        56.971 9  26328478.762 9 103318559.539 9      1839.885 9        56.832 9  26328478.762 9 103318559.539 9      1839.885 9        56.832 9  26328478.465 9 106013827.505 9      1887.881 9        56.832 9  26328478.465 9 106013827.505 9      1887.881 9        56.832 9  26328478.611 9 104666193.526 9      1863.883 9        59.842 9  26328478.611 9 104666193.526 9      1863.883 9        59.842 9
E24  24086676.323 9 126576314.625 9      1247.183 9        57.795 9  24086676.323 9 126576314.625 9      1247.183 9        57.795 9  24086677.343 9  94521263.824 9       931.339 9        57.655 9  24086677.343 9  94521263.824 9       931.339 9        57.655 9  24086677.139 9  96987036.744 9       955.634 9        57.655 9  24086677.139 9  96987036.744 9       955.634 9        57.655 9  24086677.239 9  95754150.287 9       943.486 9        60.665 9  24086677.239 9  95754150.287 9       943.486 9        60.665 9
> 2023 01 08 10 00  9.0000000  0 20       0.000000000000
G08  25067758.391 9 131731908.880 9     -1482.092 9        54.232 9  25067762.498 8 102648232.004 8     -1154.877 8        49.732 8  25067762.209 9  98371215.675 9     -1106.757 9        56.332 9
G13  20027874.763 9 105247171.241 9       580.660 9        56.112 9  20027873.798 8  82010768.246 8       452.462 8        51.612 8  20027876.349 9  78593660.615 9       433.609 9        58.212 9
G17  24973824.449 9 131238250.187 9      2932.294 9        54.183 9  24973827.395 8 102263541.758 8      2284.907 8        49.683 8  24973830.719 9  98002564.819 9      2189.704 9        56.283 9
G24  24533425.128 9 128923967.089 9      3532.810 9        54.411 9  24533428.878 8 100460223.176 8      2752.840 8        49.911 8  24533429.062 9  96274375.569 9      2638.138 9        56.511 9
G07  24595056.176 9 129247831.998 9     -2972.138 9        54.359 9  24595057.736 8 100712572.223 8     -2315.954 8        49.859 8  24595060.747 9  96516220.244 9     -2219.457 9        56.459 9
G18  24765308.571 9 130142529.432 9     -1363.838 9        54.337 9  24765309.746 8 101409745.068 8     -1062.732 8        49.837 8  24765312.005 9  97184342.917 9     -1018.452 9        56.437 9
G20  23511494.686 9 123553687.366 9     -3648.283 9        54.728 9  23511496.208 8  96275581.000 8     -2842.821 8        50.228 8  23511498.545 9  92264102.045 9     -2724.370 9        56.828 9
G14  20963779.769 9 110165381.748 9       131.432 9        55.781 9  20963779.741 8  85843142.148 8       102.415 8        51.281 8  20963781.617 9  82266349.245 9        98.147 9        57.881 9
G23  24872617.715 9 130706444.412 9      3231.045 9        54.289 9  24872618.791 8 101849159.747 8      2517.698 8        49.789 8  24872621.027 9  97605448.740 9      2412.795 9        56.389 9
G05  21739899.550 9 114243914.184 9     -2426.797 9        55.472 9  21739899.170 8  89021215.637 8     -1891.011 8        50.972 8  21739901.742 9  85312005.238 9     -1812.219 9        57.572 9
G30  21854523.831 9 114846269.029 9     -2260.908 9        55.477 9  21854526.329 8  89490594.930 8     -1761.747 8        50.977 8  21854526.008 9  85761815.730 9     -1688.341 9        57.577 9
G15  21120895.832 9 110991031.017 9      2297.541 9        55.709 9  21120895.337 8  86486502.690 8      1790.292 8        51.209 8  21120897.772 9  82882905.158 9      1715.696 9        57.809 9
E05  23314198.463 9 122516918.870 9       361.557 9        57.976 9  23314198.463 9 122516918.870 9       361.557 9        57.976 9  23314200.988 9  91489904.429 9       269.993 9        57.836 9  23314200.988 9  91489904.429 9       269.993 9        57.836 9  23314200.808 9  93876598.312 9       277.037 9        57.836 9  23314200.808 9  93876598.312 9       277.037 9        57.836 9  23314200.896 9  92683251.373 9       273.515 9        60.847 9  23314200.896 9  92683251.373 9       273.515 9        60.847 9
E09  25213082.688 9 132495611.754 9     -2093.698 9        57.366 9  25213082.688 9 132495611.754 9     -2093.698 9        57.366 9  25213085.605 9  98941520.722 9     -1563.477 9        57.226 9  25213085.605 9  98941520.722 9     -1563.477 9        57.226 9  25213085.331 9 101522604.976 9     -1604.263 9        57.226 9  25213085.331 9 101522604.976 9     -1604.263 9        57.226 9  25213085.465 9 100232062.852 9     -1583.870 9        60.237 9  25213085.465 9 100232062.852 9     -1583.870 9        60.237 9
E13  28147947.647 9 147918416.628 9       329.171 9        56.288 9  28147947.647 9 147918416.628 9       329.171 9        56.288 9  28147951.332 9 110458544.714 9       245.810 9        56.148 9  28147951.332 9 110458544.714 9       245.810 9        56.148 9  28147950.932 9 113340073.575 9       252.222 9        56.148 9  28147950.932 9 113340073.575 9       252.222 9        56.148 9  28147951.128 9 111899309.150 9       249.016 9        59.158 9  28147951.128 9 111899309.150 9       249.016 9        59.158 9
E25  27081124.920 9 142312221.335 9      3131.125 9        56.721 9  27081124.920 9 142312221.335 9      3131.125 9        56.721 9  27081129.795 9 106272102.462 9      2338.179 9        56.581 9  27081129.795 9 106272102.462 9      2338.179 9        56.581 9  27081129.361 9 109044419.925 9      2399.175 9        56.581 9  27081129.361 9 109044419.925 9      2399.175 9        56.581 9  27081129.574 9 107658261.199 9      2368.677 9        59.591 9  27081129.574 9 107658261.199 9      2368.677 9        59.591 9
E31  24965879.327 9 131196552.478 9     -1537.125 9        57.423 9  24965879.327 9 131196552.478 9     -1537.125 9        57.423 9  24965882.504 9  97971446.881 9     -1147.854 9        57.283 9  24965882.504 9  97971446.881 9     -1147.854 9        57.283 9  24965882.256 9 100527224.752 9     -1177.798 9        57.283 9  24965882.256 9 100527224.752 9     -1177.798 9        57.283 9  24965882.378 9  99249335.820 9     -1162.826 9        60.294 9  24965882.378 9  99249335.820 9     -1162.826 9        60.294 9
E15  27824179.822 9 146217005.257 9     -1857.321 9        56.363 9  27824179.822 9 146217005.257 9     -1857.321 9        56.363 9  27824184.944 9 109188015.909 9     -1386.961 9        56.223 9  27824184.944 9 109188015.909 9     -1386.961 9        56.223 9  27824184.545 9 112036400.539 9     -1423.143 9        56.223 9  27824184.545 9 112036400.539 9     -1423.143 9        56.223 9  27824184.740 9 110612208.229 9     -1405.052 9        59.234 9  27824184.740 9 110612208.229 9     -1405.052 9        59.234 9
E03  26328006.414 9 138354572.857 9      2463.746 9        56.972 9  26328006.414 9 138354572.857 9      2463.746 9        56.972 9  26328009.917 9 103316719.693 9      1839.811 9        56.832 9  26328009.917 9 103316719.693 9      1839.811 9        56.832 9  26328009.620 9 106011939.663 9      1887.806 9        56.832 9  26328009.620 9 106011939.663 9      1887.806 9        56.832 9  26328009.765 9 104664329.682 9      1863.809 9        59.842 9  26328009.765 9 104664329.682 9      1863.809 9        59.842 9
E24  24086439.034 9 126575067.659 9      1246.750 9        57.795 9  24086439.034 9 126575067.659 9      1246.750 9        57.795 9  24086440.053 9  94520332.649 9       931.015 9        57.655 9  24086440.053 9  94520332.649 9       931.015 9        57.655 9  24086439.849 9  96986081.277 9       955.302 9        57.655 9  24086439.849 9  96986081.277 9       955.302 9        57.655 9  24086439.949 9  95753206.966 9       943.159 9        60.665 9  24086439.949 9  95753206.966 9       943.159 9        60.665 9
> 2023 01 08 10 00 10.0000000  0 20       0.000000000000
G08  25068040.479 9 131733391.261 9     -1482.671 9        54.232 9  25068044.586 8 102649387.106 8     -1155.328 8        49.732 8  25068044.297 9  98372322.648 9     -1107.189 9        56.332 9
G13  20027764.313 9 105246590.818 9       580.186 9        56.112 9  20027763.348 8  82010315.968 8       452.093 8        51.612 8  20027765.898 9  78593227.182 9       433.256 9        58.212 9
G17  24973266.457 9 131235317.932 9      2932.249 9        54.183 9  24973269.402 8 102261256.888 8      2284.873 8        49.683 8  24973272.726 9  98000375.152 9      2189.671 9        56.283 9
G24  24532752.866 9 128920434.332 9      3532.706 9        54.411 9  24532756.616 8 100457470.380 8      2752.759 8        49.911 8  24532756.800 9  96271737.473 9      2638.061 9        56.511 9
G07  24595621.759 9 129250804.147 9     -2972.188 9        54.359 9  24595623.320 8 100714888.180 8     -2315.993 8        49.859 8  24595626.331 9  96518439.703 9     -2219.494 9        56.459 9
G18  24765568.151 9 130143893.533 9     -1364.366 9        54.337 9  24765569.327 8 101410808.003 8     -1063.143 8        49.837 8  24765571.586 9  97185361.563 9     -1018.846 9        56.437 9
G20  23512188.946 9 123557335.713 9     -3648.431 9        54.728 9  23512190.468 8  96278423.866 8     -2842.936 8        50.228 8  23512192.805 9  92266826.457 9     -2724.481 9        56.828 9
G14  20963754.821 9 110165250.645 9       130.773 9        55.781 9  20963754.793 8  85843039.990 8       101.901 8        51.281 8  20963756.669 9  82266251.344 9        97.655 9        57.881 9
G23  24872002.897 9 130703213.524 9      3230.737 9        54.289 9  24872003.972 8 101846642.174 8      2517.459 8        49.789 8  24872006.208 9  97603036.066 9      2412.565 9        56.389 9
G05  21740361.404 9 114246341.237 9     -2427.316 9        55.472 9  21740361.024 8  89023106.846 8     -1891.416 8        50.972 8  21740363.596 9  85313817.647 9     -1812.607 9        57.572 9
G30  21854954.093 9 114848530.066 9     -2261.177 9        55.477 9  21854956.591 8  89492356.776 8     -1761.957 8        50.977 8  21854956.270 9  85763504.165 9     -1688.542 9        57.577 9
G15  21120458.665 9 110988733.692 9      2297.111 9        55.710 9  21120458.170 8  86484712.567 8      1789.957 8        51.210 8  21120460.605 9  82881189.623 9      1715.375 9        57.810 9
E05  23314129.691 9 122516557.471 9       361.240 9        57.976 9  23314129.691 9 122516557.471 9       361.240 9        57.976 9  23314132.216 9  91489634.553 9       269.757 9        57.836 9  23314132.216 9  91489634.553 9       269.757 9        57.836 9  23314132.036 9  93876321.396 9       276.794 9        57.836 9  23314132.036 9  93876321.396 9       276.794 9        57.836 9  23314132.124 9  92682977.977 9       273.275 9        60.847 9  23314132.124 9  92682977.977 9       273.275 9        60.847 9
E09  25213481.128 9 132497705.563 9     -2093.933 9        57.366 9  25213481.128 9 132497705.563 9     -2093.933 9        57.366 9  25213484.045 9  98943084.280 9     -1563.652 9        57.226 9  25213484.045 9  98943084.280 9     -1563.652 9        57.226 9  25213483.771 9 101524209.323 9     -1604.443 9        57.226 9  25213483.771 9 101524209.323 9     -1604.443 9        57.226 9  25213483.905 9 100233646.805 9     -1584.048 9        60.237 9  25213483.905 9 100233646.805 9     -1584.048 9        60.237 9
E13  28147885.055 9 147918087.704 9       328.676 9        56.288 9  28147885.055 9 147918087.704 9       328.676 9        56.288 9  28147888.740 9 110458299.090 9       245.440 9        56.148 9  28147888.740 9 110458299.090 9       245.440 9        56.148 9  28147888.340 9 113339821.543 9       251.843 9        56.148 9  28147888.340 9 113339821.543 9       251.843 9        56.148 9  28147888.536 9 111899060.322 9       248.642 9        59.158 9  28147888.536 9 111899060.322 9       248.642 9        59.158 9
E25  27080529.098 9 142309090.274 9      3131.007 9        56.721 9  27080529.098 9 142309090.274 9      3131.007 9        56.721 9  27080533.972 9 106269764.334 9      2338.091 9        56.581 9  27080533.972 9 106269764.334 9      2338.091 9        56.581 9  27080533.538 9 109042020.802 9      2399.085 9        56.581 9  27080533.538 9 109042020.802 9      2399.085 9        56.581 9  27080533.751 9 107655892.573 9      2368.588 9        59.591 9  27080533.751 9 107655892.573 9      2368.588 9        59.591 9
E31  24966171.867 9 131198089.787 9     -1537.500 9        57.423 9  24966171.867 9 131198089.787 9     -1537.500 9        57.423 9  24966175.045 9  97972594.871 9     -1148.134 9        57.283 9  24966175.045 9  97972594.871 9     -1148.134 9        57.283 9  24966174.797 9 100528402.690 9     -1178.085 9        57.283 9  24966174.797 9 100528402.690 9     -1178.085 9        57.283 9  24966174.918 9  99250498.784 9     -1163.110 9        60.294 9  24966174.918 9  99250498.784 9     -1163.110 9        60.294 9
E15  27824533.292 9 146218862.751 9     -1857.669 9        56.363 9  27824533.292 9 146218862.751 9     -1857.669 9        56.363 9  27824538.414 9 109189402.997 9     -1387.222 9        56.223 9  27824538.414 9 109189402.997 9     -1387.222 9        56.223 9  27824538.015 9 112037823.813 9     -1423.410 9        56.223 9  27824538.015 9 112037823.813 9     -1423.410 9        56.223 9  27824538.211 9 110613613.410 9     -1405.316 9        59.234 9  27824538.211 9 110613613.410 9     -1405.316 9        59.234 9
E03  26327537.588 9 138352109.160 9      2463.648 9        56.972 9  26327537.588 9 138352109.160 9      2463.648 9        56.972 9  26327541.090 9 103314879.920 9      1839.738 9        56.832 9  26327541.090 9 103314879.920 9      1839.738 9        56.832 9  26327540.793 9 106010051.896 9      1887.731 9        56.832 9  26327540.793 9 106010051.896 9      1887.731 9        56.832 9  26327540.939 9 104662465.911 9      1863.734 9        59.842 9  26327540.939 9 104662465.911 9      1863.734 9        59.842 9
E24  24086201.826 9 126573821.127 9      1246.317 9        57.795 9  24086201.826 9 126573821.127 9      1246.317 9        57.795 9  24086202.845 9  94519401.797 9       930.691 9        57.655 9  24086202.845 9  94519401.797 9       930.691 9        57.655 9  24086202.642 9  96985126.142 9       954.970 9        57.655 9  24086202.642 9  96985126.142 9       954.970 9        57.655 9  24086202.741 9  95752263.972 9       942.831 9        60.665 9  24086202.741 9  95752263.972 9       942.831 9        60.665 9
> 2023 01 08 10 00 11.0000000  0 20       0.000000000000
G08  25068322.677 9 131734874.221 9     -1483.249 9        54.232 9  25068326.784 8 102650542.659 8     -1155.778 8        49.732 8  25068326.494 9  98373430.053 9     -1107.621 9        56.332 9
G13  20027653.952 9 105246010.868 9       579.712 9        56.112 9  20027652.987 8  82009864.059 8       451.724 8        51.612 8  20027655.537 9  78592794.103 9       432.902 9        58.212 9
G17  24972708.473 9 131232385.721 9      2932.205 9        54.183 9  24972711.417 8 102258972.051 8      2284.838 8        49.683 8  24972714.741 9  97998185.518 9      2189.637 9        56.283 9
G24  24532080.624 9 128916901.680 9      3532.601 9        54.411 9  24532084.373 8 100454717.665 8      2752.678 8        49.911 8  24532084.557 9  96269099.455 9      2637.983 9        56.511 9
G07  24596187.352 9 129253776.346 9     -2972.238 9        54.359 9  24596188.913 8 100717204.176 8     -2316.032 8        49.859 8  24596191.924 9  96520659.198 9     -2219.531 9        56.459 9
G18  24765827.832 9 130145258.161 9     -1364.894 9        54.337 9  24765829.007 8 101411871.350 8     -1063.555 8        49.837 8  24765831.267 9  97186380.604 9     -1019.240 9        56.437 9
G20  23512883.233 9 123560984.208 9     -3648.580 9        54.727 9  23512884.756 8  96281266.846 8     -2843.052 8        50.227 8  23512887.094 9  92269550.979 9     -2724.592 9        56.827 9
G14  20963729.998 9 110165120.201 9       130.114 9        55.781 9  20963729.970 8  85842938.345 8       101.388 8        51.281 8  20963731.847 9  82266153.934 9        97.163 9        57.881 9
G23  24871388.137 9 130699982.945 9      3230.430 9        54.290 9  24871389.211 8 101844124.840 8      2517.220 8        49.790 8  24871391.448 9  97600623.621 9      2412.336 9        56.390 9
G05  21740823.357 9 114248768.810 9     -2427.835 9        55.471 9  21740822.977 8  89024998.460 8     -1891.821 8        50.971 8  21740825.549 9  85315630.443 9     -1812.995 9        57.571 9
G30  21855384.406 9 114850791.372 9     -2261.446 9        55.477 9  21855386.904 8  89494118.831 8     -1762.167 8        50.977 8  21855386.584 9  85765192.801 9     -1688.743 9        57.577 9
G15  21120021.580 9 110986436.796 9      2296.681 9        55.710 9  21120021.085 8  86482922.779 8      1789.622 8        51.210 8  21120023.520 9  82879474.410 9      1715.054 9        57.810 9
E05  23314060.980 9 122516196.389 9       360.923 9        57.976 9  23314060.980 9 122516196.389 9       360.923 9        57.976 9  23314063.505 9  91489364.914 9       269.520 9        57.836 9  23314063.505 9  91489364.914 9       269.520 9        57.836 9  23314063.325 9  93876044.722 9       276.551 9        57.836 9  23314063.325 9  93876044.722 9       276.551 9        57.836 9  23314063.413 9  92682704.820 9       273.036 9        60.847 9  23314063.413 9  92682704.820 9       273.036 9        60.847 9
E09  25213879.612 9 132499799.608 9     -2094.168 9        57.366 9  25213879.612 9 132499799.608 9     -2094.168 9        57.366 9  25213882.530 9  98944648.013 9     -1563.828 9        57.226 9  25213882.530 9  98944648.013 9     -1563.828 9        57.226 9  25213882.255 9 101525813.850 9     -1604.623 9        57.226 9  25213882.255 9 101525813.850 9     -1604.623 9        57.226 9  25213882.390 9 100235230.935 9     -1584.226 9        60.236 9  25213882.390 9 100235230.935 9     -1584.226 9        60.236 9
E13  28147822.557 9 147917759.276 9       328.182 9        56.288 9  28147822.557 9 147917759.276 9       328.182 9        56.288 9  28147826.242 9 110458053.834 9       245.071 9        56.148 9  28147826.242 9 110458053.834 9       245.071 9        56.148 9  28147825.842 9 113339569.890 9       251.464 9        56.148 9  28147825.842 9 113339569.890 9       251.464 9        56.148 9  28147826.038 9 111898811.867 9       248.268 9        59.158 9  28147826.038 9 111898811.867 9       248.268 9        59.158 9
E25  27079933.298 9 142305959.332 9      3130.888 9        56.721 9  27079933.298 9 142305959.332 9      3130.888 9        56.721 9  27079938.172 9 106267426.294 9      2338.003 9        56.581 9  27079938.172 9 106267426.294 9      2338.003 9        56.581 9  27079937.738 9 109039621.770 9      2398.994 9        56.581 9  27079937.738 9 109039621.770 9      2398.994 9        56.581 9  27079937.951 9 107653524.038 9      2368.498 9        59.592 9  27079937.951 9 107653524.038 9      2368.498 9        59.592 9
E31  24966464.479 9 131199627.472 9     -1537.875 9        57.423 9  24966464.479 9 131199627.472 9     -1537.875 9        57.423 9  24966467.657 9  97973743.141 9     -1148.414 9        57.283 9  24966467.657 9  97973743.141 9     -1148.414 9        57.283 9  24966467.409 9 100529580.915 9     -1178.373 9        57.283 9  24966467.409 9 100529580.915 9     -1178.373 9        57.283 9  24966467.531 9  99251662.031 9     -1163.393 9        60.293 9  24966467.531 9  99251662.031 9     -1163.393 9        60.293 9
E15  27824886.828 9 146220720.593 9     -1858.018 9        56.363 9  27824886.828 9 146220720.593 9     -1858.018 9        56.363 9  27824891.950 9 109190790.346 9     -1387.482 9        56.223 9  27824891.950 9 109190790.346 9     -1387.482 9        56.223 9  27824891.551 9 112039247.353 9     -1423.677 9        56.223 9  27824891.551 9 112039247.353 9     -1423.677 9        56.223 9  27824891.747 9 110615018.855 9     -1405.579 9        59.233 9  27824891.747 9 110615018.855 9     -1405.579 9        59.233 9
E03  26327068.780 9 138349645.561 9      2463.550 9        56.972 9  26327068.780 9 138349645.561 9      2463.550 9        56.972 9  26327072.282 9 103313040.220 9      1839.665 9        56.832 9  26327072.282 9 103313040.220 9      1839.665 9        56.832 9  26327071.985 9 106008164.204 9      1887.656 9        56.832 9  26327071.985 9 106008164.204 9      1887.656 9        56.832 9  26327072.131 9 104660602.216 9      1863.660 9        59.842 9  26327072.131 9 104660602.216 9      1863.660 9        59.842 9
E24  24085964.701 9 126572575.028 9      1245.883 9        57.795 9  24085964.701 9 126572575.028 9      1245.883 9        57.795 9  24085965.720 9  94518471.269 9       930.368 9        57.655 9  24085965.720 9  94518471.269 9       930.368 9        57.655 9  24085965.517 9  96984171.339 9       954.638 9        57.655 9  24085965.517 9  96984171.339 9       954.638 9        57.655 9  24085965.617 9  95751321.307 9       942.503 9        60.666 9  24085965.617 9  95751321.307 9       942.503 9        60.666 9
> 2023 01 08 10 00 12.0000000  0 20       0.000000000000
G08  25068604.984 9 131736357.759 9     -1483.827 9        54.232 9  25068609.091 8 102651698.663 8     -1156.229 8        49.732 8  25068608.802 9  98374537.890 9     -1108.052 9        56.332 9
G13  20027543.681 9 105245431.392 9       579.239 9        56.112 9  20027542.716 8  82009412.520 8       451.355 8        51.612 8  20027545.267 9  78592361.378 9       432.548 9        58.212 9
G17  24972150.498 9 131229453.555 9      2932.160 9        54.183 9  24972153.441 8 102256687.250 8      2284.803 8        49.683 8  24972156.765 9  97995995.917 9      2189.604 9        56.283 9
G24  24531408.401 9 128913369.131 9      3532.497 9        54.412 9  24531412.151 8 100451965.031 8      2752.596 8        49.912 8  24531412.334 9  96266461.514 9      2637.905 9        56.512 9
G07  24596752.954 9 129256748.595 9     -2972.288 9        54.358 9  24596754.516 8 100719520.212 8     -2316.071 8        49.858 8  24596757.527 9  96522878.732 9     -2219.569 9        56.458 9
G18  24766087.613 9 130146623.318 9     -1365.422 9        54.336 9  24766088.789 8 101412935.107 8     -1063.966 8        49.836 8  24766091.048 9  97187400.038 9     -1019.634 9        56.436 9
G20  23513577.549 9 123564632.853 9     -3648.728 9        54.727 9  23513579.073 8  96284109.943 8     -2843.168 8        50.227 8  23513581.411 9  92272275.613 9     -2724.703 9        56.827 9
G14  20963705.301 9 110164990.416 9       129.455 9        55.781 9  20963705.273 8  85842837.214 8       100.874 8        51.281 8  20963707.150 9  82266057.017 9        96.671 9        57.881 9
G23  24870773.435 9 130696752.672 9      3230.123 9        54.290 9  24870774.510 8 101841607.746 8      2516.980 8        49.790 8  24870776.746 9  97598211.407 9      2412.106 9        56.390 9
G05  21741285.408 9 114251196.901 9     -2428.354 9        55.471 9  21741285.028 8  89026890.479 8     -1892.225 8        50.971 8  21741287.600 9  85317443.627 9     -1813.383 9        57.571 9
G30  21855814.770 9 114853052.947 9     -2261.715 9        55.476 9  21855817.269 8  89495881.096 8     -1762.376 8        50.976 8  21855816.948 9  85766881.639 9     -1688.944 9        57.576 9
G15  21119584.577 9 110984140.331 9      2296.250 9        55.710 9  21119584.082 8  86481133.326 8      1789.286 8        51.210 8  21119586.517 9  82877759.518 9      1714.733 9        57.810 9
E05  23313992.329 9 122515835.624 9       360.606 9        57.976 9  23313992.329 9 122515835.624 9       360.606 9        57.976 9  23313994.853 9  91489095.511 9       269.284 9        57.836 9  23313994.853 9  91489095.511 9       269.284 9        57.836 9  23313994.674 9  93875768.292 9       276.309 9        57.836 9  23313994.674 9  93875768.292 9       276.309 9        57.836 9  23313994.762 9  92682431.904 9       272.796 9        60.847 9  23313994.762 9  92682431.904 9       272.796 9        60.847 9
E09  25214278.141 9 132501893.888 9     -2094.403 9        57.366 9  25214278.141 9 132501893.888 9     -2094.403 9        57.366 9  25214281.059 9  98946211.922 9     -1564.004 9        57.226 9  25214281.059 9  98946211.922 9     -1564.004 9        57.226 9  25214280.785 9 101527418.556 9     -1604.804 9        57.226 9  25214280.785 9 101527418.556 9     -1604.804 9        57.226 9  25214280.919 9 100236815.243 9     -1584.404 9        60.236 9  25214280.919 9 100236815.243 9     -1584.404 9        60.236 9
E13  28147760.153 9 147917431.341 9       327.688 9        56.288 9  28147760.153 9 147917431.341 9       327.688 9        56.288 9  28147763.838 9 110457808.949 9       244.702 9        56.148 9  28147763.838 9 110457808.949 9       244.702 9        56.148 9  28147763.438 9 113339318.616 9       251.085 9        56.148 9  28147763.438 9 113339318.616 9       251.085 9        56.148 9  28147763.634 9 111898563.788 9       247.894 9        59.158 9  28147763.634 9 111898563.788 9       247.894 9        59.158 9
E25  27079337.521 9 142302828.508 9      3130.770 9        56.721 9  27079337.521 9 142302828.508 9      3130.770 9        56.721 9  27079342.394 9 106265088.343 9      2337.915 9        56.581 9  27079342.394 9 106265088.343 9      2337.915 9        56.581 9  27079341.961 9 109037222.828 9      2398.903 9        56.581 9  27079341.961 9 109037222.828 9      2398.903 9        56.581 9  27079342.173 9 107651155.591 9      2368.409 9        59.592 9  27079342.173 9 107651155.591 9      2368.409 9        59.592 9
E31  24966757.163 9 131201165.531 9     -1538.250 9        57.423 9  24966757.163 9 131201165.531 9     -1538.250 9        57.423 9  24966760.340 9  97974891.691 9     -1148.694 9        57.283 9  24966760.340 9  97974891.691 9     -1148.694 9        57.283 9  24966760.093 9 100530759.427 9     -1178.660 9        57.283 9  24966760.093 9 100530759.427 9     -1178.660 9        57.283 9  24966760.214 9  99252825.562 9     -1163.677 9        60.293 9  24966760.214 9  99252825.562 9     -1163.677 9        60.293 9
E15  27825240.430 9 146222578.783 9     -1858.366 9        56.363 9  27825240.430 9 146222578.783 9     -1858.366 9        56.363 9  27825245.553 9 109192177.954 9     -1387.742 9        56.223 9  27825245.553 9 109192177.954 9     -1387.742 9        56.223 9  27825245.154 9 112040671.160 9     -1423.944 9        56.223 9  27825245.154 9 112040671.160 9     -1423.944 9        56.223 9  27825245.350 9 110616424.563 9     -1405.843 9        59.233 9  27825245.350 9 110616424.563 9     -1405.843 9        59.233 9
E03  26326599.991 9 138347182.061 9      2463.452 9        56.972 9  26326599.991 9 138347182.061 9      2463.452 9        56.972 9  26326603.493 9 103311200.594 9      1839.591 9        56.832 9  26326603.493 9 103311200.594 9      1839.591 9        56.832 9  26326603.196 9 106006276.587 9      1887.580 9        56.832 9  26326603.196 9 106006276.587 9      1887.580 9        56.832 9  26326603.342 9 104658738.594 9      1863.586 9        59.842 9  26326603.342 9 104658738.594 9      1863.586 9        59.842 9
E24  24085727.659 9 126571329.362 9      1245.450 9        57.795 9  24085727.659 9 126571329.362 9      1245.450 9        57.795 9  24085728.678 9  94517541.064 9       930.044 9        57.655 9  24085728.678 9  94517541.064 9       930.044 9        57.655 9  24085728.474 9  96983216.868 9       954.306 9        57.655 9  24085728.474 9  96983216.868 9       954.306 9        57.655 9  24085728.574 9  95750378.969 9       942.175 9        60.666 9  24085728.574 9  95750378.969 9       942.175 9        60.666 9
> 2023 01 08 10 00 13.0000000  0 20       0.000000000000
G08  25068887.402 9 131737841.874 9     -1484.405 9        54.232 9  25068891.509 8 102652855.117 8     -1156.679 8        49.732 8  25068891.220 9  98375646.158 9     -1108.484 9        56.332 9
G13  20027433.501 9 105244852.390 9       578.765 9        56.112 9  20027432.536 8  82008961.349 8       450.986 8        51.612 8  20027435.086 9  78591929.006 9       432.194 9        58.212 9
G17  24971592.531 9 131226521.433 9      2932.115 9        54.183 9  24971595.474 8 102254402.483 8      2284.769 8        49.683 8  24971598.797 9  97993806.350 9      2189.571 9        56.283 9
G24  24530736.199 9 128909836.687 9      3532.393 9        54.412 9  24530739.948 8 100449212.478 8      2752.515 8        49.912 8  24530740.131 9  96263823.651 9      2637.827 9        56.512 9
G07  24597318.566 9 129259720.894 9     -2972.338 9        54.358 9  24597320.129 8 100721836.286 8     -2316.110 8        49.858 8  24597323.140 9  96525098.302 9     -2219.606 9        56.458 9
G18  24766347.495 9 130147989.002 9     -1365.950 9        54.336 9  24766348.671 8 101413999.276 8     -1064.377 8        49.836 8  24766350.930 9  97188419.866 9     -1020.028 9        56.436 9
G20  23514271.893 9 123568281.645 9     -3648.876 9        54.727 9  23514273.418 8  96286953.155 8     -2843.283 8        50.227 8  23514275.756 9  92275000.357 9     -2724.814 9        56.827 9
G14  20963680.729 9 110164861.290 9       128.796 9        55.781 9  20963680.702 8  85842736.596 8       100.361 8        51.281 8  20963682.578 9  82265960.591 9        96.179 9        57.881 9
G23  24870158.792 9 130693522.707 9      3229.815 9        54.290 9  24870159.866 8 101839090.892 8      2516.740 8        49.790 8  24870162.103 9  97595799.421 9      2411.877 9        56.390 9
G05  21741747.558 9 114253625.512 9     -2428.873 9        55.471 9  21741747.179 8  89028782.902 8     -1892.630 8        50.971 8  21741749.751 9  85319257.199 9     -1813.770 9        57.571 9
G30  21856245.185 9 114855314.790 9     -2261.984 9        55.476 9  21856247.684 8  89497643.571 8     -1762.586 8        50.976 8  21856247.364 9  85768570.677 9     -1689.145 9        57.576 9
G15  21119147.656 9 110981844.296 9      2295.820 9        55.710 9  21119147.161 8  86479344.208 8      1788.951 8        51.210 8  21119149.596 9  82876044.947 9      1714.412 9        57.810 9
E05  23313923.738 9 122515475.175 9       360.290 9        57.976 9  23313923.738 9 122515475.175 9       360.290 9        57.976 9  23313926.262 9  91488826.345 9       269.047 9        57.836 9  23313926.262 9  91488826.345 9       269.047 9        57.836 9  23313926.083 9  93875492.104 9       276.066 9        57.836 9  23313926.083 9  93875492.104 9       276.066 9        57.836 9  23313926.171 9  92682159.227 9       272.557 9        60.847 9  23313926.171 9  92682159.227 9       272.557 9        60.847 9
E09  25214676.715 9 132503988.404 9     -2094.638 9        57.366 9  25214676.715 9 132503988.404 9     -2094.638 9        57.366 9  25214679.633 9  98947776.007 9     -1564.179 9        57.226 9  25214679.633 9  98947776.007 9     -1564.179 9        57.226 9  25214679.359 9 101529023.444 9     -1604.984 9        57.226 9  25214679.359 9 101529023.444 9     -1604.984 9        57.226 9  25214679.493 9 100238399.729 9     -1584.582 9        60.236 9  25214679.493 9 100238399.729 9     -1584.582 9        60.236 9
E13  28147697.843 9 147917103.902 9       327.193 9        56.288 9  28147697.843 9 147917103.902 9       327.193 9        56.288 9  28147701.528 9 110457564.432 9       244.333 9        56.148 9  28147701.528 9 110457564.432 9       244.333 9        56.148 9  28147701.128 9 113339067.721 9       250.706 9        56.148 9  28147701.128 9 113339067.721 9       250.706 9        56.148 9  28147701.324 9 111898316.082 9       247.520 9        59.158 9  28147701.324 9 111898316.082 9       247.520 9        59.158 9
E25  27078741.766 9 142299697.802 9      3130.652 9        56.722 9  27078741.766 9 142299697.802 9      3130.652 9        56.722 9  27078746.639 9 106262750.480 9      2337.826 9        56.582 9  27078746.639 9 106262750.480 9      2337.826 9        56.582 9  27078746.205 9 109034823.977 9      2398.813 9        56.582 9  27078746.205 9 109034823.977 9      2398.813 9        56.582 9  27078746.418 9 107648787.234 9      2368.319 9        59.592 9  27078746.418 9 107648787.234 9      2368.319 9        59.592 9
E31  24967049.918 9 131202703.965 9     -1538.625 9        57.423 9  24967049.918 9 131202703.965 9     -1538.625 9        57.423 9  24967053.095 9  97976040.521 9     -1148.974 9        57.283 9  24967053.095 9  97976040.521 9     -1148.974 9        57.283 9  24967052.848 9 100531938.227 9     -1178.947 9        57.283 9  24967052.848 9 100531938.227 9     -1178.947 9        57.283 9  24967052.969 9  99253989.377 9     -1163.960 9        60.293 9  24967052.969 9  99253989.377 9     -1163.960 9        60.293 9
E15  27825594.099 9 146224437.322 9     -1858.714 9        56.363 9  27825594.099 9 146224437.322 9     -1858.714 9        56.363 9  27825599.222 9 109193565.823 9     -1388.002 9        56.223 9  27825599.222 9 109193565.823 9     -1388.002 9        56.223 9  27825598.823 9 112042095.234 9     -1424.210 9        56.223 9  27825598.823 9 112042095.234 9     -1424.210 9        56.223 9  27825599.019 9 110617830.534 9     -1406.106 9        59.233 9  27825599.019 9 110617830.534 9     -1406.106 9        59.233 9
E03  26326131.221 9 138344718.658 9      2463.353 9        56.972 9  26326131.221 9 138344718.658 9      2463.353 9        56.972 9  26326134.723 9 103309361.041 9      1839.518 9        56.832 9  26326134.723 9 103309361.041 9      1839.518 9        56.832 9  26326134.426 9 106004389.046 9      1887.505 9        56.832 9  26326134.426 9 106004389.046 9      1887.505 9        56.832 9  26326134.571 9 104656875.047 9      1863.511 9        59.843 9  26326134.571 9 104656875.047 9      1863.511 9        59.843 9
E24  24085490.699 9 126570084.130 9      1245.016 9        57.795 9  24085490.699 9 126570084.130 9      1245.016 9        57.795 9  24085491.718 9  94516611.183 9       929.720 9        57.655 9  24085491.718 9  94516611.183 9       929.720 9        57.655 9  24085491.514 9  96982262.730 9       953.974 9        57.655 9  24085491.514 9  96982262.730 9       953.974 9        57.655 9  24085491.614 9  95749436.959 9       941.847 9        60.666 9  24085491.614 9  95749436.959 9       941.847 9        60.666 9
> 2023 01 08 10 00 14.0000000  0 20       0.000000000000
G08  25069169.930 9 131739326.568 9     -1484.983 9        54.232 9  25069174.037 8 102654012.021 8     -1157.129 8        49.732 8  25069173.747 9  98376754.858 9     -1108.916 9        56.332 9
G13  20027323.411 9 105244273.862 9       578.291 9        56.112 9  20027322.446 8  82008510.548 8       450.616 8        51.612 8  20027324.996 9  78591496.988 9       431.841 9        58.212 9
G17  24971034.573 9 131223589.356 9      2932.070 9        54.183 9  24971037.515 8 102252117.751 8      2284.734 8        49.683 8  24971040.838 9  97991616.816 9      2189.537 9        56.283 9
G24  24530064.016 9 128906304.348 9      3532.289 9        54.412 9  24530067.765 8 100446460.007 8      2752.434 8        49.912 8  24530067.948 9  96261185.867 9      2637.749 9        56.512 9
G07  24597884.187 9 129262693.242 9     -2972.388 9        54.358 9  24597885.751 8 100724152.399 8     -2316.149 8        49.858 8  24597888.762 9  96527317.910 9     -2219.643 9        56.458 9
G18  24766607.477 9 130149355.214 9     -1366.477 9        54.336 9  24766608.653 8 101415063.856 8     -1064.788 8        49.836 8  24766610.912 9  97189440.088 9     -1020.422 9        56.436 9
G20  23514966.266 9 123571930.585 9     -3649.025 9        54.727 9  23514967.791 8  96289796.483 8     -2843.398 8        50.227 8  23514970.129 9  92277725.212 9     -2724.924 9        56.827 9
G14  20963656.283 9 110164732.823 9       128.137 9        55.781 9  20963656.255 8  85842636.492 8        99.847 8        51.281 8  20963658.132 9  82265864.658 9        95.687 9        57.881 9
G23  24869544.208 9 130690293.050 9      3229.507 9        54.290 9  24869545.282 8 101836574.277 8      2516.501 8        49.790 8  24869547.518 9  97593387.666 9      2411.647 9        56.390 9
G05  21742209.807 9 114256054.642 9     -2429.392 9        55.471 9  21742209.428 8  89030675.729 8     -1893.034 8        50.971 8  21742212.000 9  85321071.159 9     -1814.158 9        57.571 9
G30  21856675.651 9 114857576.903 9     -2262.253 9        55.476 9  21856678.151 8  89499406.256 8     -1762.795 8        50.976 8  21856677.831 9  85770259.916 9     -1689.346 9        57.576 9
G15  21118710.816 9 110979548.692 9      2295.390 9        55.710 9  21118710.321 8  86477555.426 8      1788.616 8        51.210 8  21118712.756 9  82874330.697 9      1714.090 9        57.810 9
E05  23313855.207 9 122515115.043 9       359.973 9        57.976 9  23313855.207 9 122515115.043 9       359.973 9        57.976 9  23313857.732 9  91488557.415 9       268.811 9        57.836 9  23313857.732 9  91488557.415 9       268.811 9        57.836 9  23313857.552 9  93875216.158 9       275.823 9        57.836 9  23313857.552 9  93875216.158 9       275.823 9        57.836 9  23313857.640 9  92681886.789 9       272.317 9        60.847 9  23313857.640 9  92681886.789 9       272.317 9        60.847 9
E09  25215075.334 9 132506083.154 9     -2094.874 9        57.366 9  25215075.334 9 132506083.154 9     -2094.874 9        57.366 9  25215078.252 9  98949340.268 9     -1564.355 9        57.226 9  25215078.252 9  98949340.268 9     -1564.355 9        57.226 9  25215077.978 9 101530628.511 9     -1605.164 9        57.226 9  25215077.978 9 101530628.511 9     -1605.164 9        57.226 9  25215078.112 9 100239984.393 9     -1584.759 9        60.236 9  25215078.112 9 100239984.393 9     -1584.759 9        60.236 9
E13  28147635.627 9 147916776.956 9       326.698 9        56.288 9  28147635.627 9 147916776.956 9       326.698 9        56.288 9  28147639.312 9 110457320.285 9       243.963 9        56.148 9  28147639.312 9 110457320.285 9       243.963 9        56.148 9  28147638.913 9 113338817.205 9       250.328 9        56.148 9  28147638.913 9 113338817.205 9       250.328 9        56.148 9  28147639.108 9 111898068.750 9       247.145 9        59.158 9  28147639.108 9 111898068.750 9       247.145 9        59.158 9
E25  27078146.034 9 142296567.214 9      3130.533 9        56.722 9  27078146.034 9 142296567.214 9      3130.533 9        56.722 9  27078150.906 9 106260412.705 9      2337.738 9        56.582 9  27078150.906 9 106260412.705 9      2337.738 9        56.582 9  27078150.473 9 109032425.217 9      2398.722 9        56.582 9  27078150.473 9 109032425.217 9      2398.722 9        56.582 9  27078150.686 9 107646418.967 9      2368.230 9        59.592 9  27078150.686 9 107646418.967 9      2368.230 9        59.592 9
E31  24967342.744 9 131204242.774 9     -1539.000 9        57.423 9  24967342.744 9 131204242.774 9     -1539.000 9        57.423 9  24967345.922 9  97977189.631 9     -1149.254 9        57.283 9  24967345.922 9  97977189.631 9     -1149.254 9        57.283 9  24967345.674 9 100533117.314 9     -1179.234 9        57.283 9  24967345.674 9 100533117.314 9     -1179.234 9        57.283 9  24967345.795 9  99255153.475 9     -1164.244 9        60.293 9  24967345.795 9  99255153.475 9     -1164.244 9        60.293 9
E15  27825947.834 9 146226296.208 9     -1859.062 9        56.363 9  27825947.834 9 146226296.208 9     -1859.062 9        56.363 9  27825952.957 9 109194953.952 9     -1388.262 9        56.223 9  27825952.957 9 109194953.952 9     -1388.262 9        56.223 9  27825952.558 9 112043519.575 9     -1424.477 9        56.223 9  27825952.558 9 112043519.575 9     -1424.477 9        56.223 9  27825952.754 9 110619236.769 9     -1406.369 9        59.233 9  27825952.754 9 110619236.769 9     -1406.369 9        59.233 9
E03  26325662.469 9 138342255.355 9      2463.255 9        56.972 9  26325662.469 9 138342255.355 9      2463.255 9        56.972 9  26325665.971 9 103307521.561 9      1839.444 9        56.832 9  26325665.971 9 103307521.561 9      1839.444 9        56.832 9  26325665.674 9 106002501.580 9      1887.430 9        56.832 9  26325665.674 9 106002501.580 9      1887.430 9        56.832 9  26325665.820 9 104655011.574 9      1863.437 9        59.843 9  26325665.820 9 104655011.574 9      1863.437 9        59.843 9
E24  24085253.822 9 126568839.332 9      1244.583 9        57.795 9  24085253.822 9 126568839.332 9      1244.583 9        57.795 9  24085254.840 9  94515681.626 9       929.396 9        57.656 9  24085254.840 9  94515681.626 9       929.396 9        57.656 9  24085254.637 9  96981308.923 9       953.642 9        57.656 9  24085254.637 9  96981308.923 9       953.642 9        57.656 9  24085254.737 9  95748495.277 9       941.519 9        60.666 9  24085254.737 9  95748495.277 9       941.519 9        60.666 9
> 2023 01 08 10 00 15.0000000  0 20       0.000000000000
G08  25069452.567 9 131740811.840 9     -1485.561 9        54.232 9  25069456.674 8 102655169.376 8     -1157.580 8        49.732 8  25069456.385 9  98377863.990 9     -1109.347 9        56.332 9
G13  20027213.411 9 105243695.807 9       577.817 9        56.112 9  20027212.446 8  82008060.115 8       450.247 8        51.612 8  20027214.996 9  78591065.323 9       431.487 9        58.212 9
G17  24970476.623 9 131220657.324 9      2932.025 9        54.184 9  24970479.564 8 102249833.055 8      2284.699 8        49.684 8  24970482.887 9  97989427.315 9      2189.504 9        56.284 9
G24  24529391.853 9 128902772.112 9      3532.184 9        54.412 9  24529395.602 8 100443707.616 8      2752.353 8        49.912 8  24529395.785 9  96258548.160 9      2637.672 9        56.512 9
G07  24598449.818 9 129265665.641 9     -2972.437 9        54.358 9  24598451.382 8 100726468.551 8     -2316.188 8        49.858 8  24598454.394 9  96529537.555 9     -2219.681 9        56.458 9
G18  24766867.559 9 130150721.953 9     -1367.005 9        54.336 9  24766868.735 8 101416128.847 8     -1065.199 8        49.836 8  24766870.995 9  97190460.705 9     -1020.816 9        56.436 9
G20  23515660.666 9 123575579.674 9     -3649.173 9        54.726 9  23515662.192 8  96292639.925 8     -2843.514 8        50.226 8  23515664.530 9  92280450.178 9     -2725.035 9        56.826 9
G14  20963631.962 9 110164605.015 9       127.478 9        55.781 9  20963631.934 8  85842536.901 8        99.334 8        51.281 8  20963633.811 9  82265769.217 9        95.195 9        57.881 9
G23  24868929.682 9 130687063.700 9      3229.200 9        54.291 9  24868930.755 8 101834057.902 8      2516.261 8        49.791 8  24868932.991 9  97590976.140 9      2411.417 9        56.391 9
G05  21742672.154 9 114258484.291 9     -2429.911 9        55.471 9  21742671.776 8  89032568.961 8     -1893.438 8        50.971 8  21742674.348 9  85322885.505 9     -1814.545 9        57.571 9
G30  21857106.169 9 114859839.285 9     -2262.522 9        55.476 9  21857108.669 8  89501169.149 8     -1763.005 8        50.976 8  21857108.349 9  85771949.355 9     -1689.547 9        57.576 9
G15  21118274.059 9 110977253.517 9      2294.960 9        55.710 9  21118273.564 8  86475766.978 8      1788.281 8        51.210 8  21118275.999 9  82872616.769 9      1713.769 9        57.810 9
E05  23313786.737 9 122514755.228 9       359.656 9        57.976 9  23313786.737 9 122514755.228 9       359.656 9        57.976 9  23313789.261 9  91488288.722 9       268.574 9        57.836 9  23313789.261 9  91488288.722 9       268.574 9        57.836 9  23313789.082 9  93874940.456 9       275.581 9        57.836 9  23313789.082 9  93874940.456 9       275.581 9        57.836 9  23313789.170 9  92681614.591 9       272.077 9        60.847 9  23313789.170 9  92681614.591 9       272.077 9        60.847 9
E09  25215473.997 9 132508178.140 9     -2095.109 9        57.365 9  25215473.997 9 132508178.140 9     -2095.109 9        57.365 9  25215476.916 9  98950904.704 9     -1564.530 9        57.226 9  25215476.916 9  98950904.704 9     -1564.530 9        57.226 9  25215476.641 9 101532233.758 9     -1605.344 9        57.226 9  25215476.641 9 101532233.758 9     -1605.344 9        57.226 9  25215476.776 9 100241569.235 9     -1584.937 9        60.236 9  25215476.776 9 100241569.235 9     -1584.937 9        60.236 9
E13  28147573.505 9 147916450.506 9       326.204 9        56.288 9  28147573.505 9 147916450.506 9       326.204 9        56.288 9  28147577.190 9 110457076.507 9       243.594 9        56.148 9  28147577.190 9 110457076.507 9       243.594 9        56.148 9  28147576.791 9 113338567.067 9       249.949 9        56.148 9  28147576.791 9 113338567.067 9       249.949 9        56.148 9  28147576.987 9 111897821.792 9       246.771 9        59.158 9  28147576.987 9 111897821.792 9       246.771 9        59.158 9
E25  27077550.324 9 142293436.745 9      3130.415 9        56.722 9  27077550.324 9 142293436.745 9      3130.415 9        56.722 9  27077555.196 9 106258075.019 9      2337.649 9        56.582 9  27077555.196 9 106258075.019 9      2337.649 9        56.582 9  27077554.763 9 109030026.547 9      2398.631 9        56.582 9  27077554.763 9 109030026.547 9      2398.631 9        56.582 9  27077554.975 9 107644050.789 9      2368.140 9        59.592 9  27077554.975 9 107644050.789 9      2368.140 9        59.592 9
E31  24967635.641 9 131205781.958 9     -1539.374 9        57.423 9  24967635.641 9 131205781.958 9     -1539.374 9        57.423 9  24967638.819 9  97978339.020 9     -1149.533 9        57.283 9  24967638.819 9  97978339.020 9     -1149.533 9        57.283 9  24967638.572 9 100534296.687 9     -1179.521 9        57.283 9  24967638.572 9 100534296.687 9     -1179.521 9        57.283 9  24967638.693 9  99256317.857 9     -1164.527 9        60.293 9  24967638.693 9  99256317.857 9     -1164.527 9        60.293 9
E15  27826301.635 9 146228155.443 9     -1859.410 9        56.363 9  27826301.635 9 146228155.443 9     -1859.410 9        56.363 9  27826306.759 9 109196342.340 9     -1388.521 9        56.223 9  27826306.759 9 109196342.340 9     -1388.521 9        56.223 9  27826306.359 9 112044944.183 9     -1424.744 9        56.223 9  27826306.359 9 112044944.183 9     -1424.744 9        56.223 9  27826306.555 9 110620643.267 9     -1406.633 9        59.233 9  27826306.555 9 110620643.267 9     -1406.633 9        59.233 9
E03  26325193.736 9 138339792.149 9      2463.157 9        56.972 9  26325193.736 9 138339792.149 9      2463.157 9        56.972 9  26325197.238 9 103305682.155 9      1839.371 9        56.833 9  26325197.238 9 103305682.155 9      1839.371 9        56.833 9  26325196.941 9 106000614.189 9      1887.354 9        56.833 9  26325196.941 9 106000614.189 9      1887.354 9        56.833 9  26325197.087 9 104653148.176 9      1863.363 9        59.843 9  26325197.087 9 104653148.176 9      1863.363 9        59.843 9
E24  24085017.027 9 126567594.967 9      1244.149 9        57.796 9  24085017.027 9 126567594.967 9      1244.149 9        57.796 9  24085018.045 9  94514752.393 9       929.073 9        57.656 9  24085018.045 9  94514752.393 9       929.073 9        57.656 9  24085017.842 9  96980355.449 9       953.309 9        57.656 9  24085017.842 9  96980355.449 9       953.309 9        57.656 9  24085017.942 9  95747553.924 9       941.191 9        60.666 9  24085017.942 9  95747553.924 9       941.191 9        60.666 9
> 2023 01 08 10 00 16.0000000  0 20       0.000000000000
G08  25069735.315 9 131742297.689 9     -1486.138 9        54.232 9  25069739.422 8 102656327.181 8     -1158.030 8        49.732 8  25069739.133 9  98378973.553 9     -1109.779 9        56.332 9
G13  20027103.501 9 105243118.226 9       577.344 9        56.113 9  20027102.536 8  82007610.052 8       449.878 8        51.613 8  20027105.086 9  78590634.013 9       431.133 9        58.213 9
G17  24969918.682 9 131217725.337 9      2931.980 9        54.184 9  24969921.622 8 102247548.393 8      2284.663 8        49.684 8  24969924.945 9  97987237.849 9      2189.470 9        56.284 9
G24  24528719.710 9 128899239.981 9      3532.080 9        54.413 9  24528723.458 8 100440955.308 8      2752.271 8        49.913 8  24528723.642 9  96255910.531 9      2637.594 9        56.513 9
G07  24599015.458 9 129268638.089 9     -2972.487 9        54.358 9  24599017.023 8 100728784.742 8     -2316.227 8        49.858 8  24599020.035 9  96531757.237 9     -2219.718 9        56.458 9
G18  24767127.742 9 130152089.220 9     -1367.532 9        54.336 9  24767128.918 8 101417194.249 8     -1065.610 8        49.836 8  24767131.178 9  97191481.715 9     -1021.210 9        56.436 9
G20  23516355.095 9 123579228.910 9     -3649.320 9        54.726 9  23516356.621 8  96295483.484 8     -2843.629 8        50.226 8  23516358.960 9  92283175.254 9     -2725.145 9        56.826 9
G14  20963607.766 9 110164477.866 9       126.819 9        55.781 9  20963607.739 8  85842437.824 8        98.820 8        51.281 8  20963609.615 9  82265674.268 9        94.703 9        57.881 9
G23  24868315.215 9 130683834.658 9      3228.892 9        54.291 9  24868316.288 8 101831541.767 8      2516.021 8        49.791 8  24868318.524 9  97588564.844 9      2411.187 9        56.391 9
G05  21743134.601 9 114260914.458 9     -2430.430 9        55.471 9  21743134.222 8  89034462.597 8     -1893.843 8        50.971 8  21743136.794 9  85324700.240 9     -1814.933 9        57.571 9
G30  21857536.738 9 114862101.935 9     -2262.790 9        55.476 9  21857539.238 8  89502932.253 8     -1763.214 8        50.976 8  21857538.918 9  85773638.996 9     -1689.747 9        57.576 9
G15  21117837.383 9 110974958.773 9      2294.529 9        55.711 9  21117836.888 8  86473978.867 8      1787.945 8        51.211 8  21117839.323 9  82870903.162 9      1713.448 9        57.811 9
E05  23313718.326 9 122514395.730 9       359.339 9        57.976 9  23313718.326 9 122514395.730 9       359.339 9        57.976 9  23313720.851 9  91488020.265 9       268.338 9        57.836 9  23313720.851 9  91488020.265 9       268.338 9        57.836 9  23313720.671 9  93874664.996 9       275.338 9        57.836 9  23313720.671 9  93874664.996 9       275.338 9        57.836 9  23313720.760 9  92681342.633 9       271.838 9        60.847 9  23313720.760 9  92681342.633 9       271.838 9        60.847 9
E09  25215872.705 9 132510273.360 9     -2095.344 9        57.365 9  25215872.705 9 132510273.360 9     -2095.344 9        57.365 9  25215875.624 9  98952469.315 9     -1564.706 9        57.225 9  25215875.624 9  98952469.315 9     -1564.706 9        57.225 9  25215875.350 9 101533839.186 9     -1605.524 9        57.225 9  25215875.350 9 101533839.186 9     -1605.524 9        57.225 9  25215875.484 9 100243154.254 9     -1585.115 9        60.236 9  25215875.484 9 100243154.254 9     -1585.115 9        60.236 9
E13  28147511.478 9 147916124.549 9       325.709 9        56.288 9  28147511.478 9 147916124.549 9       325.709 9        56.288 9  28147515.163 9 110456833.098 9       243.225 9        56.148 9  28147515.163 9 110456833.098 9       243.225 9        56.148 9  28147514.763 9 113338317.309 9       249.570 9        56.148 9  28147514.763 9 113338317.309 9       249.570 9        56.148 9  28147514.959 9 111897575.209 9       246.397 9        59.158 9  28147514.959 9 111897575.209 9       246.397 9        59.158 9
E25  27076954.637 9 142290306.394 9      3130.297 9        56.722 9  27076954.637 9 142290306.394 9      3130.297 9        56.722 9  27076959.509 9 106255737.421 9      2337.561 9        56.582 9  27076959.509 9 106255737.421 9      2337.561 9        56.582 9  27076959.075 9 109027627.969 9      2398.541 9        56.582 9  27076959.075 9 109027627.969 9      2398.541 9        56.582 9  27076959.288 9 107641682.700 9      2368.051 9        59.593 9  27076959.288 9 107641682.700 9      2368.051 9        59.593 9
E31  24967928.610 9 131207321.516 9     -1539.749 9        57.423 9  24967928.610 9 131207321.516 9     -1539.749 9        57.423 9  24967931.788 9  97979488.690 9     -1149.813 9        57.283 9  24967931.788 9  97979488.690 9     -1149.813 9        57.283 9  24967931.540 9 100535476.348 9     -1179.808 9        57.283 9  24967931.540 9 100535476.348 9     -1179.808 9        57.283 9  24967931.662 9  99257482.522 9     -1164.811 9        60.293 9  24967931.662 9  99257482.522 9     -1164.811 9        60.293 9
E15  27826655.502 9 146230015.026 9     -1859.758 9        56.362 9  27826655.502 9 146230015.026 9     -1859.758 9        56.362 9  27826660.626 9 109197730.989 9     -1388.781 9        56.223 9  27826660.626 9 109197730.989 9     -1388.781 9        56.223 9  27826660.227 9 112046369.057 9     -1425.010 9        56.223 9  27826660.227 9 112046369.057 9     -1425.010 9        56.223 9  27826660.423 9 110622050.028 9     -1406.896 9        59.233 9  27826660.423 9 110622050.028 9     -1406.896 9        59.233 9
E03  26324725.022 9 138337329.042 9      2463.058 9        56.973 9  26324725.022 9 138337329.042 9      2463.058 9        56.973 9  26324728.524 9 103303842.823 9      1839.297 9        56.833 9  26324728.524 9 103303842.823 9      1839.297 9        56.833 9  26324728.227 9 105998726.874 9      1887.279 9        56.833 9  26324728.227 9 105998726.874 9      1887.279 9        56.833 9  26324728.372 9 104651284.852 9      1863.288 9        59.843 9  26324728.372 9 104651284.852 9      1863.288 9        59.843 9
E24  24084780.314 9 126566351.035 9      1243.716 9        57.796 9  24084780.314 9 126566351.035 9      1243.716 9        57.796 9  24084781.333 9  94513823.483 9       928.749 9        57.656 9  24084781.333 9  94513823.483 9       928.749 9        57.656 9  24084781.129 9  96979402.307 9       952.977 9        57.656 9  24084781.129 9  96979402.307 9       952.977 9        57.656 9  24084781.229 9  95746612.898 9       940.863 9        60.666 9  24084781.229 9  95746612.898 9       940.863 9        60.666 9
> 2023 01 08 10 00 17.0000000  0 20       0.000000000000
G08  25070018.173 9 131743784.117 9     -1486.716 9        54.231 9  25070022.280 8 102657485.436 8     -1158.480 8        49.731 8  25070021.990 9  98380083.548 9     -1110.210 9        56.331 9
G13  20026993.681 9 105242541.119 9       576.870 9        56.113 9  20026992.716 8  82007160.358 8       449.509 8        51.613 8  20026995.266 9  78590203.056 9       430.779 9        58.213 9
G17  24969360.749 9 131214793.395 9      2931.935 9        54.184 9  24969363.689 8 102245263.766 8      2284.628 8        49.684 8  24969367.011 9  97985048.415 9      2189.436 9        56.284 9
G24  24528047.587 9 128895707.954 9      3531.976 9        54.413 9  24528051.335 8 100438203.080 8      2752.190 8        49.913 8  24528051.518 9  96253272.979 9      2637.516 9        56.513 9
G07  24599581.108 9 129271610.588 9     -2972.537 9        54.357 9  24599582.673 8 100731100.971 8     -2316.265 8        49.857 8  24599585.685 9  96533976.957 9     -2219.755 9        56.457 9
G18  24767388.025 9 130153457.015 9     -1368.060 9        54.336 9  24767389.202 8 101418260.063 8     -1066.021 8        49.836 8  24767391.461 9  97192503.119 9     -1021.604 9        56.436 9
G20  23517049.552 9 123582878.295 9     -3649.468 9        54.726 9  23517051.079 8  96298327.157 8     -2843.744 8        50.226 8  23517053.417 9  92285900.440 9     -2725.255 9        56.826 9
G14  20963583.696 9 110164351.375 9       126.160 9        55.781 9  20963583.668 8  85842339.260 8        98.307 8        51.281 8  20963585.545 9  82265579.811 9        94.211 9        57.881 9
G23  24867700.806 9 130680605.924 9      3228.584 9        54.291 9  24867701.879 8 101829025.871 8      2515.781 8        49.791 8  24867704.115 9  97586153.778 9      2410.957 9        56.391 9
G05  21743597.146 9 114263345.144 9     -2430.949 9        55.470 9  21743596.767 8  89036356.637 8     -1894.247 8        50.970 8  21743599.340 9  85326515.361 9     -1815.320 9        57.570 9
G30  21857967.358 9 114864364.855 9     -2263.059 9        55.475 9  21857969.858 8  89504695.565 8     -1763.424 8        50.975 8  21857969.538 9  85775328.837 9     -1689.948 9        57.575 9
G15  21117400.790 9 110972664.460 9      2294.099 9        55.711 9  21117400.294 8  86472191.090 8      1787.610 8        51.211 8  21117402.729 9  82869189.876 9      1713.126 9        57.811 9
E05  23313649.977 9 122514036.549 9       359.022 9        57.976 9  23313649.977 9 122514036.549 9       359.022 9        57.976 9  23313652.501 9  91487752.045 9       268.101 9        57.836 9  23313652.501 9  91487752.045 9       268.101 9        57.836 9  23313652.322 9  93874389.779 9       275.095 9        57.836 9  23313652.322 9  93874389.779 9       275.095 9        57.836 9  23313652.410 9  92681070.915 9       271.598 9        60.847 9  23313652.410 9  92681070.915 9       271.598 9        60.847 9
E09  25216271.458 9 132512368.816 9     -2095.579 9        57.365 9  25216271.458 9 132512368.816 9     -2095.579 9        57.365 9  25216274.377 9  98954034.102 9     -1564.882 9        57.225 9  25216274.377 9  98954034.102 9     -1564.882 9        57.225 9  25216274.103 9 101535444.794 9     -1605.704 9        57.225 9  25216274.103 9 101535444.794 9     -1605.704 9        57.225 9  25216274.237 9 100244739.452 9     -1585.293 9        60.236 9  25216274.237 9 100244739.452 9     -1585.293 9        60.236 9
E13  28147449.544 9 147915799.088 9       325.215 9        56.288 9  28147449.544 9 147915799.088 9       325.215 9        56.288 9  28147453.229 9 110456590.059 9       242.855 9        56.148 9  28147453.229 9 110456590.059 9       242.855 9        56.148 9  28147452.830 9 113338067.929 9       249.191 9        56.148 9  28147452.830 9 113338067.929 9       249.191 9        56.148 9  28147453.026 9 111897328.999 9       246.023 9        59.158 9  28147453.026 9 111897328.999 9       246.023 9        59.158 9
E25  27076358.973 9 142287176.162 9      3130.178 9        56.722 9  27076358.973 9 142287176.162 9      3130.178 9        56.722 9  27076363.844 9 106253399.912 9      2337.472 9        56.582 9  27076363.844 9 106253399.912 9      2337.472 9        56.582 9  27076363.410 9 109025229.481 9      2398.450 9        56.582 9  27076363.410 9 109025229.481 9      2398.450 9        56.582 9  27076363.623 9 107639314.702 9      2367.961 9        59.593 9  27076363.623 9 107639314.702 9      2367.961 9        59.593 9
E31  24968221.650 9 131208861.449 9     -1540.124 9        57.422 9  24968221.650 9 131208861.449 9     -1540.124 9        57.422 9  24968224.828 9  97980638.639 9     -1150.093 9        57.283 9  24968224.828 9  97980638.639 9     -1150.093 9        57.283 9  24968224.580 9 100536656.296 9     -1180.095 9        57.283 9  24968224.580 9 100536656.296 9     -1180.095 9        57.283 9  24968224.702 9  99258647.471 9     -1165.094 9        60.293 9  24968224.702 9  99258647.471 9     -1165.094 9        60.293 9
E15  27827009.436 9 146231874.956 9     -1860.106 9        56.362 9  27827009.436 9 146231874.956 9     -1860.106 9        56.362 9  27827014.560 9 109199119.897 9     -1389.041 9        56.222 9  27827014.560 9 109199119.897 9     -1389.041 9        56.222 9  27827014.161 9 112047794.198 9     -1425.277 9        56.222 9  27827014.161 9 112047794.198 9     -1425.277 9        56.222 9  27827014.357 9 110623457.052 9     -1407.159 9        59.233 9  27827014.357 9 110623457.052 9     -1407.159 9        59.233 9
E03  26324256.327 9 138334866.033 9      2462.960 9        56.973 9  26324256.327 9 138334866.033 9      2462.960 9        56.973 9  26324259.828 9 103302003.563 9      1839.224 9        56.833 9  26324259.828 9 103302003.563 9      1839.224 9        56.833 9  26324259.531 9 105996839.634 9      1887.204 9        56.833 9  26324259.531 9 105996839.634 9      1887.204 9        56.833 9  26324259.677 9 104649421.603 9      1863.214 9        59.843 9  26324259.677 9 104649421.603 9      1863.214 9        59.843 9
E24  24084543.684 9 126565107.537 9      1243.282 9        57.796 9  24084543.684 9 126565107.537 9      1243.282 9        57.796 9  24084544.703 9  94512894.897 9       928.425 9        57.656 9  24084544.703 9  94512894.897 9       928.425 9        57.656 9  24084544.499 9  96978449.497 9       952.645 9        57.656 9  24084544.499 9  96978449.497 9       952.645 9        57.656 9  24084544.599 9  95745672.200 9       940.535 9        60.666 9  24084544.599 9  95745672.200 9       940.535 9        60.666 9
> 2023 01 08 10 00 18.0000000  0 20       0.000000000000
G08  25070301.140 9 131745271.122 9     -1487.294 9        54.231 9  25070305.247 8 102658644.142 8     -1158.930 8        49.731 8  25070304.958 9  98381193.974 9     -1110.641 9        56.331 9
G13  20026883.951 9 105241964.486 9       576.396 9        56.113 9  20026882.986 8  82006711.034 8       449.140 8        51.613 8  20026885.537 9  78589772.453 9       430.425 9        58.213 9
G17  24968802.825 9 131211861.499 9      2931.890 9        54.184 9  24968805.764 8 102242979.175 8      2284.593 8        49.684 8  24968809.087 9  97982859.016 9      2189.402 9        56.284 9
G24  24527375.483 9 128892176.032 9      3531.871 9        54.413 9  24527379.231 8 100435450.934 8      2752.109 8        49.913 8  24527379.414 9  96250635.506 9      2637.438 9        56.513 9
G07  24600146.767 9 129274583.136 9     -2972.587 9        54.357 9  24600148.333 8 100733417.240 8     -2316.304 8        49.857 8  24600151.345 9  96536196.714 9     -2219.792 9        56.457 9
G18  24767648.409 9 130154825.336 9     -1368.587 9        54.336 9  24767649.585 8 101419326.287 8     -1066.432 8        49.836 8  24767651.845 9  97193524.917 9     -1021.997 9        56.436 9
G20  23517744.037 9 123586527.827 9     -3649.616 9        54.726 9  23517745.564 8  96301170.945 8     -2843.859 8        50.226 8  23517747.903 9  92288625.737 9     -2725.366 9        56.826 9
G14  20963559.751 9 110164225.544 9       125.501 9        55.781 9  20963559.724 8  85842241.210 8        97.793 8        51.281 8  20963561.600 9  82265485.846 9        93.719 9        57.881 9
G23  24867086.456 9 130677377.497 9      3228.276 9        54.291 9  24867087.528 8 101826510.216 8      2515.541 8        49.791 8  24867089.764 9  97583742.942 9      2410.727 9        56.391 9
G05  21744059.789 9 114265776.349 9     -2431.467 9        55.470 9  21744059.411 8  89038251.081 8     -1894.651 8        50.970 8  21744061.984 9  85328330.870 9     -1815.707 9        57.570 9
G30  21858398.029 9 114866628.043 9     -2263.328 9        55.475 9  21858400.530 8  89506459.088 8     -1763.633 8        50.975 8  21858400.209 9  85777018.879 9     -1690.149 9        57.575 9
G15  21116964.278 9 110970370.577 9      2293.668 9        55.711 9  21116963.782 8  86470403.650 8      1787.274 8        51.211 8  21116966.217 9  82867476.912 9      1712.805 9        57.811 9
E05  23313581.687 9 122513677.684 9       358.705 9        57.976 9  23313581.687 9 122513677.684 9       358.705 9        57.976 9  23313584.212 9  91487484.062 9       267.864 9        57.837 9  23313584.212 9  91487484.062 9       267.864 9        57.837 9  23313584.032 9  93874114.805 9       274.852 9        57.837 9  23313584.032 9  93874114.805 9       274.852 9        57.837 9  23313584.120 9  92680799.436 9       271.358 9        60.847 9  23313584.120 9  92680799.436 9       271.358 9        60.847 9
E09  25216670.255 9 132514464.507 9     -2095.814 9        57.365 9  25216670.255 9 132514464.507 9     -2095.814 9        57.365 9  25216673.175 9  98955599.065 9     -1565.057 9        57.225 9  25216673.175 9  98955599.065 9     -1565.057 9        57.225 9  25216672.900 9 101537050.582 9     -1605.885 9        57.225 9  25216672.900 9 101537050.582 9     -1605.885 9        57.225 9  25216673.035 9 100246324.827 9     -1585.471 9        60.235 9  25216673.035 9 100246324.827 9     -1585.471 9        60.235 9
E13  28147387.705 9 147915474.121 9       324.720 9        56.288 9  28147387.705 9 147915474.121 9       324.720 9        56.288 9  28147391.390 9 110456347.389 9       242.486 9        56.148 9  28147391.390 9 110456347.389 9       242.486 9        56.148 9  28147390.991 9 113337818.929 9       248.812 9        56.148 9  28147390.991 9 113337818.929 9       248.812 9        56.148 9  28147391.186 9 111897083.164 9       245.649 9        59.158 9  28147391.186 9 111897083.164 9       245.649 9        59.158 9
E25  27075763.331 9 142284046.048 9      3130.059 9        56.723 9  27075763.331 9 142284046.048 9      3130.059 9        56.723 9  27075768.201 9 106251062.491 9      2337.384 9        56.583 9  27075768.201 9 106251062.491 9      2337.384 9        56.583 9  27075767.768 9 109022831.083 9      2398.359 9        56.583 9  27075767.768 9 109022831.083 9      2398.359 9        56.583 9  27075767.981 9 107636946.793 9      2367.871 9        59.593 9  27075767.981 9 107636946.793 9      2367.871 9        59.593 9
E31  24968514.761 9 131210401.756 9     -1540.498 9        57.422 9  24968514.761 9 131210401.756 9     -1540.498 9        57.422 9  24968517.939 9  97981788.868 9     -1150.373 9        57.282 9  24968517.939 9  97981788.868 9     -1150.373 9        57.282 9  24968517.692 9 100537836.531 9     -1180.382 9        57.282 9  24968517.692 9 100537836.531 9     -1180.382 9        57.282 9  24968517.813 9  99259812.703 9     -1165.377 9        60.293 9  24968517.813 9  99259812.703 9     -1165.377 9        60.293 9
E15  27827363.436 9 146233735.235 9     -1860.454 9        56.362 9  27827363.436 9 146233735.235 9     -1860.454 9        56.362 9  27827368.560 9 109200509.065 9     -1389.301 9        56.222 9  27827368.560 9 109200509.065 9     -1389.301 9        56.222 9  27827368.161 9 112049219.605 9     -1425.543 9        56.222 9  27827368.161 9 112049219.605 9     -1425.543 9        56.222 9  27827368.357 9 110624864.340 9     -1407.422 9        59.233 9  27827368.357 9 110624864.340 9     -1407.422 9        59.233 9
E03  26323787.650 9 138332403.123 9      2462.861 9        56.973 9  26323787.650 9 138332403.123 9      2462.861 9        56.973 9  26323791.151 9 103300164.378 9      1839.150 9        56.833 9  26323791.151 9 103300164.378 9      1839.150 9        56.833 9  26323790.854 9 105994952.470 9      1887.128 9        56.833 9  26323790.854 9 105994952.470 9      1887.128 9        56.833 9  26323791.000 9 104647558.428 9      1863.139 9        59.843 9  26323791.000 9 104647558.428 9      1863.139 9        59.843 9
E24  24084307.137 9 126563864.473 9      1242.849 9        57.796 9  24084307.137 9 126563864.473 9      1242.849 9        57.796 9  24084308.156 9  94511966.635 9       928.101 9        57.656 9  24084308.156 9  94511966.635 9       928.101 9        57.656 9  24084307.952 9  96977497.019 9       952.313 9        57.656 9  24084307.952 9  96977497.019 9       952.313 9        57.656 9  24084308.052 9  95744731.830 9       940.207 9        60.666 9  24084308.052 9  95744731.830 9       940.207 9        60.666 9
> 2023 01 08 10 00 19.0000000  0 20       0.000000000000
G08  25070584.218 9 131746758.704 9     -1487.872 9        54.231 9  25070588.324 8 102659803.297 8     -1159.380 8        49.731 8  25070588.035 9  98382304.831 9     -1111.073 9        56.331 9
G13  20026774.312 9 105241388.327 9       575.922 9        56.113 9  20026773.347 8  82006262.078 8       448.770 8        51.613 8  20026775.897 9  78589342.205 9       430.072 9        58.213 9
G17  24968244.910 9 131208929.647 9      2931.845 9        54.184 9  24968247.848 8 102240694.619 8      2284.558 8        49.684 8  24968251.170 9  97980669.651 9      2189.368 9        56.284 9
G24  24526703.400 9 128888644.214 9      3531.767 9        54.413 9  24526707.147 8 100432698.869 8      2752.027 8        49.913 8  24526707.331 9  96247998.111 9      2637.360 9        56.513 9
G07  24600712.436 9 129277555.734 9     -2972.637 9        54.357 9  24600714.003 8 100735733.547 8     -2316.343 8        49.857 8  24600717.015 9  96538416.508 9     -2219.829 9        56.457 9
G18  24767908.892 9 130156194.185 9     -1369.114 9        54.336 9  24767910.069 8 101420392.921 8     -1066.843 8        49.836 8  24767912.329 9  97194547.108 9     -1022.391 9        56.436 9
G20  23518438.550 9 123590177.506 9     -3649.763 9        54.725 9  23518440.078 8  96304014.849 8     -2843.974 8        50.225 8  23518442.417 9  92291351.144 9     -2725.476 9        56.825 9
G14  20963535.932 9 110164100.372 9       124.842 9        55.781 9  20963535.904 8  85842143.673 8        97.280 8        51.281 8  20963537.781 9  82265392.373 9        93.226 9        57.881 9
G23  24866472.164 9 130674149.379 9      3227.968 9        54.291 9  24866473.236 8 101823994.801 8      2515.301 8        49.791 8  24866475.472 9  97581332.336 9      2410.497 9        56.391 9
G05  21744522.532 9 114268208.073 9     -2431.986 9        55.470 9  21744522.154 8  89040145.930 8     -1895.055 8        50.970 8  21744524.726 9  85330146.766 9     -1816.094 9        57.570 9
G30  21858828.751 9 114868891.499 9     -2263.597 9        55.475 9  21858831.252 8  89508222.819 8     -1763.842 8        50.975 8  21858830.932 9  85778709.121 9     -1690.349 9        57.575 9
G15  21116527.848 9 110968077.125 9      2293.237 9        55.711 9  21116527.352 8  86468616.544 8      1786.939 8        51.211 8  21116529.787 9  82865764.270 9      1712.483 9        57.811 9
E05  23313513.458 9 122513319.137 9       358.389 9        57.976 9  23313513.458 9 122513319.137 9       358.389 9        57.976 9  23313515.983 9  91487216.315 9       267.628 9        57.837 9  23313515.983 9  91487216.315 9       267.628 9        57.837 9  23313515.803 9  93873840.073 9       274.609 9        57.837 9  23313515.803 9  93873840.073 9       274.609 9        57.837 9  23313515.891 9  92680528.197 9       271.118 9        60.847 9  23313515.891 9  92680528.197 9       271.118 9        60.847 9
E09  25217069.098 9 132516560.433 9     -2096.049 9        57.365 9  25217069.098 9 132516560.433 9     -2096.049 9        57.365 9  25217072.018 9  98957164.203 9     -1565.233 9        57.225 9  25217072.018 9  98957164.203 9     -1565.233 9        57.225 9  25217071.743 9 101538656.550 9     -1606.065 9        57.225 9  25217071.743 9 101538656.550 9     -1606.065 9        57.225 9  25217071.878 9 100247910.380 9     -1585.649 9        60.235 9  25217071.878 9 100247910.380 9     -1585.649 9        60.235 9
E13  28147325.960 9 147915149.648 9       324.226 9        56.288 9  28147325.960 9 147915149.648 9       324.226 9        56.288 9  28147329.645 9 110456105.088 9       242.117 9        56.148 9  28147329.645 9 110456105.088 9       242.117 9        56.148 9  28147329.245 9 113337570.307 9       248.433 9        56.148 9  28147329.245 9 113337570.307 9       248.433 9        56.148 9  28147329.441 9 111896837.703 9       245.275 9        59.159 9  28147329.441 9 111896837.703 9       245.275 9        59.159 9
E25  27075167.711 9 142280916.053 9      3129.941 9        56.723 9  27075167.711 9 142280916.053 9      3129.941 9        56.723 9  27075172.582 9 106248725.159 9      2337.295 9        56.583 9  27075172.582 9 106248725.159 9      2337.295 9        56.583 9  27075172.148 9 109020432.777 9      2398.268 9        56.583 9  27075172.148 9 109020432.777 9      2398.268 9        56.583 9  27075172.361 9 107634578.973 9      2367.782 9        59.593 9  27075172.361 9 107634578.973 9      2367.782 9        59.593 9
E31  24968807.943 9 131211942.438 9     -1540.873 9        57.422 9  24968807.943 9 131211942.438 9     -1540.873 9        57.422 9  24968811.122 9  97982939.376 9     -1150.652 9        57.282 9  24968811.122 9  97982939.376 9     -1150.652 9        57.282 9  24968810.874 9 100539017.053 9     -1180.669 9        57.282 9  24968810.874 9 100539017.053 9     -1180.669 9        57.282 9  24968810.996 9  99260978.218 9     -1165.661 9        60.293 9  24968810.996 9  99260978.218 9     -1165.661 9        60.293 9
E15  27827717.502 9 146235595.861 9     -1860.802 9        56.362 9  27827717.502 9 146235595.861 9     -1860.802 9        56.362 9  27827722.626 9 109201898.493 9     -1389.561 9        56.222 9  27827722.626 9 109201898.493 9     -1389.561 9        56.222 9  27827722.227 9 112050645.279 9     -1425.810 9        56.222 9  27827722.227 9 112050645.279 9     -1425.810 9        56.222 9  27827722.423 9 110626271.891 9     -1407.685 9        59.233 9  27827722.423 9 110626271.891 9     -1407.685 9        59.233 9
E03  26323318.992 9 138329940.311 9      2462.763 9        56.973 9  26323318.992 9 138329940.311 9      2462.763 9        56.973 9  26323322.493 9 103298325.266 9      1839.077 9        56.833 9  26323322.493 9 103298325.266 9      1839.077 9        56.833 9  26323322.196 9 105993065.381 9      1887.053 9        56.833 9  26323322.196 9 105993065.381 9      1887.053 9        56.833 9  26323322.342 9 104645695.327 9      1863.065 9        59.844 9  26323322.342 9 104645695.327 9      1863.065 9        59.844 9
E24  24084070.672 9 126562621.842 9      1242.415 9        57.796 9  24084070.672 9 126562621.842 9      1242.415 9        57.796 9  24084071.691 9  94511038.697 9       927.778 9        57.656 9  24084071.691 9  94511038.697 9       927.778 9        57.656 9  24084071.487 9  96976544.874 9       951.981 9        57.656 9  24084071.487 9  96976544.874 9       951.981 9        57.656 9  24084071.587 9  95743791.788 9       939.879 9        60.666 9  24084071.587 9  95743791.788 9       939.879 9        60.666 9
> 2023 01 08 10 00 20.0000000  0 20       0.000000000000
G08  25070867.405 9 131748246.865 9     -1488.449 9        54.231 9  25070871.512 8 102660962.903 8     -1159.830 8        49.731 8  25070871.223 9  98383416.120 9     -1111.504 9        56.331 9
G13  20026664.763 9 105240812.641 9       575.448 9        56.113 9  20026663.798 8  82005813.492 8       448.401 8        51.613 8  20026666.348 9  78588912.310 9       429.718 9        58.213 9
G17  24967687.003 9 131205997.841 9      2931.799 9        54.185 9  24967689.940 8 102238410.098 8      2284.522 8        49.685 8  24967693.262 9  97978480.319 9      2189.335 9        56.285 9
G24  24526031.336 9 128885112.500 9      3531.662 9        54.414 9  24526035.083 8 100429946.886 8      2751.946 8        49.914 8  24526035.267 9  96245360.794 9      2637.282 9        56.514 9
G07  24601278.114 9 129280528.382 9     -2972.686 9        54.357 9  24601279.681 8 100738049.893 8     -2316.382 8        49.857 8  24601282.694 9  96540636.339 9     -2219.866 9        56.457 9
G18  24768169.477 9 130157563.561 9     -1369.641 9        54.336 9  24768170.653 8 101421459.967 8     -1067.254 8        49.836 8  24768172.913 9  97195569.694 9     -1022.785 9        56.436 9
G20  23519133.091 9 123593827.333 9     -3649.911 9        54.725 9  23519134.620 8  96306858.867 8     -2844.089 8        50.225 8  23519136.959 9  92294076.661 9     -2725.586 9        56.825 9
G14  20963512.238 9 110163975.859 9       124.184 9        55.781 9  20963512.210 8  85842046.650 8        96.766 8        51.281 8  20963514.087 9  82265299.393 9        92.734 9        57.881 9
G23  24865857.932 9 130670921.569 9      3227.660 9        54.292 9  24865859.003 8 101821479.626 8      2515.061 8        49.792 8  24865861.239 9  97578921.960 9      2410.267 9        56.392 9
G05  21744985.373 9 114270640.315 9     -2432.504 9        55.470 9  21744984.995 8  89042041.182 8     -1895.459 8        50.970 8  21744987.568 9  85331963.050 9     -1816.482 9        57.570 9
G30  21859259.525 9 114871155.225 9     -2263.865 9        55.475 9  21859262.026 8  89509986.760 8     -1764.052 8        50.975 8  21859261.706 9  85780399.564 9     -1690.550 9        57.575 9
G15  21116091.500 9 110965784.103 9      2292.807 9        55.711 9  21116091.004 8  86466829.775 8      1786.603 8        51.211 8  21116093.439 9  82864051.949 9      1712.161 9        57.811 9
E05  23313445.289 9 122512960.906 9       358.072 9        57.976 9  23313445.289 9 122512960.906 9       358.072 9        57.976 9  23313447.814 9  91486948.805 9       267.391 9        57.837 9  23313447.814 9  91486948.805 9       267.391 9        57.837 9  23313447.634 9  93873565.585 9       274.366 9        57.837 9  23313447.634 9  93873565.585 9       274.366 9        57.837 9  23313447.722 9  92680257.197 9       270.879 9        60.847 9  23313447.722 9  92680257.197 9       270.879 9        60.847 9
E09  25217467.985 9 132518656.594 9     -2096.284 9        57.365 9  25217467.985 9 132518656.594 9     -2096.284 9        57.365 9  25217470.905 9  98958729.517 9     -1565.408 9        57.225 9  25217470.905 9  98958729.517 9     -1565.408 9        57.225 9  25217470.630 9 101540262.698 9     -1606.245 9        57.225 9  25217470.630 9 101540262.698 9     -1606.245 9        57.225 9  25217470.765 9 100249496.111 9     -1585.827 9        60.235 9  25217470.765 9 100249496.111 9     -1585.827 9        60.235 9
E13  28147264.309 9 147914825.670 9       323.731 9        56.288 9  28147264.309 9 147914825.670 9       323.731 9        56.288 9  28147267.994 9 110455863.157 9       241.747 9        56.148 9  28147267.994 9 110455863.157 9       241.747 9        56.148 9  28147267.594 9 113337322.064 9       248.054 9        56.148 9  28147267.594 9 113337322.064 9       248.054 9        56.148 9  28147267.790 9 111896592.616 9       244.901 9        59.159 9  28147267.790 9 111896592.616 9       244.901 9        59.159 9
E25  27074572.114 9 142277786.176 9      3129.822 9        56.723 9  27074572.114 9 142277786.176 9      3129.822 9        56.723 9  27074576.984 9 106246387.915 9      2337.207 9        56.583 9  27074576.984 9 106246387.915 9      2337.207 9        56.583 9  27074576.551 9 109018034.562 9      2398.177 9        56.583 9  27074576.551 9 109018034.562 9      2398.177 9        56.583 9  27074576.763 9 107632211.244 9      2367.692 9        59.593 9  27074576.763 9 107632211.244 9      2367.692 9        59.593 9
E31  24969101.197 9 131213483.494 9     -1541.247 9        57.422 9  24969101.197 9 131213483.494 9     -1541.247 9        57.422 9  24969104.376 9  97984090.164 9     -1150.932 9        57.282 9  24969104.376 9  97984090.164 9     -1150.932 9        57.282 9  24969104.128 9 100540197.862 9     -1180.956 9        57.282 9  24969104.128 9 100540197.862 9     -1180.956 9        57.282 9  24969104.250 9  99262144.016 9     -1165.944 9        60.293 9  24969104.250 9  99262144.016 9     -1165.944 9        60.293 9
E15  27828071.634 9 146237456.835 9     -1861.149 9        56.362 9  27828071.634 9 146237456.835 9     -1861.149 9        56.362 9  27828076.759 9 109203288.180 9     -1389.820 9        56.222 9  27828076.759 9 109203288.180 9     -1389.820 9        56.222 9  27828076.360 9 112052071.219 9     -1426.076 9        56.222 9  27828076.360 9 112052071.219 9     -1426.076 9        56.222 9  27828076.555 9 110627679.705 9     -1407.948 9        59.232 9  27828076.555 9 110627679.705 9     -1407.948 9        59.232 9
E03  26322850.353 9 138327477.598 9      2462.664 9        56.973 9  26322850.353 9 138327477.598 9      2462.664 9        56.973 9  26322853.854 9 103296486.227 9      1839.003 9        56.833 9  26322853.854 9 103296486.227 9      1839.003 9        56.833 9  26322853.557 9 105991178.367 9      1886.977 9        56.833 9  26322853.557 9 105991178.367 9      1886.977 9        56.833 9  26322853.703 9 104643832.301 9      1862.990 9        59.844 9  26322853.703 9 104643832.301 9      1862.990 9        59.844 9
E24  24083834.290 9 126561379.645 9      1241.981 9        57.796 9  24083834.290 9 126561379.645 9      1241.981 9        57.796 9  24083835.308 9  94510111.082 9       927.454 9        57.656 9  24083835.308 9  94510111.082 9       927.454 9        57.656 9  24083835.105 9  96975593.060 9       951.648 9        57.656 9  24083835.105 9  96975593.060 9       951.648 9        57.656 9  24083835.204 9  95742852.074 9       939.551 9        60.666 9  24083835.204 9  95742852.074 9       939.551 9        60.666 9
> 2023 01 08 10 00 21.0000000  0 20       0.000000000000
G08  25071150.702 9 131749735.603 9     -1489.027 9        54.231 9  25071154.809 8 102662122.959 8     -1160.281 8        49.731 8  25071154.520 9  98384527.840 9     -1111.935 9        56.331 9
G13  20026555.304 9 105240237.430 9       574.974 9        56.113 9  20026554.339 8  82005365.276 8       448.032 8        51.613 8  20026556.889 9  78588482.769 9       429.364 9        58.213 9
G17  24967129.105 9 131203066.081 9      2931.754 9        54.185 9  24967132.042 8 102236125.613 8      2284.487 8        49.685 8  24967135.363 9  97976291.021 9      2189.300 9        56.285 9
G24  24525359.292 9 128881580.892 9      3531.558 9        54.414 9  24525363.039 8 100427194.984 8      2751.864 8        49.914 8  24525363.223 9  96242723.555 9      2637.204 9        56.514 9
G07  24601843.801 9 129283501.079 9     -2972.736 9        54.357 9  24601845.370 8 100740366.278 8     -2316.421 8        49.857 8  24601848.382 9  96542856.207 9     -2219.904 9        56.457 9
G18  24768430.161 9 130158933.465 9     -1370.168 9        54.336 9  24768431.338 8 101422527.423 8     -1067.664 8        49.836 8  24768433.598 9  97196592.672 9     -1023.178 9        56.436 9
G20  23519827.660 9 123597477.308 9     -3650.058 9        54.725 9  23519829.189 8  96309703.001 8     -2844.204 8        50.225 8  23519831.529 9  92296802.288 9     -2725.696 9        56.825 9
G14  20963488.669 9 110163852.005 9       123.525 9        55.781 9  20963488.642 8  85841950.140 8        96.253 8        51.281 8  20963490.518 9  82265206.904 9        92.242 9        57.881 9
G23  24865243.757 9 130667694.068 9      3227.351 9        54.292 9  24865244.829 8 101818964.691 8      2514.821 8        49.792 8  24865247.064 9  97576511.814 9      2410.037 9        56.392 9
G05  21745448.312 9 114273073.075 9     -2433.022 9        55.470 9  21745447.935 8  89043936.838 8     -1895.863 8        50.970 8  21745450.508 9  85333779.720 9     -1816.869 9        57.570 9
G30  21859690.349 9 114873419.219 9     -2264.134 9        55.475 9  21859692.850 8  89511750.910 8     -1764.261 8        50.975 8  21859692.530 9  85782090.208 9     -1690.750 9        57.575 9
G15  21115655.234 9 110963491.512 9      2292.376 9        55.711 9  21115654.738 8  86465043.341 8      1786.267 8        51.211 8  21115657.173 9  82862339.950 9      1711.840 9        57.811 9
E05  23313377.180 9 122512602.992 9       357.755 9        57.976 9  23313377.180 9 122512602.992 9       357.755 9        57.976 9  23313379.705 9  91486681.532 9       267.154 9        57.837 9  23313379.705 9  91486681.532 9       267.154 9        57.837 9  23313379.525 9  93873291.339 9       274.124 9        57.837 9  23313379.525 9  93873291.339 9       274.124 9        57.837 9  23313379.614 9  92679986.438 9       270.639 9        60.847 9  23313379.614 9  92679986.438 9       270.639 9        60.847 9
E09  25217866.916 9 132520752.990 9     -2096.519 9        57.365 9  25217866.916 9 132520752.990 9     -2096.519 9        57.365 9  25217869.837 9  98960295.006 9     -1565.584 9        57.225 9  25217869.837 9  98960295.006 9     -1565.584 9        57.225 9  25217869.562 9 101541869.026 9     -1606.425 9        57.225 9  25217869.562 9 101541869.026 9     -1606.425 9        57.225 9  25217869.697 9 100251082.020 9     -1586.004 9        60.235 9  25217869.697 9 100251082.020 9     -1586.004 9        60.235 9
E13  28147202.752 9 147914502.187 9       323.237 9        56.288 9  28147202.752 9 147914502.187 9       323.237 9        56.288 9  28147206.437 9 110455621.595 9       241.378 9        56.148 9  28147206.437 9 110455621.595 9       241.378 9        56.148 9  28147206.037 9 113337074.200 9       247.675 9        56.148 9  28147206.037 9 113337074.200 9       247.675 9        56.148 9  28147206.233 9 111896347.903 9       244.527 9        59.159 9  28147206.233 9 111896347.903 9       244.527 9        59.159 9
E25  27073976.540 9 142274656.419 9      3129.703 9        56.723 9  27073976.540 9 142274656.419 9      3129.703 9        56.723 9  27073981.410 9 106244050.760 9      2337.118 9        56.583 9  27073981.410 9 106244050.760 9      2337.118 9        56.583 9  27073980.976 9 109015636.437 9      2398.086 9        56.583 9  27073980.976 9 109015636.437 9      2398.086 9        56.583 9  27073981.189 9 107629843.604 9      2367.602 9        59.594 9  27073981.189 9 107629843.604 9      2367.602 9        59.594 9
E31  24969394.522 9 131215024.925 9     -1541.621 9        57.422 9  24969394.522 9 131215024.925 9     -1541.621 9        57.422 9  24969397.701 9  97985241.232 9     -1151.211 9        57.282 9  24969397.701 9  97985241.232 9     -1151.211 9        57.282 9  24969397.453 9 100541378.957 9     -1181.243 9        57.282 9  24969397.453 9 100541378.957 9     -1181.243 9        57.282 9  24969397.575 9  99263310.098 9     -1166.227 9        60.292 9  24969397.575 9  99263310.098 9     -1166.227 9        60.292 9
E15  27828425.832 9 146239318.156 9     -1861.497 9        56.362 9  27828425.832 9 146239318.156 9     -1861.497 9        56.362 9  27828430.957 9 109204678.127 9     -1390.080 9        56.222 9  27828430.957 9 109204678.127 9     -1390.080 9        56.222 9  27828430.558 9 112053497.426 9     -1426.343 9        56.222 9  27828430.558 9 112053497.426 9     -1426.343 9        56.222 9  27828430.754 9 110629087.781 9     -1408.211 9        59.232 9  27828430.754 9 110629087.781 9     -1408.211 9        59.232 9
E03  26322381.733 9 138325014.983 9      2462.566 9        56.973 9  26322381.733 9 138325014.983 9      2462.566 9        56.973 9  26322385.233 9 103294647.262 9      1838.930 9        56.834 9  26322385.233 9 103294647.262 9      1838.930 9        56.834 9  26322384.936 9 105989291.429 9      1886.902 9        56.834 9  26322384.936 9 105989291.429 9      1886.902 9        56.834 9  26322385.082 9 104641969.350 9      1862.916 9        59.844 9  26322385.082 9 104641969.350 9      1862.916 9        59.844 9
E24  24083597.990 9 126560137.881 9      1241.548 9        57.796 9  24083597.990 9 126560137.881 9      1241.548 9        57.796 9  24083599.008 9  94509183.791 9       927.130 9        57.656 9  24083599.008 9  94509183.791 9       927.130 9        57.656 9  24083598.805 9  96974641.579 9       951.316 9        57.656 9  24083598.805 9  96974641.579 9       951.316 9        57.656 9  24083598.904 9  95741912.688 9       939.223 9        60.666 9  24083598.904 9  95741912.688 9       939.223 9        60.666 9
> 2023 01 08 10 00 22.0000000  0 20       0.000000000000
G08  25071434.110 9 131751224.918 9     -1489.604 9        54.231 9  25071438.216 8 102663283.464 8     -1160.731 8        49.731 8  25071437.927 9  98385639.992 9     -1112.367 9        56.331 9
G13  20026445.935 9 105239662.693 9       574.500 9        56.113 9  20026444.970 8  82004917.428 8       447.662 8        51.613 8  20026447.520 9  78588053.581 9       429.010 9        58.213 9
G17  24966571.216 9 131200134.366 9      2931.708 9        54.185 9  24966574.151 8 102233841.163 8      2284.451 8        49.685 8  24966577.473 9  97974101.758 9      2189.266 9        56.285 9
G24  24524687.269 9 128878049.387 9      3531.453 9        54.414 9  24524691.015 8 100424443.164 8      2751.783 8        49.914 8  24524691.198 9  96240086.394 9      2637.125 9        56.514 9
G07  24602409.499 9 129286473.826 9     -2972.786 9        54.356 9  24602411.067 8 100742682.702 8     -2316.459 8        49.856 8  24602414.080 9  96545076.112 9     -2219.941 9        56.456 9
G18  24768690.946 9 130160303.895 9     -1370.695 9        54.336 9  24768692.123 8 101423595.290 8     -1068.075 8        49.836 8  24768694.382 9  97197616.045 9     -1023.572 9        56.436 9
G20  23520522.257 9 123601127.430 9     -3650.206 9        54.725 9  23520523.787 8  96312547.249 8     -2844.319 8        50.225 8  23520526.127 9  92299528.025 9     -2725.806 9        56.825 9
G14  20963465.226 9 110163728.809 9       122.866 9        55.781 9  20963465.198 8  85841854.143 8        95.739 8        51.281 8  20963467.075 9  82265114.907 9        91.750 9        57.881 9
G23  24864629.642 9 130664466.875 9      3227.043 9        54.292 9  24864630.713 8 101816449.996 8      2514.580 8        49.792 8  24864632.948 9  97574101.899 9      2409.806 9        56.392 9
G05  21745911.351 9 114275506.353 9     -2433.541 9        55.469 9  21745910.974 8  89045832.898 8     -1896.266 8        50.969 8  21745913.546 9  85335596.777 9     -1817.256 9        57.569 9
G30  21860121.225 9 114875683.481 9     -2264.402 9        55.475 9  21860123.726 8  89513515.269 8     -1764.470 8        50.975 8  21860123.406 9  85783781.052 9     -1690.951 9        57.575 9
G15  21115219.051 9 110961199.352 9      2291.945 9        55.712 9  21115218.554 8  86463257.243 8      1785.931 8        51.212 8  21115220.989 9  82860628.272 9      1711.518 9        57.812 9
E05  23313309.132 9 122512245.396 9       357.438 9        57.976 9  23313309.132 9 122512245.396 9       357.438 9        57.976 9  23313311.657 9  91486414.496 9       266.918 9        57.837 9  23313311.657 9  91486414.496 9       266.918 9        57.837 9  23313311.477 9  93873017.336 9       273.881 9        57.837 9  23313311.477 9  93873017.336 9       273.881 9        57.837 9  23313311.565 9  92679715.918 9       270.399 9        60.847 9  23313311.565 9  92679715.918 9       270.399 9        60.847 9
E09  25218265.893 9 132522849.621 9     -2096.754 9        57.364 9  25218265.893 9 132522849.621 9     -2096.754 9        57.364 9  25218268.814 9  98961860.671 9     -1565.759 9        57.225 9  25218268.814 9  98961860.671 9     -1565.759 9        57.225 9  25218268.539 9 101543475.535 9     -1606.605 9        57.225 9  25218268.539 9 101543475.535 9     -1606.605 9        57.225 9  25218268.674 9 100252668.106 9     -1586.182 9        60.235 9  25218268.674 9 100252668.106 9     -1586.182 9        60.235 9
E13  28147141.289 9 147914179.198 9       322.742 9        56.288 9  28147141.289 9 147914179.198 9       322.742 9        56.288 9  28147144.974 9 110455380.402 9       241.009 9        56.148 9  28147144.974 9 110455380.402 9       241.009 9        56.148 9  28147144.574 9 113336826.716 9       247.296 9        56.148 9  28147144.574 9 113336826.716 9       247.296 9        56.148 9  28147144.770 9 111896103.564 9       244.152 9        59.159 9  28147144.770 9 111896103.564 9       244.152 9        59.159 9
E25  27073380.989 9 142271526.779 9      3129.585 9        56.723 9  27073380.989 9 142271526.779 9      3129.585 9        56.723 9  27073385.857 9 106241713.694 9      2337.029 9        56.583 9  27073385.857 9 106241713.694 9      2337.029 9        56.583 9  27073385.424 9 109013238.404 9      2397.995 9        56.583 9  27073385.424 9 109013238.404 9      2397.995 9        56.583 9  27073385.637 9 107627476.054 9      2367.512 9        59.594 9  27073385.637 9 107627476.054 9      2367.512 9        59.594 9
E31  24969687.918 9 131216566.730 9     -1541.996 9        57.422 9  24969687.918 9 131216566.730 9     -1541.996 9        57.422 9  24969691.098 9  97986392.579 9     -1151.491 9        57.282 9  24969691.098 9  97986392.579 9     -1151.491 9        57.282 9  24969690.850 9 100542560.340 9     -1181.530 9        57.282 9  24969690.850 9 100542560.340 9     -1181.530 9        57.282 9  24969690.971 9  99264476.463 9     -1166.510 9        60.292 9  24969690.971 9  99264476.463 9     -1166.510 9        60.292 9
E15  27828780.097 9 146241179.826 9     -1861.844 9        56.362 9  27828780.097 9 146241179.826 9     -1861.844 9        56.362 9  27828785.222 9 109206068.334 9     -1390.339 9        56.222 9  27828785.222 9 109206068.334 9     -1390.339 9        56.222 9  27828784.823 9 112054923.898 9     -1426.609 9        56.222 9  27828784.823 9 112054923.898 9     -1426.609 9        56.222 9  27828785.019 9 110630496.121 9     -1408.474 9        59.232 9  27828785.019 9 110630496.121 9     -1408.474 9        59.232 9
E03  26321913.131 9 138322552.467 9      2462.467 9        56.974 9  26321913.131 9 138322552.467 9      2462.467 9        56.974 9  26321916.631 9 103292808.371 9      1838.856 9        56.834 9  26321916.631 9 103292808.371 9      1838.856 9        56.834 9  26321916.335 9 105987404.567 9      1886.826 9        56.834 9  26321916.335 9 105987404.567 9      1886.826 9        56.834 9  26321916.480 9 104640106.473 9      1862.841 9        59.844 9  26321916.480 9 104640106.473 9      1862.841 9        59.844 9
E24  24083361.772 9 126558896.551 9      1241.114 9        57.796 9  24083361.772 9 126558896.551 9      1241.114 9        57.796 9  24083362.791 9  94508256.824 9       926.806 9        57.656 9  24083362.791 9  94508256.824 9       926.806 9        57.656 9  24083362.587 9  96973690.430 9       950.984 9        57.656 9  24083362.587 9  96973690.430 9       950.984 9        57.656 9  24083362.687 9  95740973.630 9       938.895 9        60.667 9  24083362.687 9  95740973.630 9       938.895 9        60.667 9
> 2023 01 08 10 00 23.0000000  0 20       0.000000000000
G08  25071717.627 9 131752714.811 9     -1490.182 9        54.231 9  25071721.733 8 102664444.420 8     -1161.180 8        49.731 8  25071721.444 9  98386752.574 9     -1112.798 9        56.331 9
G13  20026336.656 9 105239088.429 9       574.026 9        56.113 9  20026335.691 8  82004469.950 8       447.293 8        51.613 8  20026338.242 9  78587624.748 9       428.656 9        58.213 9
G17  24966013.335 9 131197202.697 9      2931.662 9        54.185 9  24966016.270 8 102231556.749 8      2284.415 8        49.685 8  24966019.591 9  97971912.529 9      2189.232 9        56.285 9
G24  24524015.265 9 128874517.988 9      3531.349 9        54.414 9  24524019.011 8 100421691.425 8      2751.701 8        49.914 8  24524019.194 9  96237449.311 9      2637.047 9        56.514 9
G07  24602975.205 9 129289446.623 9     -2972.835 9        54.356 9  24602976.775 8 100744999.164 8     -2316.498 8        49.856 8  24602979.787 9  96547296.054 9     -2219.978 9        56.456 9
G18  24768951.831 9 130161674.852 9     -1371.222 9        54.335 9  24768953.008 8 101424663.568 8     -1068.485 8        49.835 8  24768955.268 9  97198639.811 9     -1023.965 9        56.435 9
G20  23521216.882 9 123604777.699 9     -3650.353 9        54.724 9  23521218.413 8  96315391.611 8     -2844.433 8        50.224 8  23521220.753 9  92302253.872 9     -2725.916 9        56.824 9
G14  20963441.908 9 110163606.273 9       122.207 9        55.781 9  20963441.881 8  85841758.660 8        95.226 8        51.281 8  20963443.757 9  82265023.403 9        91.258 9        57.881 9
G23  24864015.585 9 130661239.990 9      3226.734 9        54.292 9  24864016.656 8 101813935.542 8      2514.340 8        49.792 8  24864018.891 9  97571692.214 9      2409.576 9        56.392 9
G05  21746374.487 9 114277940.150 9     -2434.059 9        55.469 9  21746374.111 8  89047729.362 8     -1896.670 8        50.969 8  21746376.683 9  85337414.222 9     -1817.643 9        57.569 9
G30  21860552.151 9 114877948.012 9     -2264.671 9        55.474 9  21860554.653 8  89515279.838 8     -1764.679 8        50.974 8  21860554.333 9  85785472.097 9     -1691.151 9        57.574 9
G15  21114782.949 9 110958907.623 9      2291.514 9        55.712 9  21114782.452 8  86461471.480 8      1785.596 8        51.212 8  21114784.887 9  82858916.917 9      1711.196 9        57.812 9
E05  23313241.144 9 122511888.116 9       357.121 9        57.977 9  23313241.144 9 122511888.116 9       357.121 9        57.977 9  23313243.669 9  91486147.696 9       266.681 9        57.837 9  23313243.669 9  91486147.696 9       266.681 9        57.837 9  23313243.489 9  93872743.577 9       273.638 9        57.837 9  23313243.489 9  93872743.577 9       273.638 9        57.837 9  23313243.577 9  92679445.638 9       270.159 9        60.847 9  23313243.577 9  92679445.638 9       270.159 9        60.847 9
E09  25218664.914 9 132524946.487 9     -2096.989 9        57.364 9  25218664.914 9 132524946.487 9     -2096.989 9        57.364 9  25218667.835 9  98963426.511 9     -1565.935 9        57.224 9  25218667.835 9  98963426.511 9     -1565.935 9        57.224 9  25218667.560 9 101545082.223 9     -1606.785 9        57.224 9  25218667.560 9 101545082.223 9     -1606.785 9        57.224 9  25218667.695 9 100254254.371 9     -1586.360 9        60.235 9  25218667.695 9 100254254.371 9     -1586.360 9        60.235 9
E13  28147079.920 9 147913856.704 9       322.247 9        56.288 9  28147079.920 9 147913856.704 9       322.247 9        56.288 9  28147083.605 9 110455139.578 9       240.639 9        56.148 9  28147083.605 9 110455139.578 9       240.639 9        56.148 9  28147083.206 9 113336579.610 9       246.917 9        56.148 9  28147083.206 9 113336579.610 9       246.917 9        56.148 9  28147083.401 9 111895859.599 9       243.778 9        59.159 9  28147083.401 9 111895859.599 9       243.778 9        59.159 9
E25  27072785.459 9 142268397.259 9      3129.466 9        56.723 9  27072785.459 9 142268397.259 9      3129.466 9        56.723 9  27072790.328 9 106239376.716 9      2336.941 9        56.584 9  27072790.328 9 106239376.716 9      2336.941 9        56.584 9  27072789.895 9 109010840.461 9      2397.904 9        56.584 9  27072789.895 9 109010840.461 9      2397.904 9        56.584 9  27072790.107 9 107625108.594 9      2367.422 9        59.594 9  27072790.107 9 107625108.594 9      2367.422 9        59.594 9
E31  24969981.386 9 131218108.910 9     -1542.370 9        57.422 9  24969981.386 9 131218108.910 9     -1542.370 9        57.422 9  24969984.565 9  97987544.206 9     -1151.770 9        57.282 9  24969984.565 9  97987544.206 9     -1151.770 9        57.282 9  24969984.317 9 100543742.009 9     -1181.817 9        57.282 9  24969984.317 9 100543742.009 9     -1181.817 9        57.282 9  24969984.439 9  99265643.111 9     -1166.794 9        60.292 9  24969984.439 9  99265643.111 9     -1166.794 9        60.292 9
E15  27829134.427 9 146243041.842 9     -1862.192 9        56.362 9  27829134.427 9 146243041.842 9     -1862.192 9        56.362 9  27829139.553 9 109207458.800 9     -1390.599 9        56.222 9  27829139.553 9 109207458.800 9     -1390.599 9        56.222 9  27829139.154 9 112056350.638 9     -1426.875 9        56.222 9  27829139.154 9 112056350.638 9     -1426.875 9        56.222 9  27829139.349 9 110631904.724 9     -1408.737 9        59.232 9  27829139.349 9 110631904.724 9     -1408.737 9        59.232 9
E03  26321444.548 9 138320090.049 9      2462.368 9        56.974 9  26321444.548 9 138320090.049 9      2462.368 9        56.974 9  26321448.048 9 103290969.554 9      1838.782 9        56.834 9  26321448.048 9 103290969.554 9      1838.782 9        56.834 9  26321447.752 9 105985517.780 9      1886.750 9        56.834 9  26321447.752 9 105985517.780 9      1886.750 9        56.834 9  26321447.897 9 104638243.671 9      1862.766 9        59.844 9  26321447.897 9 104638243.671 9      1862.766 9        59.844 9
E24  24083125.637 9 126557655.655 9      1240.681 9        57.796 9  24083125.637 9 126557655.655 9      1240.681 9        57.796 9  24083126.656 9  94507330.181 9       926.482 9        57.656 9  24083126.656 9  94507330.181 9       926.482 9        57.656 9  24083126.452 9  96972739.614 9       950.652 9        57.656 9  24083126.452 9  96972739.614 9       950.652 9        57.656 9  24083126.552 9  95740034.900 9       938.567 9        60.667 9  24083126.552 9  95740034.900 9       938.567 9        60.667 9
> 2023 01 08 10 00 24.0000000  0 20       0.000000000000
G08  25072001.254 9 131754205.282 9     -1490.759 9        54.231 9  25072005.360 8 102665605.826 8     -1161.630 8        49.731 8  25072005.071 9  98387865.588 9     -1113.229 9        56.331 9
G13  20026227.468 9 105238514.640 9       573.552 9        56.113 9  20026226.503 8  82004022.841 8       446.923 8        51.613 8  20026229.053 9  78587196.269 9       428.302 9        58.213 9
G17  24965455.463 9 131194271.074 9      2931.616 9        54.185 9  24965458.397 8 102229272.371 8      2284.380 8        49.685 8  24965461.719 9  97969723.333 9      2189.198 9        56.285 9
G24  24523343.281 9 128870986.692 9      3531.244 9        54.414 9  24523347.027 8 100418939.767 8      2751.620 8        49.914 8  24523347.210 9  96234812.306 9      2636.969 9        56.514 9
G07  24603540.921 9 129292419.469 9     -2972.885 9        54.356 9  24603542.491 8 100747315.665 8     -2316.537 8        49.856 8  24603545.504 9  96549516.034 9     -2220.015 9        56.456 9
G18  24769212.816 9 130163046.336 9     -1371.749 9        54.335 9  24769213.993 8 101425732.256 8     -1068.896 8        49.835 8  24769216.253 9  97199663.970 9     -1024.359 9        56.435 9
G20  23521911.535 9 123608428.115 9     -3650.500 9        54.724 9  23521913.067 8  96318236.089 8     -2844.548 8        50.224 8  23521915.407 9  92304979.829 9     -2726.026 9        56.824 9
G14  20963418.716 9 110163484.395 9       121.548 9        55.781 9  20963418.688 8  85841663.691 8        94.712 8        51.281 8  20963420.564 9  82264932.390 9        90.766 9        57.881 9
G23  24863401.587 9 130658013.414 9      3226.426 9        54.292 9  24863402.657 8 101811421.328 8      2514.099 8        49.792 8  24863404.893 9  97569282.759 9      2409.345 9        56.392 9
G05  21746837.723 9 114280374.465 9     -2434.577 9        55.469 9  21746837.347 8  89049626.230 8     -1897.074 8        50.969 8  21746839.919 9  85339232.053 9     -1818.029 9        57.569 9
G30  21860983.129 9 114880212.812 9     -2264.939 9        55.474 9  21860985.631 8  89517044.616 8     -1764.889 8        50.974 8  21860985.311 9  85787163.342 9     -1691.352 9        57.574 9
G15  21114346.929 9 110956616.325 9      2291.083 9        55.712 9  21114346.433 8  86459686.054 8      1785.260 8        51.212 8  21114348.867 9  82857205.883 9      1710.874 9        57.812 9
E05  23313173.216 9 122511531.153 9       356.804 9        57.977 9  23313173.216 9 122511531.153 9       356.804 9        57.977 9  23313175.741 9  91485881.133 9       266.444 9        57.837 9  23313175.741 9  91485881.133 9       266.444 9        57.837 9  23313175.562 9  93872470.060 9       273.395 9        57.837 9  23313175.562 9  93872470.060 9       273.395 9        57.837 9  23313175.650 9  92679175.598 9       269.919 9        60.847 9  23313175.650 9  92679175.598 9       269.919 9        60.847 9
E09  25219063.980 9 132527043.588 9     -2097.224 9        57.364 9  25219063.980 9 132527043.588 9     -2097.224 9        57.364 9  25219066.902 9  98964992.527 9     -1566.110 9        57.224 9  25219066.902 9  98964992.527 9     -1566.110 9        57.224 9  25219066.627 9 101546689.092 9     -1606.965 9        57.224 9  25219066.627 9 101546689.092 9     -1606.965 9        57.224 9  25219066.761 9 100255840.813 9     -1586.538 9        60.235 9  25219066.761 9 100255840.813 9     -1586.538 9        60.235 9
E13  28147018.646 9 147913534.704 9       321.753 9        56.288 9  28147018.646 9 147913534.704 9       321.753 9        56.288 9  28147022.330 9 110454899.124 9       240.270 9        56.148 9  28147022.330 9 110454899.124 9       240.270 9        56.148 9  28147021.931 9 113336332.883 9       246.538 9        56.148 9  28147021.931 9 113336332.883 9       246.538 9        56.148 9  28147022.127 9 111895616.009 9       243.404 9        59.159 9  28147022.127 9 111895616.009 9       243.404 9        59.159 9
E25  27072189.953 9 142265267.858 9      3129.347 9        56.724 9  27072189.953 9 142265267.858 9      3129.347 9        56.724 9  27072194.821 9 106237039.827 9      2336.852 9        56.584 9  27072194.821 9 106237039.827 9      2336.852 9        56.584 9  27072194.388 9 109008442.610 9      2397.813 9        56.584 9  27072194.388 9 109008442.610 9      2397.813 9        56.584 9  27072194.600 9 107622741.224 9      2367.332 9        59.594 9  27072194.600 9 107622741.224 9      2367.332 9        59.594 9
E31  24970274.924 9 131219651.463 9     -1542.744 9        57.422 9  24970274.924 9 131219651.463 9     -1542.744 9        57.422 9  24970278.104 9  97988696.112 9     -1152.050 9        57.282 9  24970278.104 9  97988696.112 9     -1152.050 9        57.282 9  24970277.856 9 100544923.965 9     -1182.103 9        57.282 9  24970277.856 9 100544923.965 9     -1182.103 9        57.282 9  24970277.978 9  99266810.042 9     -1167.077 9        60.292 9  24970277.978 9  99266810.042 9     -1167.077 9        60.292 9
E15  27829488.824 9 146244904.206 9     -1862.539 9        56.362 9  27829488.824 9 146244904.206 9     -1862.539 9        56.362 9  27829493.950 9 109208849.525 9     -1390.858 9        56.222 9  27829493.950 9 109208849.525 9     -1390.858 9        56.222 9  27829493.551 9 112057777.643 9     -1427.141 9        56.222 9  27829493.551 9 112057777.643 9     -1427.141 9        56.222 9  27829493.746 9 110633313.589 9     -1409.000 9        59.232 9  27829493.746 9 110633313.589 9     -1409.000 9        59.232 9
E03  26320975.984 9 138317627.731 9      2462.270 9        56.974 9  26320975.984 9 138317627.731 9      2462.270 9        56.974 9  26320979.484 9 103289130.810 9      1838.709 9        56.834 9  26320979.484 9 103289130.810 9      1838.709 9        56.834 9  26320979.187 9 105983631.069 9      1886.675 9        56.834 9  26320979.187 9 105983631.069 9      1886.675 9        56.834 9  26320979.333 9 104636380.943 9      1862.692 9        59.844 9  26320979.333 9 104636380.943 9      1862.692 9        59.844 9
E24  24082889.585 9 126556415.192 9      1240.247 9        57.796 9  24082889.585 9 126556415.192 9      1240.247 9        57.796 9  24082890.603 9  94506403.862 9       926.159 9        57.656 9  24082890.603 9  94506403.862 9       926.159 9        57.656 9  24082890.400 9  96971789.130 9       950.319 9        57.656 9  24082890.400 9  96971789.130 9       950.319 9        57.656 9  24082890.500 9  95739096.498 9       938.239 9        60.667 9  24082890.500 9  95739096.498 9       938.239 9        60.667 9
> 2023 01 08 10 00 25.0000000  0 20       0.000000000000
G08  25072284.991 9 131755696.330 9     -1491.337 9        54.231 9  25072289.097 8 102666767.681 8     -1162.080 8        49.731 8  25072288.808 9  98388979.033 9     -1113.660 9        56.331 9
G13  20026118.370 9 105237941.325 9       573.078 9        56.113 9  20026117.405 8  82003576.102 8       446.554 8        51.613 8  20026119.955 9  78586768.144 9       427.948 9        58.213 9
G17  24964897.600 9 131191339.497 9      2931.570 9        54.186 9  24964900.533 8 102226988.028 8      2284.344 8        49.686 8  24964903.854 9  97967534.173 9      2189.163 9        56.286 9
G24  24522671.317 9 128867455.502 9      3531.139 9        54.415 9  24522675.063 8 100416188.192 8      2751.538 8        49.915 8  24522675.245 9  96232175.380 9      2636.891 9        56.515 9
G07  24604106.646 9 129295392.365 9     -2972.935 9        54.356 9  24604108.217 8 100749632.204 8     -2316.575 8        49.856 8  24604111.230 9  96551736.050 9     -2220.052 9        56.456 9
G18  24769473.901 9 130164418.347 9     -1372.276 9        54.335 9  24769475.079 8 101426801.355 8     -1069.306 8        49.835 8  24769477.339 9  97200688.523 9     -1024.752 9        56.435 9
G20  23522606.216 9 123612078.678 9     -3650.647 9        54.724 9  23522607.749 8  96321080.681 8     -2844.662 8        50.224 8  23522610.089 9  92307705.896 9     -2726.135 9        56.824 9
G14  20963395.648 9 110163363.177 9       120.889 9        55.781 9  20963395.621 8  85841569.235 8        94.199 8        51.281 8  20963397.497 9  82264841.870 9        90.274 9        57.881 9
G23  24862787.648 9 130654787.146 9      3226.117 9        54.293 9  24862788.717 8 101808907.355 8      2513.859 8        49.793 8  24862790.953 9  97566873.535 9      2409.115 9        56.393 9
G05  21747301.057 9 114282809.297 9     -2435.095 9        55.469 9  21747300.681 8  89051523.501 8     -1897.477 8        50.969 8  21747303.254 9  85341050.271 9     -1818.416 9        57.569 9
G30  21861414.158 9 114882477.879 9     -2265.208 9        55.474 9  21861416.660 8  89518809.603 8     -1765.098 8        50.974 8  21861416.340 9  85788854.788 9     -1691.552 9        57.574 9
G15  21113910.991 9 110954325.458 9      2290.652 9        55.712 9  21113910.495 8  86457900.963 8      1784.924 8        51.212 8  21113912.929 9  82855495.171 9      1710.552 9        57.812 9
E05  23313105.349 9 122511174.508 9       356.486 9        57.977 9  23313105.349 9 122511174.508 9       356.486 9        57.977 9  23313107.874 9  91485614.806 9       266.207 9        57.837 9  23313107.874 9  91485614.806 9       266.207 9        57.837 9  23313107.694 9  93872196.786 9       273.152 9        57.837 9  23313107.694 9  93872196.786 9       273.152 9        57.837 9  23313107.782 9  92678905.798 9       269.680 9        60.847 9  23313107.782 9  92678905.798 9       269.680 9        60.847 9
E09  25219463.090 9 132529140.924 9     -2097.459 9        57.364 9  25219463.090 9 132529140.924 9     -2097.459 9        57.364 9  25219466.013 9  98966558.718 9     -1566.286 9        57.224 9  25219466.013 9  98966558.718 9     -1566.286 9        57.224 9  25219465.737 9 101548296.140 9     -1607.145 9        57.224 9  25219465.737 9 101548296.140 9     -1607.145 9        57.224 9  25219465.872 9 100257427.433 9     -1586.715 9        60.234 9  25219465.872 9 100257427.433 9     -1586.715 9        60.234 9
E13  28146957.465 9 147913213.199 9       321.258 9        56.288 9  28146957.465 9 147913213.199 9       321.258 9        56.288 9  28146961.150 9 110454659.040 9       239.901 9        56.148 9  28146961.150 9 110454659.040 9       239.901 9        56.148 9  28146960.750 9 113336086.535 9       246.159 9        56.148 9  28146960.750 9 113336086.535 9       246.159 9        56.148 9  28146960.946 9 111895372.792 9       243.030 9        59.159 9  28146960.946 9 111895372.792 9       243.030 9        59.159 9
E25  27071594.469 9 142262138.575 9      3129.228 9        56.724 9  27071594.469 9 142262138.575 9      3129.228 9        56.724 9  27071599.337 9 106234703.027 9      2336.763 9        56.584 9  27071599.337 9 106234703.027 9      2336.763 9        56.584 9  27071598.904 9 109006044.849 9      2397.722 9        56.584 9  27071598.904 9 109006044.849 9      2397.722 9        56.584 9  27071599.116 9 107620373.944 9      2367.242 9        59.594 9  27071599.116 9 107620373.944 9      2367.242 9        59.594 9
E31  24970568.534 9 131221194.391 9     -1543.118 9        57.422 9  24970568.534 9 131221194.391 9     -1543.118 9        57.422 9  24970571.714 9  97989848.298 9     -1152.329 9        57.282 9  24970571.714 9  97989848.298 9     -1152.329 9        57.282 9  24970571.466 9 100546106.208 9     -1182.390 9        57.282 9  24970571.466 9 100546106.208 9     -1182.390 9        57.282 9  24970571.588 9  99267977.256 9     -1167.360 9        60.292 9  24970571.588 9  99267977.256 9     -1167.360 9        60.292 9
E15  27829843.287 9 146246766.918 9     -1862.887 9        56.361 9  27829843.287 9 146246766.918 9     -1862.887 9        56.361 9  27829848.413 9 109210240.510 9     -1391.118 9        56.222 9  27829848.413 9 109210240.510 9     -1391.118 9        56.222 9  27829848.014 9 112059204.915 9     -1427.408 9        56.222 9  27829848.014 9 112059204.915 9     -1427.408 9        56.222 9  27829848.209 9 110634722.718 9     -1409.263 9        59.232 9  27829848.209 9 110634722.718 9     -1409.263 9        59.232 9
E03  26320507.439 9 138315165.511 9      2462.171 9        56.974 9  26320507.439 9 138315165.511 9      2462.171 9        56.974 9  26320510.939 9 103287292.140 9      1838.635 9        56.834 9  26320510.939 9 103287292.140 9      1838.635 9        56.834 9  26320510.642 9 105981744.433 9      1886.599 9        56.834 9  26320510.642 9 105981744.433 9      1886.599 9        56.834 9  26320510.787 9 104634518.290 9      1862.617 9        59.844 9  26320510.787 9 104634518.290 9      1862.617 9        59.844 9
E24  24082653.615 9 126555175.163 9      1239.813 9        57.796 9  24082653.615 9 126555175.163 9      1239.813 9        57.796 9  24082654.634 9  94505477.866 9       925.835 9        57.656 9  24082654.634 9  94505477.866 9       925.835 9        57.656 9  24082654.430 9  96970838.978 9       949.987 9        57.656 9  24082654.430 9  96970838.978 9       949.987 9        57.656 9  24082654.530 9  95738158.425 9       937.911 9        60.667 9  24082654.530 9  95738158.425 9       937.911 9        60.667 9
> 2023 01 08 10 00 26.0000000  0 20       0.000000000000
G08  25072568.837 9 131757187.955 9     -1491.914 9        54.231 9  25072572.944 8 102667929.987 8     -1162.530 8        49.731 8  25072572.654 9  98390092.909 9     -1114.091 9        56.331 9
G13  20026009.362 9 105237368.484 9       572.604 9        56.113 9  20026008.397 8  82003129.733 8       446.185 8        51.613 8  20026010.947 9  78586340.373 9       427.594 9        58.213 9
G17  24964339.746 9 131188407.966 9      2931.524 9        54.186 9  24964342.678 8 102224703.722 8      2284.308 8        49.686 8  24964345.999 9  97965345.046 9      2189.129 9        56.286 9
G24  24521999.373 9 128863924.416 9      3531.034 9        54.415 9  24522003.118 8 100413436.697 8      2751.457 8        49.915 8  24522003.301 9  96229538.532 9      2636.813 9        56.515 9
G07  24604672.381 9 129298365.311 9     -2972.984 9        54.356 9  24604673.953 8 100751948.782 8     -2316.614 8        49.856 8  24604676.966 9  96553956.104 9     -2220.089 9        56.456 9
G18  24769735.087 9 130165790.884 9     -1372.802 9        54.335 9  24769736.265 8 101427870.864 8     -1069.717 8        49.835 8  24769738.525 9  97201713.469 9     -1025.145 9        56.435 9
G20  23523300.925 9 123615729.388 9     -3650.793 9        54.724 9  23523302.458 8  96323925.387 8     -2844.777 8        50.224 8  23523304.798 9  92310432.072 9     -2726.245 9        56.824 9
G14  20963372.707 9 110163242.617 9       120.230 9        55.781 9  20963372.679 8  85841475.292 8        93.686 8        51.281 8  20963374.556 9  82264751.841 9        89.782 9        57.881 9
G23  24862173.767 9 130651561.188 9      3225.808 9        54.293 9  24862174.837 8 101806393.622 8      2513.618 8        49.793 8  24862177.072 9  97564464.542 9      2408.884 9        56.393 9
G05  21747764.490 9 114285244.648 9     -2435.613 9        55.469 9  21747764.114 8  89053421.176 8     -1897.881 8        50.969 8  21747766.687 9  85342868.876 9     -1818.803 9        57.569 9
G30  21861845.238 9 114884743.216 9     -2265.476 9        55.474 9  21861847.740 8  89520574.799 8     -1765.307 8        50.974 8  21861847.421 9  85790546.434 9     -1691.753 9        57.574 9
G15  21113475.135 9 110952035.023 9      2290.220 9        55.712 9  21113474.639 8  86456116.208 8      1784.588 8        51.212 8  21113477.073 9  82853784.781 9      1710.230 9        57.812 9
E05  23313037.542 9 122510818.179 9       356.169 9        57.977 9  23313037.542 9 122510818.179 9       356.169 9        57.977 9  23313040.067 9  91485348.717 9       265.971 9        57.837 9  23313040.067 9  91485348.717 9       265.971 9        57.837 9  23313039.887 9  93871923.755 9       272.909 9        57.837 9  23313039.887 9  93871923.755 9       272.909 9        57.837 9  23313039.976 9  92678636.238 9       269.440 9        60.847 9  23313039.976 9  92678636.238 9       269.440 9        60.847 9
E09  25219862.246 9 132531238.495 9     -2097.694 9        57.364 9  25219862.246 9 132531238.495 9     -2097.694 9        57.364 9  25219865.168 9  98968125.085 9     -1566.461 9        57.224 9  25219865.168 9  98968125.085 9     -1566.461 9        57.224 9  25219864.893 9 101549903.369 9     -1607.325 9        57.224 9  25219864.893 9 101549903.369 9     -1607.325 9        57.224 9  25219865.028 9 100259014.231 9     -1586.893 9        60.234 9  25219865.028 9 100259014.231 9     -1586.893 9        60.234 9
E13  28146896.379 9 147912892.189 9       320.764 9        56.288 9  28146896.379 9 147912892.189 9       320.764 9        56.288 9  28146900.063 9 110454419.324 9       239.531 9        56.148 9  28146900.063 9 110454419.324 9       239.531 9        56.148 9  28146899.664 9 113335840.566 9       245.780 9        56.148 9  28146899.664 9 113335840.566 9       245.780 9        56.148 9  28146899.860 9 111895129.950 9       242.656 9        59.159 9  28146899.860 9 111895129.950 9       242.656 9        59.159 9
E25  27070999.008 9 142259009.412 9      3129.109 9        56.724 9  27070999.008 9 142259009.412 9      3129.109 9        56.724 9  27071003.875 9 106232366.316 9      2336.674 9        56.584 9  27071003.875 9 106232366.316 9      2336.674 9        56.584 9  27071003.442 9 109003647.180 9      2397.631 9        56.584 9  27071003.442 9 109003647.180 9      2397.631 9        56.584 9  27071003.654 9 107618006.753 9      2367.152 9        59.594 9  27071003.654 9 107618006.753 9      2367.152 9        59.594 9
E31  24970862.215 9 131222737.693 9     -1543.492 9        57.422 9  24970862.215 9 131222737.693 9     -1543.492 9        57.422 9  24970865.395 9  97991000.763 9     -1152.609 9        57.282 9  24970865.395 9  97991000.763 9     -1152.609 9        57.282 9  24970865.148 9 100547288.737 9     -1182.677 9        57.282 9  24970865.148 9 100547288.737 9     -1182.677 9        57.282 9  24970865.269 9  99269144.754 9     -1167.643 9        60.292 9  24970865.269 9  99269144.754 9     -1167.643 9        60.292 9
E15  27830197.816 9 146248629.977 9     -1863.234 9        56.361 9  27830197.816 9 146248629.977 9     -1863.234 9        56.361 9  27830202.942 9 109211631.755 9     -1391.377 9        56.221 9  27830202.942 9 109211631.755 9     -1391.377 9        56.221 9  27830202.543 9 112060632.453 9     -1427.674 9        56.221 9  27830202.543 9 112060632.453 9     -1427.674 9        56.221 9  27830202.739 9 110636132.109 9     -1409.525 9        59.232 9  27830202.739 9 110636132.109 9     -1409.525 9        59.232 9
E03  26320038.912 9 138312703.389 9      2462.072 9        56.974 9  26320038.912 9 138312703.389 9      2462.072 9        56.974 9  26320042.412 9 103285453.543 9      1838.561 9        56.834 9  26320042.412 9 103285453.543 9      1838.561 9        56.834 9  26320042.115 9 105979857.874 9      1886.523 9        56.834 9  26320042.115 9 105979857.874 9      1886.523 9        56.834 9  26320042.261 9 104632655.712 9      1862.542 9        59.845 9  26320042.261 9 104632655.712 9      1862.542 9        59.845 9
E24  24082417.728 9 126553935.568 9      1239.379 9        57.796 9  24082417.728 9 126553935.568 9      1239.379 9        57.796 9  24082418.746 9  94504552.194 9       925.511 9        57.657 9  24082418.746 9  94504552.194 9       925.511 9        57.657 9  24082418.543 9  96969889.158 9       949.655 9        57.657 9  24082418.543 9  96969889.158 9       949.655 9        57.657 9  24082418.642 9  95737220.679 9       937.583 9        60.667 9  24082418.642 9  95737220.679 9       937.583 9        60.667 9
> 2023 01 08 10 00 27.0000000  0 20       0.000000000000
G08  25072852.794 9 131758680.157 9     -1492.491 9        54.230 9  25072856.900 8 102669092.742 8     -1162.980 8        49.730 8  25072856.611 9  98391207.216 9     -1114.522 9        56.330 9
G13  20025900.444 9 105236796.117 9       572.129 9        56.113 9  20025899.479 8  82002683.732 8       445.815 8        51.613 8  20025902.029 9  78585912.956 9       427.239 9        58.213 9
G17  24963781.900 9 131185476.481 9      2931.478 9        54.186 9  24963784.832 8 102222419.451 8      2284.272 8        49.686 8  24963788.152 9  97963155.954 9      2189.095 9        56.286 9
G24  24521327.448 9 128860393.435 9      3530.930 9        54.415 9  24521331.194 8 100410685.285 8      2751.375 8        49.915 8  24521331.376 9  96226901.761 9      2636.735 9        56.515 9
G07  24605238.125 9 129301338.306 9     -2973.034 9        54.355 9  24605239.698 8 100754265.399 8     -2316.652 8        49.855 8  24605242.711 9  96556176.194 9     -2220.126 9        56.455 9
G18  24769996.373 9 130167163.948 9     -1373.329 9        54.335 9  24769997.551 8 101428940.783 8     -1070.127 8        49.835 8  24769999.811 9  97202738.808 9     -1025.539 9        56.435 9
G20  23523995.662 9 123619380.245 9     -3650.940 9        54.723 9  23523997.196 8  96326770.208 8     -2844.891 8        50.223 8  23523999.536 9  92313158.358 9     -2726.355 9        56.823 9
G14  20963349.891 9 110163122.717 9       119.571 9        55.781 9  20963349.863 8  85841381.863 8        93.172 8        51.281 8  20963351.740 9  82264662.305 9        89.290 9        57.881 9
G23  24861559.945 9 130648335.538 9      3225.499 9        54.293 9  24861561.014 8 101803880.130 8      2513.377 8        49.793 8  24861563.250 9  97562055.779 9      2408.654 9        56.393 9
G05  21748228.021 9 114287680.517 9     -2436.130 9        55.469 9  21748227.645 8  89055319.254 8     -1898.284 8        50.969 8  21748230.218 9  85344687.867 9     -1819.189 9        57.569 9
G30  21862276.369 9 114887008.820 9     -2265.744 9        55.474 9  21862278.872 8  89522340.204 8     -1765.516 8        50.974 8  21862278.552 9  85792238.280 9     -1691.953 9        57.574 9
G15  21113039.362 9 110949745.018 9      2289.789 9        55.713 9  21113038.865 8  86454331.790 8      1784.252 8        51.213 8  21113041.300 9  82852074.714 9      1709.908 9        57.813 9
E05  23312969.795 9 122510462.168 9       355.852 9        57.977 9  23312969.795 9 122510462.168 9       355.852 9        57.977 9  23312972.321 9  91485082.864 9       265.734 9        57.837 9  23312972.321 9  91485082.864 9       265.734 9        57.837 9  23312972.141 9  93871650.967 9       272.666 9        57.837 9  23312972.141 9  93871650.967 9       272.666 9        57.837 9  23312972.229 9  92678366.918 9       269.200 9        60.847 9  23312972.229 9  92678366.918 9       269.200 9        60.847 9
E09  25220261.446 9 132533336.301 9     -2097.929 9        57.364 9  25220261.446 9 132533336.301 9     -2097.929 9        57.364 9  25220264.369 9  98969691.627 9     -1566.637 9        57.224 9  25220264.369 9  98969691.627 9     -1566.637 9        57.224 9  25220264.093 9 101551510.778 9     -1607.505 9        57.224 9  25220264.093 9 101551510.778 9     -1607.505 9        57.224 9  25220264.228 9 100260601.206 9     -1587.071 9        60.234 9  25220264.228 9 100260601.206 9     -1587.071 9        60.234 9
E13  28146835.387 9 147912571.673 9       320.269 9        56.288 9  28146835.387 9 147912571.673 9       320.269 9        56.288 9  28146839.071 9 110454179.978 9       239.162 9        56.148 9  28146839.071 9 110454179.978 9       239.162 9        56.148 9  28146838.672 9 113335594.976 9       245.401 9        56.148 9  28146838.672 9 113335594.976 9       245.401 9        56.148 9  28146838.868 9 111894887.482 9       242.282 9        59.159 9  28146838.868 9 111894887.482 9       242.282 9        59.159 9
E25  27070403.570 9 142255880.367 9      3128.990 9        56.724 9  27070403.570 9 142255880.367 9      3128.990 9        56.724 9  27070408.436 9 106230029.693 9      2336.585 9        56.584 9  27070408.436 9 106230029.693 9      2336.585 9        56.584 9  27070408.003 9 109001249.602 9      2397.539 9        56.584 9  27070408.003 9 109001249.602 9      2397.539 9        56.584 9  27070408.215 9 107615639.653 9      2367.062 9        59.595 9  27070408.215 9 107615639.653 9      2367.062 9        59.595 9
E31  24971155.967 9 131224281.370 9     -1543.867 9        57.421 9  24971155.967 9 131224281.370 9     -1543.867 9        57.421 9  24971159.148 9  97992153.508 9     -1152.888 9        57.282 9  24971159.148 9  97992153.508 9     -1152.888 9        57.282 9  24971158.900 9 100548471.554 9     -1182.963 9        57.282 9  24971158.900 9 100548471.554 9     -1182.963 9        57.282 9  24971159.021 9  99270312.534 9     -1167.926 9        60.292 9  24971159.021 9  99270312.534 9     -1167.926 9        60.292 9
E15  27830552.411 9 146250493.383 9     -1863.581 9        56.361 9  27830552.411 9 146250493.383 9     -1863.581 9        56.361 9  27830557.537 9 109213023.258 9     -1391.636 9        56.221 9  27830557.537 9 109213023.258 9     -1391.636 9        56.221 9  27830557.138 9 112062060.256 9     -1427.940 9        56.221 9  27830557.138 9 112062060.256 9     -1427.940 9        56.221 9  27830557.334 9 110637541.762 9     -1409.788 9        59.232 9  27830557.334 9 110637541.762 9     -1409.788 9        59.232 9
E03  26319570.404 9 138310241.367 9      2461.973 9        56.974 9  26319570.404 9 138310241.367 9      2461.973 9        56.974 9  26319573.904 9 103283615.021 9      1838.487 9        56.834 9  26319573.904 9 103283615.021 9      1838.487 9        56.834 9  26319573.607 9 105977971.389 9      1886.448 9        56.834 9  26319573.607 9 105977971.389 9      1886.448 9        56.834 9  26319573.753 9 104630793.209 9      1862.468 9        59.845 9  26319573.753 9 104630793.209 9      1862.468 9        59.845 9
E24  24082181.923 9 126552696.406 9      1238.946 9        57.797 9  24082181.923 9 126552696.406 9      1238.946 9        57.797 9  24082182.941 9  94503626.847 9       925.187 9        57.657 9  24082182.941 9  94503626.847 9       925.187 9        57.657 9  24082182.738 9  96968939.671 9       949.322 9        57.657 9  24082182.738 9  96968939.671 9       949.322 9        57.657 9  24082182.838 9  95736283.261 9       937.255 9        60.667 9  24082182.838 9  95736283.261 9       937.255 9        60.667 9
> 2023 01 08 10 00 28.0000000  0 20       0.000000000000
G08  25073136.860 9 131760172.937 9     -1493.068 9        54.230 9  25073140.967 8 102670255.947 8     -1163.430 8        49.730 8  25073140.677 9  98392321.955 9     -1114.953 9        56.330 9
G13  20025791.616 9 105236224.224 9       571.655 9        56.113 9  20025790.652 8  82002238.101 8       445.446 8        51.613 8  20025793.202 9  78585485.893 9       426.885 9        58.213 9
G17  24963224.063 9 131182545.042 9      2931.431 9        54.186 9  24963226.994 8 102220135.217 8      2284.236 8        49.686 8  24963230.315 9  97960966.897 9      2189.060 9        56.286 9
G24  24520655.544 9 128856862.559 9      3530.825 9        54.415 9  24520659.289 8 100407933.954 8      2751.293 8        49.915 8  24520659.472 9  96224265.070 9      2636.656 9        56.515 9
G07  24605803.879 9 129304311.350 9     -2973.083 9        54.355 9  24605805.452 8 100756582.055 8     -2316.691 8        49.855 8  24605808.466 9  96558396.322 9     -2220.163 9        56.455 9
G18  24770257.759 9 130168537.539 9     -1373.856 9        54.335 9  24770258.937 8 101430011.113 8     -1070.537 8        49.835 8  24770261.197 9  97203764.541 9     -1025.932 9        56.435 9
G20  23524690.427 9 123623031.248 9     -3651.087 9        54.723 9  23524691.962 8  96329615.143 8     -2845.005 8        50.223 8  23524694.302 9  92315884.753 9     -2726.464 9        56.823 9
G14  20963327.200 9 110163003.475 9       118.912 9        55.781 9  20963327.172 8  85841288.947 8        92.659 8        51.281 8  20963329.049 9  82264573.261 9        88.798 9        57.881 9
G23  24860946.182 9 130645110.197 9      3225.190 9        54.293 9  24860947.251 8 101801366.879 8      2513.136 8        49.793 8  24860949.486 9  97559647.247 9      2408.423 9        56.393 9
G05  21748691.650 9 114290116.903 9     -2436.648 9        55.468 9  21748691.275 8  89057217.736 8     -1898.688 8        50.968 8  21748693.848 9  85346507.245 9     -1819.576 9        57.568 9
G30  21862707.551 9 114889274.693 9     -2266.012 9        55.474 9  21862710.054 8  89524105.818 8     -1765.725 8        50.974 8  21862709.734 9  85793930.327 9     -1692.153 9        57.574 9
G15  21112603.670 9 110947455.445 9      2289.358 9        55.713 9  21112603.173 8  86452547.707 8      1783.916 8        51.213 8  21112605.608 9  82850364.968 9      1709.586 9        57.813 9
E05  23312902.109 9 122510106.474 9       355.535 9        57.977 9  23312902.109 9 122510106.474 9       355.535 9        57.977 9  23312904.634 9  91484817.248 9       265.497 9        57.837 9  23312904.634 9  91484817.248 9       265.497 9        57.837 9  23312904.455 9  93871378.422 9       272.423 9        57.837 9  23312904.455 9  93871378.422 9       272.423 9        57.837 9  23312904.543 9  92678097.837 9       268.960 9        60.847 9  23312904.543 9  92678097.837 9       268.960 9        60.847 9
E09  25220660.690 9 132535434.342 9     -2098.164 9        57.364 9  25220660.690 9 132535434.342 9     -2098.164 9        57.364 9  25220663.614 9  98971258.345 9     -1566.812 9        57.224 9  25220663.614 9  98971258.345 9     -1566.812 9        57.224 9  25220663.338 9 101553118.367 9     -1607.685 9        57.224 9  25220663.338 9 101553118.367 9     -1607.685 9        57.224 9  25220663.473 9 100262188.359 9     -1587.249 9        60.234 9  25220663.473 9 100262188.359 9     -1587.249 9        60.234 9
E13  28146774.489 9 147912251.652 9       319.774 9        56.288 9  28146774.489 9 147912251.652 9       319.774 9        56.288 9  28146778.173 9 110453941.001 9       238.793 9        56.148 9  28146778.173 9 110453941.001 9       238.793 9        56.148 9  28146777.774 9 113335349.766 9       245.022 9        56.148 9  28146777.774 9 113335349.766 9       245.022 9        56.148 9  28146777.969 9 111894645.389 9       241.907 9        59.159 9  28146777.969 9 111894645.389 9       241.907 9        59.159 9
E25  27069808.154 9 142252751.442 9      3128.871 9        56.724 9  27069808.154 9 142252751.442 9      3128.871 9        56.724 9  27069813.020 9 106227693.160 9      2336.496 9        56.585 9  27069813.020 9 106227693.160 9      2336.496 9        56.585 9  27069812.587 9 108998852.116 9      2397.448 9        56.585 9  27069812.587 9 108998852.116 9      2397.448 9        56.585 9  27069812.799 9 107613272.643 9      2366.972 9        59.595 9  27069812.799 9 107613272.643 9      2366.972 9        59.595 9
E31  24971449.791 9 131225825.420 9     -1544.241 9        57.421 9  24971449.791 9 131225825.420 9     -1544.241 9        57.421 9  24971452.971 9  97993306.531 9     -1153.167 9        57.281 9  24971452.971 9  97993306.531 9     -1153.167 9        57.281 9  24971452.724 9 100549654.656 9     -1183.250 9        57.281 9  24971452.724 9 100549654.656 9     -1183.250 9        57.281 9  24971452.845 9  99271480.597 9     -1168.209 9        60.292 9  24971452.845 9  99271480.597 9     -1168.209 9        60.292 9
E15  27830907.072 9 146252357.136 9     -1863.928 9        56.361 9  27830907.072 9 146252357.136 9     -1863.928 9        56.361 9  27830912.199 9 109214415.021 9     -1391.896 9        56.221 9  27830912.199 9 109214415.021 9     -1391.896 9        56.221 9  27830911.799 9 112063488.326 9     -1428.206 9        56.221 9  27830911.799 9 112063488.326 9     -1428.206 9        56.221 9  27830911.995 9 110638951.679 9     -1410.051 9        59.232 9  27830911.995 9 110638951.679 9     -1410.051 9        59.232 9
E03  26319101.916 9 138307779.443 9      2461.875 9        56.975 9  26319101.916 9 138307779.443 9      2461.875 9        56.975 9  26319105.415 9 103281776.572 9      1838.413 9        56.835 9  26319105.415 9 103281776.572 9      1838.413 9        56.835 9  26319105.118 9 105976084.981 9      1886.372 9        56.835 9  26319105.118 9 105976084.981 9      1886.372 9        56.835 9  26319105.264 9 104628930.780 9      1862.393 9        59.845 9  26319105.264 9 104628930.780 9      1862.393 9        59.845 9
E24  24081946.201 9 126551457.678 9      1238.512 9        57.797 9  24081946.201 9 126551457.678 9      1238.512 9        57.797 9  24081947.219 9  94502701.823 9       924.863 9        57.657 9  24081947.219 9  94502701.823 9       924.863 9        57.657 9  24081947.016 9  96967990.516 9       948.990 9        57.657 9  24081947.016 9  96967990.516 9       948.990 9        57.657 9  24081947.115 9  95735346.172 9       936.926 9        60.667 9  24081947.115 9  95735346.172 9       936.926 9        60.667 9
> 2023 01 08 10 00 29.0000000  0 20       0.000000000000
G08  25073421.037 9 131761666.294 9     -1493.645 9        54.230 9  25073425.143 8 102671419.602 8     -1163.879 8        49.730 8  25073424.854 9  98393437.124 9     -1115.384 9        56.330 9
G13  20025682.879 9 105235652.805 9       571.181 9        56.113 9  20025681.914 8  82001792.840 8       445.076 8        51.613 8  20025684.465 9  78585059.185 9       426.531 9        58.213 9
G17  24962666.235 9 131179613.650 9      2931.385 9        54.186 9  24962669.165 8 102217851.018 8      2284.199 8        49.686 8  24962672.486 9  97958777.874 9      2189.025 9        56.286 9
G24  24519983.660 9 128853331.788 9      3530.720 9        54.416 9  24519987.405 8 100405182.705 8      2751.212 8        49.916 8  24519987.587 9  96221628.456 9      2636.578 9        56.516 9
G07  24606369.642 9 129307284.444 9     -2973.133 9        54.355 9  24606371.216 8 100758898.748 8     -2316.730 8        49.855 8  24606374.230 9  96560616.486 9     -2220.200 9        56.455 9
G18  24770519.246 9 130169911.656 9     -1374.382 9        54.335 9  24770520.424 8 101431081.853 8     -1070.948 8        49.835 8  24770522.684 9  97204790.666 9     -1026.325 9        56.435 9
G20  23525385.220 9 123626682.398 9     -3651.233 9        54.723 9  23525386.755 8  96332460.192 8     -2845.120 8        50.223 8  23525389.096 9  92318611.258 9     -2726.573 9        56.823 9
G14  20963304.634 9 110162884.892 9       118.253 9        55.781 9  20963304.607 8  85841196.545 8        92.145 8        51.281 8  20963306.483 9  82264484.709 9        88.306 9        57.881 9
G23  24860332.478 9 130641885.165 9      3224.881 9        54.294 9  24860333.547 8 101798853.869 8      2512.896 8        49.794 8  24860335.782 9  97557238.946 9      2408.192 9        56.394 9
G05  21749155.379 9 114292553.806 9     -2437.166 9        55.468 9  21749155.003 8  89059116.621 8     -1899.091 8        50.968 8  21749157.576 9  85348327.010 9     -1819.963 9        57.568 9
G30  21863138.784 9 114891540.834 9     -2266.281 9        55.473 9  21863141.287 8  89525871.641 8     -1765.934 8        50.973 8  21863140.967 9  85795622.574 9     -1692.354 9        57.573 9
G15  21112168.061 9 110945166.303 9      2288.926 9        55.713 9  21112167.564 8  86450763.961 8      1783.579 8        51.213 8  21112169.998 9  82848655.544 9      1709.264 9        57.813 9
E05  23312834.483 9 122509751.097 9       355.218 9        57.977 9  23312834.483 9 122509751.097 9       355.218 9        57.977 9  23312837.008 9  91484551.869 9       265.260 9        57.837 9  23312837.008 9  91484551.869 9       265.260 9        57.837 9  23312836.829 9  93871106.120 9       272.180 9        57.837 9  23312836.829 9  93871106.120 9       272.180 9        57.837 9  23312836.917 9  92677828.997 9       268.720 9        60.847 9  23312836.917 9  92677828.997 9       268.720 9        60.847 9
E09  25221059.980 9 132537532.618 9     -2098.399 9        57.364 9  25221059.980 9 132537532.618 9     -2098.399 9        57.364 9  25221062.903 9  98972825.238 9     -1566.988 9        57.224 9  25221062.903 9  98972825.238 9     -1566.988 9        57.224 9  25221062.628 9 101554726.135 9     -1607.865 9        57.224 9  25221062.628 9 101554726.135 9     -1607.865 9        57.224 9  25221062.763 9 100263775.690 9     -1587.426 9        60.234 9  25221062.763 9 100263775.690 9     -1587.426 9        60.234 9
E13  28146713.685 9 147911932.125 9       319.280 9        56.288 9  28146713.685 9 147911932.125 9       319.280 9        56.288 9  28146717.369 9 110453702.394 9       238.423 9        56.148 9  28146717.369 9 110453702.394 9       238.423 9        56.148 9  28146716.970 9 113335104.934 9       244.643 9        56.148 9  28146716.970 9 113335104.934 9       244.643 9        56.148 9  28146717.165 9 111894403.669 9       241.533 9        59.159 9  28146717.165 9 111894403.669 9       241.533 9        59.159 9
E25  27069212.760 9 142249622.635 9      3128.752 9        56.725 9  27069212.760 9 142249622.635 9      3128.752 9        56.725 9  27069217.626 9 106225356.715 9      2336.407 9        56.585 9  27069217.626 9 106225356.715 9      2336.407 9        56.585 9  27069217.193 9 108996454.720 9      2397.357 9        56.585 9  27069217.193 9 108996454.720 9      2397.357 9        56.585 9  27069217.406 9 107610905.723 9      2366.882 9        59.595 9  27069217.406 9 107610905.723 9      2366.882 9        59.595 9
E31  24971743.686 9 131227369.844 9     -1544.615 9        57.421 9  24971743.686 9 131227369.844 9     -1544.615 9        57.421 9  24971746.866 9  97994459.835 9     -1153.447 9        57.281 9  24971746.866 9  97994459.835 9     -1153.447 9        57.281 9  24971746.618 9 100550838.046 9     -1183.536 9        57.281 9  24971746.618 9 100550838.046 9     -1183.536 9        57.281 9  24971746.740 9  99272648.943 9     -1168.492 9        60.292 9  24971746.740 9  99272648.943 9     -1168.492 9        60.292 9
E15  27831261.799 9 146254221.237 9     -1864.276 9        56.361 9  27831261.799 9 146254221.237 9     -1864.276 9        56.361 9  27831266.926 9 109215807.043 9     -1392.155 9        56.221 9  27831266.926 9 109215807.043 9     -1392.155 9        56.221 9  27831266.527 9 112064916.662 9     -1428.472 9        56.221 9  27831266.527 9 112064916.662 9     -1428.472 9        56.221 9  27831266.723 9 110640361.858 9     -1410.313 9        59.231 9  27831266.723 9 110640361.858 9     -1410.313 9        59.231 9
E03  26318633.445 9 138305317.619 9      2461.776 9        56.975 9  26318633.445 9 138305317.619 9      2461.776 9        56.975 9  26318636.945 9 103279938.197 9      1838.340 9        56.835 9  26318636.945 9 103279938.197 9      1838.340 9        56.835 9  26318636.648 9 105974198.648 9      1886.296 9        56.835 9  26318636.648 9 105974198.648 9      1886.296 9        56.835 9  26318636.793 9 104627068.426 9      1862.318 9        59.845 9  26318636.793 9 104627068.426 9      1862.318 9        59.845 9
E24  24081710.561 9 126550219.384 9      1238.078 9        57.797 9  24081710.561 9 126550219.384 9      1238.078 9        57.797 9  24081711.579 9  94501777.123 9       924.539 9        57.657 9  24081711.579 9  94501777.123 9       924.539 9        57.657 9  24081711.376 9  96967041.693 9       948.658 9        57.657 9  24081711.376 9  96967041.693 9       948.658 9        57.657 9  24081711.476 9  95734409.411 9       936.598 9        60.667 9  24081711.476 9  95734409.411 9       936.598 9        60.667 9
> 2023 01 08 10 00 30.0000000  0 20       0.000000000000
G08  25073705.323 9 131763160.228 9     -1494.222 9        54.230 9  25073709.429 8 102672583.706 8     -1164.329 8        49.730 8  25073709.140 9  98394552.724 9     -1115.815 9        56.330 9
G13  20025574.232 9 105235081.861 9       570.707 9        56.113 9  20025573.267 8  82001347.949 8       444.706 8        51.613 8  20025575.818 9  78584632.830 9       426.177 9        58.213 9
G17  24962108.416 9 131176682.304 9      2931.338 9        54.187 9  24962111.345 8 102215566.856 8      2284.163 8        49.687 8  24962114.665 9  97956588.886 9      2188.990 9        56.287 9
G24  24519311.795 9 128849801.122 9      3530.615 9        54.416 9  24519315.540 8 100402431.537 8      2751.130 8        49.916 8  24519315.722 9  96218991.921 9      2636.500 9        56.516 9
G07  24606935.415 9 129310257.588 9     -2973.182 9        54.355 9  24606936.989 8 100761215.481 8     -2316.768 8        49.855 8  24606940.003 9  96562836.687 9     -2220.237 9        56.455 9
G18  24770780.832 9 130171286.300 9     -1374.908 9        54.335 9  24770782.011 8 101432153.003 8     -1071.358 8        49.835 8  24770784.271 9  97205817.185 9     -1026.718 9        56.435 9
G20  23526080.041 9 123630333.694 9     -3651.380 9        54.723 9  23526081.576 8  96335305.355 8     -2845.234 8        50.223 8  23526083.917 9  92321337.872 9     -2726.683 9        56.823 9
G14  20963282.194 9 110162766.968 9       117.594 9        55.781 9  20963282.167 8  85841104.656 8        91.632 8        51.281 8  20963284.043 9  82264396.648 9        87.814 9        57.881 9
G23  24859718.833 9 130638660.443 9      3224.572 9        54.294 9  24859719.901 8 101796341.099 8      2512.655 8        49.794 8  24859722.136 9  97554830.875 9      2407.961 9        56.394 9
G05  21749619.205 9 114294991.228 9     -2437.683 9        55.468 9  21749618.830 8  89061015.909 8     -1899.494 8        50.968 8  21749621.403 9  85350147.161 9     -1820.349 9        57.568 9
G30  21863570.068 9 114893807.243 9     -2266.549 9        55.473 9  21863572.572 8  89527637.673 8     -1766.143 8        50.973 8  21863572.252 9  85797315.021 9     -1692.554 9        57.573 9
G15  21111732.533 9 110942877.593 9      2288.495 9        55.713 9  21111732.036 8  86448980.550 8      1783.243 8        51.213 8  21111734.471 9  82846946.443 9      1708.941 9        57.813 9
E05  23312766.918 9 122509396.037 9       354.901 9        57.977 9  23312766.918 9 122509396.037 9       354.901 9        57.977 9  23312769.443 9  91484286.727 9       265.023 9        57.837 9  23312769.443 9  91484286.727 9       265.023 9        57.837 9  23312769.263 9  93870834.061 9       271.937 9        57.837 9  23312769.263 9  93870834.061 9       271.937 9        57.837 9  23312769.351 9  92677560.396 9       268.480 9        60.847 9  23312769.351 9  92677560.396 9       268.480 9        60.847 9
E09  25221459.314 9 132539631.129 9     -2098.634 9        57.363 9  25221459.314 9 132539631.129 9     -2098.634 9        57.363 9  25221462.238 9  98974392.307 9     -1567.163 9        57.223 9  25221462.238 9  98974392.307 9     -1567.163 9        57.223 9  25221461.963 9 101556334.084 9     -1608.045 9        57.223 9  25221461.963 9 101556334.084 9     -1608.045 9        57.223 9  25221462.098 9 100265363.199 9     -1587.604 9        60.234 9  25221462.098 9 100265363.199 9     -1587.604 9        60.234 9
E13  28146652.975 9 147911613.093 9       318.785 9        56.288 9  28146652.975 9 147911613.093 9       318.785 9        56.288 9  28146656.659 9 110453464.156 9       238.054 9        56.148 9  28146656.659 9 110453464.156 9       238.054 9        56.148 9  28146656.260 9 113334860.481 9       244.264 9        56.148 9  28146656.260 9 113334860.481 9       244.264 9        56.148 9  28146656.455 9 111894162.324 9       241.159 9        59.159 9  28146656.455 9 111894162.324 9       241.159 9        59.159 9
E25  27068617.390 9 142246493.948 9      3128.633 9        56.725 9  27068617.390 9 142246493.948 9      3128.633 9        56.725 9  27068622.255 9 106223020.360 9      2336.318 9        56.585 9  27068622.255 9 106223020.360 9      2336.318 9        56.585 9  27068621.822 9 108994057.416 9      2397.266 9        56.585 9  27068621.822 9 108994057.416 9      2397.266 9        56.585 9  27068622.035 9 107608538.893 9      2366.792 9        59.595 9  27068622.035 9 107608538.893 9      2366.792 9        59.595 9
E31  24972037.651 9 131228914.642 9     -1544.988 9        57.421 9  24972037.651 9 131228914.642 9     -1544.988 9        57.421 9  24972040.832 9  97995613.417 9     -1153.726 9        57.281 9  24972040.832 9  97995613.417 9     -1153.726 9        57.281 9  24972040.584 9 100552021.721 9     -1183.823 9        57.281 9  24972040.584 9 100552021.721 9     -1183.823 9        57.281 9  24972040.706 9  99273817.572 9     -1168.774 9        60.292 9  24972040.706 9  99273817.572 9     -1168.774 9        60.292 9
E15  27831616.592 9 146256085.685 9     -1864.623 9        56.361 9  27831616.592 9 146256085.685 9     -1864.623 9        56.361 9  27831621.720 9 109217199.325 9     -1392.414 9        56.221 9  27831621.720 9 109217199.325 9     -1392.414 9        56.221 9  27831621.320 9 112066345.264 9     -1428.738 9        56.221 9  27831621.320 9 112066345.264 9     -1428.738 9        56.221 9  27831621.516 9 110641772.299 9     -1410.576 9        59.231 9  27831621.516 9 110641772.299 9     -1410.576 9        59.231 9
E03  26318164.994 9 138302855.893 9      2461.677 9        56.975 9  26318164.994 9 138302855.893 9      2461.677 9        56.975 9  26318168.493 9 103278099.896 9      1838.266 9        56.835 9  26318168.493 9 103278099.896 9      1838.266 9        56.835 9  26318168.197 9 105972312.391 9      1886.220 9        56.835 9  26318168.197 9 105972312.391 9      1886.220 9        56.835 9  26318168.342 9 104625206.147 9      1862.243 9        59.845 9  26318168.342 9 104625206.147 9      1862.243 9        59.845 9
E24  24081475.004 9 126548981.524 9      1237.644 9        57.797 9  24081475.004 9 126548981.524 9      1237.644 9        57.797 9  24081476.022 9  94500852.747 9       924.215 9        57.657 9  24081476.022 9  94500852.747 9       924.215 9        57.657 9  24081475.819 9  96966093.203 9       948.325 9        57.657 9  24081475.819 9  96966093.203 9       948.325 9        57.657 9  24081475.919 9  95733472.978 9       936.270 9        60.667 9  24081475.919 9  95733472.978 9       936.270 9        60.667 9
> 2023 01 08 10 00 31.0000000  0 20       0.000000000000
G08  25073989.718 9 131764654.739 9     -1494.799 9        54.230 9  25073993.825 8 102673748.261 8     -1164.779 8        49.730 8  25073993.535 9  98395668.755 9     -1116.246 9        56.330 9
G13  20025465.675 9 105234511.391 9       570.232 9        56.113 9  20025464.711 8  82000903.426 8       444.337 8        51.613 8  20025467.261 9  78584206.830 9       425.823 9        58.213 9
G17  24961550.606 9 131173751.005 9      2931.292 9        54.187 9  24961553.534 8 102213282.731 8      2284.127 8        49.687 8  24961556.854 9  97954399.933 9      2188.956 9        56.287 9
G24  24518639.951 9 128846270.560 9      3530.510 9        54.416 9  24518643.695 8 100399680.451 8      2751.048 8        49.916 8  24518643.878 9  96216355.464 9      2636.421 9        56.516 9
G07  24607501.197 9 129313230.781 9     -2973.232 9        54.355 9  24607502.772 8 100763532.252 8     -2316.807 8        49.855 8  24607505.786 9  96565056.925 9     -2220.274 9        56.455 9
G18  24771042.519 9 130172661.470 9     -1375.435 9        54.335 9  24771043.697 8 101433224.564 8     -1071.768 8        49.835 8  24771045.957 9  97206844.097 9     -1027.111 9        56.435 9
G20  23526774.889 9 123633985.137 9     -3651.526 9        54.722 9  23526776.425 8  96338150.632 8     -2845.348 8        50.222 8  23526778.766 9  92324064.596 9     -2726.792 9        56.822 9
G14  20963259.879 9 110162649.703 9       116.935 9        55.781 9  20963259.852 8  85841013.281 8        91.118 8        51.281 8  20963261.728 9  82264309.080 9        87.322 9        57.881 9
G23  24859105.246 9 130635436.030 9      3224.262 9        54.294 9  24859106.314 8 101793828.571 8      2512.414 8        49.794 8  24859108.549 9  97552423.036 9      2407.730 9        56.394 9
G05  21750083.130 9 114297429.167 9     -2438.200 9        55.468 9  21750082.756 8  89062915.600 8     -1899.898 8        50.968 8  21750085.329 9  85351967.698 9     -1820.735 9        57.568 9
G30  21864001.403 9 114896073.920 9     -2266.817 9        55.473 9  21864003.907 8  89529403.914 8     -1766.352 8        50.973 8  21864003.587 9  85799007.668 9     -1692.754 9        57.573 9
G15  21111297.088 9 110940589.314 9      2288.063 9        55.713 9  21111296.591 8  86447197.477 8      1782.907 8        51.213 8  21111299.025 9  82845237.664 9      1708.619 9        57.813 9
E05  23312699.413 9 122509041.295 9       354.583 9        57.977 9  23312699.413 9 122509041.295 9       354.583 9        57.977 9  23312701.938 9  91484021.821 9       264.786 9        57.837 9  23312701.938 9  91484021.821 9       264.786 9        57.837 9  23312701.758 9  93870562.245 9       271.694 9        57.837 9  23312701.758 9  93870562.245 9       271.694 9        57.837 9  23312701.846 9  92677292.035 9       268.240 9        60.847 9  23312701.846 9  92677292.035 9       268.240 9        60.847 9
E09  25221858.693 9 132541729.875 9     -2098.869 9        57.363 9  25221858.693 9 132541729.875 9     -2098.869 9        57.363 9  25221861.617 9  98975959.551 9     -1567.338 9        57.223 9  25221861.617 9  98975959.551 9     -1567.338 9        57.223 9  25221861.342 9 101557942.213 9     -1608.225 9        57.223 9  25221861.342 9 101557942.213 9     -1608.225 9        57.223 9  25221861.477 9 100266950.885 9     -1587.782 9        60.234 9  25221861.477 9 100266950.885 9     -1587.782 9        60.234 9
E13  28146592.359 9 147911294.556 9       318.290 9        56.288 9  28146592.359 9 147911294.556 9       318.290 9        56.288 9  28146596.043 9 110453226.288 9       237.685 9        56.148 9  28146596.043 9 110453226.288 9       237.685 9        56.148 9  28146595.644 9 113334616.407 9       243.885 9        56.148 9  28146595.644 9 113334616.407 9       243.885 9        56.148 9  28146595.840 9 111893921.353 9       240.785 9        59.159 9  28146595.840 9 111893921.353 9       240.785 9        59.159 9
E25  27068022.042 9 142243365.380 9      3128.513 9        56.725 9  27068022.042 9 142243365.380 9      3128.513 9        56.725 9  27068026.907 9 106220684.093 9      2336.229 9        56.585 9  27068026.907 9 106220684.093 9      2336.229 9        56.585 9  27068026.474 9 108991660.203 9      2397.174 9        56.585 9  27068026.474 9 108991660.203 9      2397.174 9        56.585 9  27068026.686 9 107606172.154 9      2366.702 9        59.595 9  27068026.686 9 107606172.154 9      2366.702 9        59.595 9
E31  24972331.688 9 131230459.814 9     -1545.362 9        57.421 9  24972331.688 9 131230459.814 9     -1545.362 9        57.421 9  24972334.869 9  97996767.278 9     -1154.005 9        57.281 9  24972334.869 9  97996767.278 9     -1154.005 9        57.281 9  24972334.621 9 100553205.684 9     -1184.109 9        57.281 9  24972334.621 9 100553205.684 9     -1184.109 9        57.281 9  24972334.743 9  99274986.484 9     -1169.057 9        60.291 9  24972334.743 9  99274986.484 9     -1169.057 9        60.291 9
E15  27831971.452 9 146257950.479 9     -1864.970 9        56.361 9  27831971.452 9 146257950.479 9     -1864.970 9        56.361 9  27831976.579 9 109218591.865 9     -1392.673 9        56.221 9  27831976.579 9 109218591.865 9     -1392.673 9        56.221 9  27831976.179 9 112067774.132 9     -1429.003 9        56.221 9  27831976.179 9 112067774.132 9     -1429.003 9        56.221 9  27831976.375 9 110643183.004 9     -1410.838 9        59.231 9  27831976.375 9 110643183.004 9     -1410.838 9        59.231 9
E03  26317696.562 9 138300394.266 9      2461.578 9        56.975 9  26317696.562 9 138300394.266 9      2461.578 9        56.975 9  26317700.060 9 103276261.669 9      1838.192 9        56.835 9  26317700.060 9 103276261.669 9      1838.192 9        56.835 9  26317699.764 9 105970426.210 9      1886.145 9        56.835 9  26317699.764 9 105970426.210 9      1886.145 9        56.835 9  26317699.909 9 104623343.943 9      1862.168 9        59.845 9  26317699.909 9 104623343.943 9      1862.168 9        59.845 9
E24  24081239.530 9 126547744.097 9      1237.211 9        57.797 9  24081239.530 9 126547744.097 9      1237.211 9        57.797 9  24081240.548 9  94499928.695 9       923.891 9        57.657 9  24081240.548 9  94499928.695 9       923.891 9        57.657 9  24081240.344 9  96965145.045 9       947.993 9        57.657 9  24081240.344 9  96965145.045 9       947.993 9        57.657 9  24081240.444 9  95732536.873 9       935.942 9        60.667 9  24081240.444 9  95732536.873 9       935.942 9        60.667 9
> 2023 01 08 10 00 32.0000000  0 20       0.000000000000
G08  25074274.224 9 131766149.826 9     -1495.376 9        54.230 9  25074278.330 8 102674913.264 8     -1165.228 8        49.730 8  25074278.041 9  98396785.217 9     -1116.677 9        56.330 9
G13  20025357.209 9 105233941.396 9       569.758 9        56.113 9  20025356.244 8  82000459.274 8       443.967 8        51.613 8  20025358.795 9  78583781.183 9       425.469 9        58.213 9
G17  24960992.805 9 131170819.753 9      2931.245 9        54.187 9  24960995.732 8 102210998.641 8      2284.090 8        49.687 8  24960999.052 9  97952211.015 9      2188.921 9        56.287 9
G24  24517968.127 9 128842740.104 9      3530.405 9        54.416 9  24517971.871 8 100396929.448 8      2750.966 8        49.916 8  24517972.053 9  96213719.085 9      2636.343 9        56.516 9
G07  24608066.988 9 129316204.023 9     -2973.281 9        54.354 9  24608068.564 8 100765849.061 8     -2316.845 8        49.854 8  24608071.578 9  96567277.201 9     -2220.310 9        56.454 9
G18  24771304.306 9 130174037.166 9     -1375.961 9        54.335 9  24771305.484 8 101434296.534 8     -1072.178 8        49.835 8  24771307.744 9  97207871.402 9     -1027.504 9        56.435 9
G20  23527469.766 9 123637636.726 9     -3651.672 9        54.722 9  23527471.302 8  96340996.023 8     -2845.461 8        50.222 8  23527473.643 9  92326791.428 9     -2726.901 9        56.822 9
G14  20963237.690 9 110162533.097 9       116.276 9        55.781 9  20963237.663 8  85840922.419 8        90.605 8        51.281 8  20963239.539 9  82264222.004 9        86.830 9        57.881 9
G23  24858491.719 9 130632211.926 9      3223.953 9        54.294 9  24858492.786 8 101791316.284 8      2512.172 8        49.794 8  24858495.021 9  97550015.428 9      2407.499 9        56.394 9
G05  21750547.154 9 114299867.623 9     -2438.718 9        55.468 9  21750546.780 8  89064815.695 8     -1900.301 8        50.968 8  21750549.353 9  85353788.622 9     -1821.122 9        57.568 9
G30  21864432.789 9 114898340.866 9     -2267.085 9        55.473 9  21864435.293 8  89531170.364 8     -1766.561 8        50.973 8  21864434.974 9  85800700.516 9     -1692.954 9        57.573 9
G15  21110861.725 9 110938301.467 9      2287.632 9        55.713 9  21110861.227 8  86445414.739 8      1782.570 8        51.213 8  21110863.662 9  82843529.207 9      1708.297 9        57.813 9
E05  23312631.968 9 122508686.869 9       354.266 9        57.977 9  23312631.968 9 122508686.869 9       354.266 9        57.977 9  23312634.493 9  91483757.153 9       264.549 9        57.837 9  23312634.493 9  91483757.153 9       264.549 9        57.837 9  23312634.313 9  93870290.672 9       271.451 9        57.837 9  23312634.313 9  93870290.672 9       271.451 9        57.837 9  23312634.401 9  92677023.915 9       268.000 9        60.847 9  23312634.401 9  92677023.915 9       268.000 9        60.847 9
E09  25222258.117 9 132543828.856 9     -2099.104 9        57.363 9  25222258.117 9 132543828.856 9     -2099.104 9        57.363 9  25222261.041 9  98977526.970 9     -1567.514 9        57.223 9  25222261.041 9  98977526.970 9     -1567.514 9        57.223 9  25222260.766 9 101559550.522 9     -1608.405 9        57.223 9  25222260.766 9 101559550.522 9     -1608.405 9        57.223 9  25222260.901 9 100268538.750 9     -1587.960 9        60.234 9  25222260.901 9 100268538.750 9     -1587.960 9        60.234 9
E13  28146531.837 9 147910976.514 9       317.796 9        56.288 9  28146531.837 9 147910976.514 9       317.796 9        56.288 9  28146535.522 9 110452988.789 9       237.315 9        56.148 9  28146535.522 9 110452988.789 9       237.315 9        56.148 9  28146535.122 9 113334372.712 9       243.506 9        56.148 9  28146535.122 9 113334372.712 9       243.506 9        56.148 9  28146535.318 9 111893680.756 9       240.411 9        59.159 9  28146535.318 9 111893680.756 9       240.411 9        59.159 9
E25  27067426.717 9 142240236.931 9      3128.394 9        56.725 9  27067426.717 9 142240236.931 9      3128.394 9        56.725 9  27067431.581 9 106218347.916 9      2336.140 9        56.585 9  27067431.581 9 106218347.916 9      2336.140 9        56.585 9  27067431.149 9 108989263.082 9      2397.083 9        56.585 9  27067431.149 9 108989263.082 9      2397.083 9        56.585 9  27067431.361 9 107603805.504 9      2366.612 9        59.596 9  27067431.361 9 107603805.504 9      2366.612 9        59.596 9
E31  24972625.796 9 131232005.360 9     -1545.736 9        57.421 9  24972625.796 9 131232005.360 9     -1545.736 9        57.421 9  24972628.978 9  97997921.419 9     -1154.284 9        57.281 9  24972628.978 9  97997921.419 9     -1154.284 9        57.281 9  24972628.730 9 100554389.933 9     -1184.396 9        57.281 9  24972628.730 9 100554389.933 9     -1184.396 9        57.281 9  24972628.851 9  99276155.679 9     -1169.340 9        60.291 9  24972628.851 9  99276155.679 9     -1169.340 9        60.291 9
E15  27832326.377 9 146259815.621 9     -1865.316 9        56.361 9  27832326.377 9 146259815.621 9     -1865.316 9        56.361 9  27832331.505 9 109219984.665 9     -1392.932 9        56.221 9  27832331.505 9 109219984.665 9     -1392.932 9        56.221 9  27832331.105 9 112069203.265 9     -1429.269 9        56.221 9  27832331.105 9 112069203.265 9     -1429.269 9        56.221 9  27832331.301 9 110644593.970 9     -1411.101 9        59.231 9  27832331.301 9 110644593.970 9     -1411.101 9        59.231 9
E03  26317228.148 9 138297932.738 9      2461.479 9        56.975 9  26317228.148 9 138297932.738 9      2461.479 9        56.975 9  26317231.647 9 103274423.515 9      1838.118 9        56.835 9  26317231.647 9 103274423.515 9      1838.118 9        56.835 9  26317231.350 9 105968540.105 9      1886.069 9        56.835 9  26317231.350 9 105968540.105 9      1886.069 9        56.835 9  26317231.496 9 104621481.814 9      1862.093 9        59.846 9  26317231.496 9 104621481.814 9      1862.093 9        59.846 9
E24  24081004.138 9 126546507.104 9      1236.777 9        57.797 9  24081004.138 9 126546507.104 9      1236.777 9        57.797 9  24081005.156 9  94499004.967 9       923.567 9        57.657 9  24081005.156 9  94499004.967 9       923.567 9        57.657 9  24081004.952 9  96964197.220 9       947.660 9        57.657 9  24081004.952 9  96964197.220 9       947.660 9        57.657 9  24081005.052 9  95731601.096 9       935.614 9        60.667 9  24081005.052 9  95731601.096 9       935.614 9        60.667 9
> 2023 01 08 10 00 33.0000000  0 20       0.000000000000
G08  25074558.840 9 131767645.491 9     -1495.953 9        54.230 9  25074562.946 8 102676078.718 8     -1165.678 8        49.730 8  25074562.656 9  98397902.110 9     -1117.108 9        56.330 9
G13  20025248.833 9 105233371.874 9       569.284 9        56.113 9  20025247.868 8  82000015.491 8       443.598 8        51.613 8  20025250.418 9  78583355.892 9       425.114 9        58.213 9
G17  24960435.012 9 131167888.547 9      2931.198 9        54.187 9  24960437.939 8 102208714.588 8      2284.054 8        49.687 8  24960441.258 9  97950022.132 9      2188.886 9        56.287 9
G24  24517296.322 9 128839209.752 9      3530.300 9        54.417 9  24517300.066 8 100394178.525 8      2750.884 8        49.917 8  24517300.248 9  96211082.785 9      2636.264 9        56.517 9
G07  24608632.789 9 129319177.315 9     -2973.330 9        54.354 9  24608634.365 8 100768165.909 8     -2316.884 8        49.854 8  24608637.379 9  96569497.513 9     -2220.347 9        56.454 9
G18  24771566.192 9 130175413.389 9     -1376.487 9        54.335 9  24771567.372 8 101435368.914 8     -1072.588 8        49.835 8  24771569.632 9  97208899.100 9     -1027.897 9        56.435 9
G20  23528164.670 9 123641288.461 9     -3651.818 9        54.722 9  23528166.207 8  96343841.529 8     -2845.575 8        50.222 8  23528168.548 9  92329518.370 9     -2727.010 9        56.822 9
G14  20963215.626 9 110162417.150 9       115.618 9        55.781 9  20963215.599 8  85840832.070 8        90.092 8        51.281 8  20963217.475 9  82264135.420 9        86.338 9        57.881 9
G23  24857878.250 9 130628988.132 9      3223.643 9        54.294 9  24857879.317 8 101788804.238 8      2511.931 8        49.794 8  24857881.552 9  97547608.051 9      2407.268 9        56.394 9
G05  21751011.276 9 114302306.596 9     -2439.235 9        55.467 9  21751010.902 8  89066716.193 8     -1900.704 8        50.967 8  21751013.475 9  85355609.932 9     -1821.508 9        57.567 9
G30  21864864.226 9 114900608.079 9     -2267.353 9        55.473 9  21864866.731 8  89532937.023 8     -1766.769 8        50.973 8  21864866.411 9  85802393.564 9     -1693.154 9        57.573 9
G15  21110426.444 9 110936014.052 9      2287.200 9        55.714 9  21110425.946 8  86443632.338 8      1782.234 8        51.214 8  21110428.381 9  82841821.073 9      1707.974 9        57.814 9
E05  23312564.583 9 122508332.761 9       353.949 9        57.977 9  23312564.583 9 122508332.761 9       353.949 9        57.977 9  23312567.109 9  91483492.721 9       264.312 9        57.837 9  23312567.109 9  91483492.721 9       264.312 9        57.837 9  23312566.929 9  93870019.342 9       271.207 9        57.837 9  23312566.929 9  93870019.342 9       271.207 9        57.837 9  23312567.017 9  92676756.034 9       267.760 9        60.847 9  23312567.017 9  92676756.034 9       267.760 9        60.847 9
E09  25222657.585 9 132545928.072 9     -2099.339 9        57.363 9  25222657.585 9 132545928.072 9     -2099.339 9        57.363 9  25222660.510 9  98979094.565 9     -1567.689 9        57.223 9  25222660.510 9  98979094.565 9     -1567.689 9        57.223 9  25222660.234 9 101561159.010 9     -1608.585 9        57.223 9  25222660.234 9 101561159.010 9     -1608.585 9        57.223 9  25222660.369 9 100270126.791 9     -1588.137 9        60.233 9  25222660.369 9 100270126.791 9     -1588.137 9        60.233 9
E13  28146471.410 9 147910658.966 9       317.301 9        56.288 9  28146471.410 9 147910658.966 9       317.301 9        56.288 9  28146475.094 9 110452751.659 9       236.946 9        56.148 9  28146475.094 9 110452751.659 9       236.946 9        56.148 9  28146474.695 9 113334129.397 9       243.127 9        56.148 9  28146474.695 9 113334129.397 9       243.127 9        56.148 9  28146474.891 9 111893440.533 9       240.036 9        59.159 9  28146474.891 9 111893440.533 9       240.036 9        59.159 9
E25  27066831.414 9 142237108.602 9      3128.275 9        56.725 9  27066831.414 9 142237108.602 9      3128.275 9        56.725 9  27066836.278 9 106216011.827 9      2336.051 9        56.586 9  27066836.278 9 106216011.827 9      2336.051 9        56.586 9  27066835.846 9 108986866.052 9      2396.991 9        56.586 9  27066835.846 9 108986866.052 9      2396.991 9        56.586 9  27066836.058 9 107601438.945 9      2366.521 9        59.596 9  27066836.058 9 107601438.945 9      2366.521 9        59.596 9
E31  24972919.975 9 131233551.280 9     -1546.110 9        57.421 9  24972919.975 9 131233551.280 9     -1546.110 9        57.421 9  24972923.157 9  97999075.839 9     -1154.563 9        57.281 9  24972923.157 9  97999075.839 9     -1154.563 9        57.281 9  24972922.909 9 100555574.468 9     -1184.682 9        57.281 9  24972922.909 9 100555574.468 9     -1184.682 9        57.281 9  24972923.031 9  99277325.156 9     -1169.623 9        60.291 9  24972923.031 9  99277325.156 9     -1169.623 9        60.291 9
E15  27832681.368 9 146261681.109 9     -1865.663 9        56.361 9  27832681.368 9 146261681.109 9     -1865.663 9        56.361 9  27832686.496 9 109221377.723 9     -1393.191 9        56.221 9  27832686.496 9 109221377.723 9     -1393.191 9        56.221 9  27832686.096 9 112070632.665 9     -1429.535 9        56.221 9  27832686.096 9 112070632.665 9     -1429.535 9        56.221 9  27832686.292 9 110646005.199 9     -1411.363 9        59.231 9  27832686.292 9 110646005.199 9     -1411.363 9        59.231 9
E03  26316759.753 9 138295471.309 9      2461.380 9        56.975 9  26316759.753 9 138295471.309 9      2461.380 9        56.975 9  26316763.252 9 103272585.436 9      1838.044 9        56.835 9  26316763.252 9 103272585.436 9      1838.044 9        56.835 9  26316762.955 9 105966654.076 9      1885.993 9        56.835 9  26316762.955 9 105966654.076 9      1885.993 9        56.835 9  26316763.101 9 104619619.760 9      1862.018 9        59.846 9  26316763.101 9 104619619.760 9      1862.018 9        59.846 9
E24  24080768.828 9 126545270.545 9      1236.343 9        57.797 9  24080768.828 9 126545270.545 9      1236.343 9        57.797 9  24080769.846 9  94498081.562 9       923.243 9        57.657 9  24080769.846 9  94498081.562 9       923.243 9        57.657 9  24080769.643 9  96963249.727 9       947.328 9        57.657 9  24080769.643 9  96963249.727 9       947.328 9        57.657 9  24080769.742 9  95730665.647 9       935.286 9        60.667 9  24080769.742 9  95730665.647 9       935.286 9        60.667 9
> 2023 01 08 10 00 34.0000000  0 20       0.000000000000
G08  25074843.565 9 131769141.733 9     -1496.530 9        54.230 9  25074847.671 8 102677244.620 8     -1166.127 8        49.730 8  25074847.382 9  98399019.433 9     -1117.539 9        56.330 9
G13  20025140.547 9 105232802.828 9       568.809 9        56.113 9  20025139.582 8  81999572.078 8       443.228 8        51.613 8  20025142.132 9  78582930.954 9       424.760 9        58.213 9
G17  24959877.229 9 131164957.389 9      2931.151 9        54.187 9  24959880.154 8 102206430.572 8      2284.017 8        49.687 8  24959883.474 9  97947833.284 9      2188.851 9        56.287 9
G24  24516624.538 9 128835679.505 9      3530.195 9        54.417 9  24516628.281 8 100391427.685 8      2750.803 8        49.917 8  24516628.463 9  96208446.563 9      2636.186 9        56.517 9
G07  24609198.599 9 129322150.656 9     -2973.380 9        54.354 9  24609200.176 8 100770482.795 8     -2316.922 8        49.854 8  24609203.190 9  96571717.861 9     -2220.384 9        56.454 9
G18  24771828.180 9 130176790.137 9     -1377.013 9        54.334 9  24771829.359 8 101436441.705 8     -1072.998 8        49.834 8  24771831.619 9  97209927.190 9     -1028.290 9        56.434 9
G20  23528859.602 9 123644940.342 9     -3651.964 9        54.722 9  23528861.140 8  96346687.147 8     -2845.689 8        50.222 8  23528863.481 9  92332245.421 9     -2727.119 9        56.822 9
G14  20963193.687 9 110162301.861 9       114.959 9        55.781 9  20963193.660 8  85840742.235 8        89.578 8        51.281 8  20963195.537 9  82264049.328 9        85.846 9        57.881 9
G23  24857264.840 9 130625764.647 9      3223.334 9        54.295 9  24857265.907 8 101786292.433 8      2511.690 8        49.795 8  24857268.142 9  97545200.905 9      2407.036 9        56.395 9
G05  21751475.496 9 114304746.086 9     -2439.752 9        55.467 9  21751475.122 8  89068617.093 8     -1901.107 8        50.967 8  21751477.696 9  85357431.628 9     -1821.894 9        57.567 9
G30  21865295.714 9 114902875.561 9     -2267.621 9        55.473 9  21865298.219 8  89534703.891 8     -1766.978 8        50.973 8  21865297.899 9  85804086.812 9     -1693.354 9        57.573 9
G15  21109991.245 9 110933727.068 9      2286.768 9        55.714 9  21109990.747 8  86441850.273 8      1781.898 8        51.214 8  21109993.182 9  82840113.261 9      1707.652 9        57.814 9
E05  23312497.259 9 122507978.970 9       353.632 9        57.977 9  23312497.259 9 122507978.970 9       353.632 9        57.977 9  23312499.785 9  91483228.527 9       264.075 9        57.837 9  23312499.785 9  91483228.527 9       264.075 9        57.837 9  23312499.605 9  93869748.256 9       270.964 9        57.837 9  23312499.605 9  93869748.256 9       270.964 9        57.837 9  23312499.693 9  92676488.394 9       267.520 9        60.847 9  23312499.693 9  92676488.394 9       267.520 9        60.847 9
E09  25223057.098 9 132548027.522 9     -2099.574 9        57.363 9  25223057.098 9 132548027.522 9     -2099.574 9        57.363 9  25223060.023 9  98980662.335 9     -1567.865 9        57.223 9  25223060.023 9  98980662.335 9     -1567.865 9        57.223 9  25223059.747 9 101562767.679 9     -1608.765 9        57.223 9  25223059.747 9 101562767.679 9     -1608.765 9        57.223 9  25223059.882 9 100271715.011 9     -1588.315 9        60.233 9  25223059.882 9 100271715.011 9     -1588.315 9        60.233 9
E13  28146411.077 9 147910341.913 9       316.806 9        56.288 9  28146411.077 9 147910341.913 9       316.806 9        56.288 9  28146414.761 9 110452514.899 9       236.576 9        56.148 9  28146414.761 9 110452514.899 9       236.576 9        56.148 9  28146414.361 9 113333886.460 9       242.748 9        56.148 9  28146414.361 9 113333886.460 9       242.748 9        56.148 9  28146414.557 9 111893200.684 9       239.662 9        59.159 9  28146414.557 9 111893200.684 9       239.662 9        59.159 9
E25  27066236.135 9 142233980.392 9      3128.155 9        56.726 9  27066236.135 9 142233980.392 9      3128.155 9        56.726 9  27066240.998 9 106213675.828 9      2335.962 9        56.586 9  27066240.998 9 106213675.828 9      2335.962 9        56.586 9  27066240.566 9 108984469.113 9      2396.900 9        56.586 9  27066240.566 9 108984469.113 9      2396.900 9        56.586 9  27066240.778 9 107599072.476 9      2366.431 9        59.596 9  27066240.778 9 107599072.476 9      2366.431 9        59.596 9
E31  24973214.226 9 131235097.573 9     -1546.484 9        57.421 9  24973214.226 9 131235097.573 9     -1546.484 9        57.421 9  24973217.407 9  98000230.538 9     -1154.842 9        57.281 9  24973217.407 9  98000230.538 9     -1154.842 9        57.281 9  24973217.159 9 100556759.289 9     -1184.969 9        57.281 9  24973217.159 9 100556759.289 9     -1184.969 9        57.281 9  24973217.281 9  99278494.917 9     -1169.906 9        60.291 9  24973217.281 9  99278494.917 9     -1169.906 9        60.291 9
E15  27833036.425 9 146263546.944 9     -1866.010 9        56.360 9  27833036.425 9 146263546.944 9     -1866.010 9        56.360 9  27833041.554 9 109222771.041 9     -1393.450 9        56.221 9  27833041.554 9 109222771.041 9     -1393.450 9        56.221 9  27833041.154 9 112072062.330 9     -1429.801 9        56.221 9  27833041.154 9 112072062.330 9     -1429.801 9        56.221 9  27833041.350 9 110647416.690 9     -1411.625 9        59.231 9  27833041.350 9 110647416.690 9     -1411.625 9        59.231 9
E03  26316291.377 9 138293009.979 9      2461.281 9        56.975 9  26316291.377 9 138293009.979 9      2461.281 9        56.975 9  26316294.876 9 103270747.431 9      1837.970 9        56.836 9  26316294.876 9 103270747.431 9      1837.970 9        56.836 9  26316294.579 9 105964768.122 9      1885.917 9        56.836 9  26316294.579 9 105964768.122 9      1885.917 9        56.836 9  26316294.725 9 104617757.780 9      1861.943 9        59.846 9  26316294.725 9 104617757.780 9      1861.943 9        59.846 9
E24  24080533.601 9 126544034.420 9      1235.909 9        57.797 9  24080533.601 9 126544034.420 9      1235.909 9        57.797 9  24080534.619 9  94497158.482 9       922.919 9        57.657 9  24080534.619 9  94497158.482 9       922.919 9        57.657 9  24080534.416 9  96962302.566 9       946.995 9        57.657 9  24080534.416 9  96962302.566 9       946.995 9        57.657 9  24080534.515 9  95729730.527 9       934.957 9        60.668 9  24080534.515 9  95729730.527 9       934.957 9        60.668 9
> 2023 01 08 10 00 35.0000000  0 20       0.000000000000
G08  25075128.400 9 131770638.552 9     -1497.107 9        54.230 9  25075132.506 8 102678410.973 8     -1166.577 8        49.730 8  25075132.216 9  98400137.187 9     -1117.969 9        56.330 9
G13  20025032.351 9 105232234.255 9       568.335 9        56.113 9  20025031.386 8  81999129.034 8       442.858 8        51.613 8  20025033.937 9  78582506.370 9       424.406 9        58.213 9
G17  24959319.454 9 131162026.277 9      2931.104 9        54.188 9  24959322.379 8 102204146.592 8      2283.981 8        49.688 8  24959325.698 9  97945644.470 9      2188.815 9        56.288 9
G24  24515952.773 9 128832149.364 9      3530.090 9        54.417 9  24515956.516 8 100388676.927 8      2750.721 8        49.917 8  24515956.699 9  96205810.420 9      2636.108 9        56.517 9
G07  24609764.418 9 129325124.046 9     -2973.429 9        54.354 9  24609765.996 8 100772799.720 8     -2316.960 8        49.854 8  24609769.011 9  96573938.247 9     -2220.421 9        56.454 9
G18  24772090.267 9 130178167.412 9     -1377.539 9        54.334 9  24772091.446 8 101437514.905 8     -1073.408 8        49.834 8  24772093.706 9  97210955.674 9     -1028.683 9        56.434 9
G20  23529554.561 9 123648592.369 9     -3652.110 9        54.721 9  23529556.100 8  96349532.880 8     -2845.803 8        50.221 8  23529558.442 9  92334972.580 9     -2727.228 9        56.821 9
G14  20963171.874 9 110162187.232 9       114.300 9        55.781 9  20963171.847 8  85840652.913 8        89.065 8        51.281 8  20963173.723 9  82263963.728 9        85.354 9        57.881 9
G23  24856651.489 9 130622541.472 9      3223.024 9        54.295 9  24856652.556 8 101783780.869 8      2511.449 8        49.795 8  24856654.790 9  97542793.990 9      2406.805 9        56.395 9
G05  21751939.815 9 114307186.094 9     -2440.269 9        55.467 9  21751939.441 8  89070518.397 8     -1901.509 8        50.967 8  21751942.015 9  85359253.711 9     -1822.280 9        57.567 9
G30  21865727.254 9 114905143.310 9     -2267.889 9        55.472 9  21865729.758 8  89536470.967 8     -1767.187 8        50.972 8  21865729.439 9  85805780.260 9     -1693.554 9        57.572 9
G15  21109556.128 9 110931440.517 9      2286.336 9        55.714 9  21109555.631 8  86440068.545 8      1781.561 8        51.214 8  21109558.065 9  82838405.772 9      1707.329 9        57.814 9
E05  23312429.996 9 122507625.497 9       353.314 9        57.977 9  23312429.996 9 122507625.497 9       353.314 9        57.977 9  23312432.521 9  91482964.569 9       263.838 9        57.837 9  23312432.521 9  91482964.569 9       263.838 9        57.837 9  23312432.341 9  93869477.412 9       270.721 9        57.837 9  23312432.341 9  93869477.412 9       270.721 9        57.837 9  23312432.429 9  92676220.993 9       267.280 9        60.847 9  23312432.429 9  92676220.993 9       267.280 9        60.847 9
E09  25223456.655 9 132550127.208 9     -2099.808 9        57.363 9  25223456.655 9 132550127.208 9     -2099.808 9        57.363 9  25223459.581 9  98982230.281 9     -1568.040 9        57.223 9  25223459.581 9  98982230.281 9     -1568.040 9        57.223 9  25223459.305 9 101564376.528 9     -1608.945 9        57.223 9  25223459.305 9 101564376.528 9     -1608.945 9        57.223 9  25223459.440 9 100273303.408 9     -1588.493 9        60.233 9  25223459.440 9 100273303.408 9     -1588.493 9        60.233 9
E13  28146350.838 9 147910025.354 9       316.312 9        56.288 9  28146350.838 9 147910025.354 9       316.312 9        56.288 9  28146354.521 9 110452278.508 9       236.207 9        56.149 9  28146354.521 9 110452278.508 9       236.207 9        56.149 9  28146354.122 9 113333643.902 9       242.369 9        56.149 9  28146354.122 9 113333643.902 9       242.369 9        56.149 9  28146354.318 9 111892961.210 9       239.288 9        59.159 9  28146354.318 9 111892961.210 9       239.288 9        59.159 9
E25  27065640.878 9 142230852.301 9      3128.036 9        56.726 9  27065640.878 9 142230852.301 9      3128.036 9        56.726 9  27065645.741 9 106211339.918 9      2335.873 9        56.586 9  27065645.741 9 106211339.918 9      2335.873 9        56.586 9  27065645.308 9 108982072.266 9      2396.808 9        56.586 9  27065645.308 9 108982072.266 9      2396.808 9        56.586 9  27065645.520 9 107596706.097 9      2366.341 9        59.596 9  27065645.520 9 107596706.097 9      2366.341 9        59.596 9
E31  24973508.547 9 131236644.240 9     -1546.857 9        57.421 9  24973508.547 9 131236644.240 9     -1546.857 9        57.421 9  24973511.729 9  98001385.516 9     -1155.121 9        57.281 9  24973511.729 9  98001385.516 9     -1155.121 9        57.281 9  24973511.481 9 100557944.397 9     -1185.255 9        57.281 9  24973511.481 9 100557944.397 9     -1185.255 9        57.281 9  24973511.603 9  99279664.960 9     -1170.188 9        60.291 9  24973511.603 9  99279664.960 9     -1170.188 9        60.291 9
E15  27833391.549 9 146265413.126 9     -1866.357 9        56.360 9  27833391.549 9 146265413.126 9     -1866.357 9        56.360 9  27833396.677 9 109224164.617 9     -1393.709 9        56.220 9  27833396.677 9 109224164.617 9     -1393.709 9        56.220 9  27833396.277 9 112073492.260 9     -1430.066 9        56.220 9  27833396.277 9 112073492.260 9     -1430.066 9        56.220 9  27833396.473 9 110648828.444 9     -1411.888 9        59.231 9  27833396.473 9 110648828.444 9     -1411.888 9        59.231 9
E03  26315823.020 9 138290548.748 9      2461.182 9        56.976 9  26315823.020 9 138290548.748 9      2461.182 9        56.976 9  26315826.518 9 103268909.499 9      1837.896 9        56.836 9  26315826.518 9 103268909.499 9      1837.896 9        56.836 9  26315826.222 9 105962882.245 9      1885.841 9        56.836 9  26315826.222 9 105962882.245 9      1885.841 9        56.836 9  26315826.367 9 104615895.876 9      1861.868 9        59.846 9  26315826.367 9 104615895.876 9      1861.868 9        59.846 9
E24  24080298.457 9 126542798.729 9      1235.475 9        57.797 9  24080298.457 9 126542798.729 9      1235.475 9        57.797 9  24080299.475 9  94496235.726 9       922.595 9        57.657 9  24080299.475 9  94496235.726 9       922.595 9        57.657 9  24080299.271 9  96961355.738 9       946.663 9        57.657 9  24080299.271 9  96961355.738 9       946.663 9        57.657 9  24080299.371 9  95728795.735 9       934.629 9        60.668 9  24080299.371 9  95728795.735 9       934.629 9        60.668 9
> 2023 01 08 10 00 36.0000000  0 20       0.000000000000
G08  25075413.344 9 131772135.947 9     -1497.684 9        54.230 9  25075417.451 8 102679577.774 8     -1167.026 8        49.730 8  25075417.161 9  98401255.372 9     -1118.400 9        56.330 9
G13  20024924.246 9 105231666.157 9       567.860 9        56.113 9  20024923.281 8  81998686.361 8       442.488 8        51.613 8  20024925.831 9  78582082.141 9       424.051 9        58.213 9
G17  24958761.689 9 131159095.213 9      2931.057 9        54.188 9  24958764.613 8 102201862.649 8      2283.944 8        49.688 8  24958767.932 9  97943455.693 9      2188.780 9        56.288 9
G24  24515281.029 9 128828619.328 9      3529.985 9        54.417 9  24515284.772 8 100385926.250 8      2750.639 8        49.917 8  24515284.954 9  96203174.355 9      2636.029 9        56.517 9
G07  24610330.247 9 129328097.486 9     -2973.478 9        54.354 9  24610331.826 8 100775116.683 8     -2316.999 8        49.854 8  24610334.840 9  96576158.669 9     -2220.458 9        56.454 9
G18  24772352.454 9 130179545.212 9     -1378.065 9        54.334 9  24772353.633 8 101438588.515 8     -1073.818 8        49.834 8  24772355.894 9  97211984.550 9     -1029.075 9        56.434 9
G20  23530249.549 9 123652244.541 9     -3652.256 9        54.721 9  23530251.088 8  96352378.726 8     -2845.916 8        50.221 8  23530253.430 9  92337699.849 9     -2727.337 9        56.821 9
G14  20963150.186 9 110162073.261 9       113.641 9        55.781 9  20963150.159 8  85840564.105 8        88.551 8        51.281 8  20963152.036 9  82263878.620 9        84.862 9        57.881 9
G23  24856038.197 9 130619318.607 9      3222.714 9        54.295 9  24856039.264 8 101781269.547 8      2511.207 8        49.795 8  24856041.498 9  97540387.306 9      2406.574 9        56.395 9
G05  21752404.232 9 114309626.619 9     -2440.786 9        55.467 9  21752403.859 8  89072420.103 8     -1901.912 8        50.967 8  21752406.432 9  85361076.179 9     -1822.666 9        57.567 9
G30  21866158.844 9 114907411.327 9     -2268.157 9        55.472 9  21866161.349 8  89538238.252 8     -1767.396 8        50.972 8  21866161.029 9  85807473.908 9     -1693.754 9        57.572 9
G15  21109121.094 9 110929154.397 9      2285.904 9        55.714 9  21109120.596 8  86438287.153 8      1781.224 8        51.214 8  21109123.031 9  82836698.605 9      1707.007 9        57.814 9
E05  23312362.792 9 122507272.341 9       352.997 9        57.977 9  23312362.792 9 122507272.341 9       352.997 9        57.977 9  23312365.318 9  91482700.849 9       263.601 9        57.837 9  23312365.318 9  91482700.849 9       263.601 9        57.837 9  23312365.138 9  93869206.812 9       270.478 9        57.837 9  23312365.138 9  93869206.812 9       270.478 9        57.837 9  23312365.226 9  92675953.833 9       267.040 9        60.847 9  23312365.226 9  92675953.833 9       267.040 9        60.847 9
E09  25223856.258 9 132552227.128 9     -2100.043 9        57.363 9  25223856.258 9 132552227.128 9     -2100.043 9        57.363 9  25223859.184 9  98983798.402 9     -1568.215 9        57.223 9  25223859.184 9  98983798.402 9     -1568.215 9        57.223 9  25223858.908 9 101565985.557 9     -1609.125 9        57.223 9  25223858.908 9 101565985.557 9     -1609.125 9        57.223 9  25223859.043 9 100274891.983 9     -1588.670 9        60.233 9  25223859.043 9 100274891.983 9     -1588.670 9        60.233 9
E13  28146290.692 9 147909709.290 9       315.817 9        56.288 9  28146290.692 9 147909709.290 9       315.817 9        56.288 9  28146294.376 9 110452042.486 9       235.837 9        56.149 9  28146294.376 9 110452042.486 9       235.837 9        56.149 9  28146293.977 9 113333401.724 9       241.990 9        56.149 9  28146293.977 9 113333401.724 9       241.990 9        56.149 9  28146294.173 9 111892722.110 9       238.914 9        59.159 9  28146294.173 9 111892722.110 9       238.914 9        59.159 9
E25  27065045.643 9 142227724.330 9      3127.916 9        56.726 9  27065045.643 9 142227724.330 9      3127.916 9        56.726 9  27065050.506 9 106209004.097 9      2335.784 9        56.586 9  27065050.506 9 106209004.097 9      2335.784 9        56.586 9  27065050.073 9 108979675.510 9      2396.717 9        56.586 9  27065050.073 9 108979675.510 9      2396.717 9        56.586 9  27065050.286 9 107594339.809 9      2366.250 9        59.596 9  27065050.286 9 107594339.809 9      2366.250 9        59.596 9
E31  24973802.940 9 131238191.281 9     -1547.231 9        57.420 9  24973802.940 9 131238191.281 9     -1547.231 9        57.420 9  24973806.122 9  98002540.773 9     -1155.400 9        57.281 9  24973806.122 9  98002540.773 9     -1155.400 9        57.281 9  24973805.874 9 100559129.791 9     -1185.541 9        57.281 9  24973805.874 9 100559129.791 9     -1185.541 9        57.281 9  24973805.995 9  99280835.285 9     -1170.471 9        60.291 9  24973805.995 9  99280835.285 9     -1170.471 9        60.291 9
E15  27833746.738 9 146267279.655 9     -1866.703 9        56.360 9  27833746.738 9 146267279.655 9     -1866.703 9        56.360 9  27833751.866 9 109225558.452 9     -1393.968 9        56.220 9  27833751.866 9 109225558.452 9     -1393.968 9        56.220 9  27833751.467 9 112074922.457 9     -1430.332 9        56.220 9  27833751.467 9 112074922.457 9     -1430.332 9        56.220 9  27833751.663 9 110650240.460 9     -1412.150 9        59.231 9  27833751.663 9 110650240.460 9     -1412.150 9        59.231 9
E03  26315354.682 9 138288087.617 9      2461.082 9        56.976 9  26315354.682 9 138288087.617 9      2461.082 9        56.976 9  26315358.180 9 103267071.642 9      1837.822 9        56.836 9  26315358.180 9 103267071.642 9      1837.822 9        56.836 9  26315357.884 9 105960996.443 9      1885.765 9        56.836 9  26315357.884 9 105960996.443 9      1885.765 9        56.836 9  26315358.029 9 104614034.046 9      1861.793 9        59.846 9  26315358.029 9 104614034.046 9      1861.793 9        59.846 9
E24  24080063.395 9 126541563.472 9      1235.041 9        57.797 9  24080063.395 9 126541563.472 9      1235.041 9        57.797 9  24080064.413 9  94495313.294 9       922.271 9        57.657 9  24080064.413 9  94495313.294 9       922.271 9        57.657 9  24080064.209 9  96960409.242 9       946.331 9        57.657 9  24080064.209 9  96960409.242 9       946.331 9        57.657 9  24080064.309 9  95727861.271 9       934.301 9        60.668 9  24080064.309 9  95727861.271 9       934.301 9        60.668 9
> 2023 01 08 10 00 37.0000000  0 20       0.000000000000
G08  25075698.399 9 131773633.919 9     -1498.260 9        54.229 9  25075702.505 8 102680745.025 8     -1167.475 8        49.729 8  25075702.216 9  98402373.988 9     -1118.831 9        56.329 9
G13  20024816.231 9 105231098.534 9       567.386 9        56.114 9  20024815.266 8  81998244.057 8       442.119 8        51.614 8  20024817.816 9  78581658.267 9       423.697 9        58.214 9
G17  24958203.932 9 131156164.195 9      2931.009 9        54.188 9  24958206.855 8 102199578.743 8      2283.907 8        49.688 8  24958210.174 9  97941266.950 9      2188.745 9        56.288 9
G24  24514609.304 9 128825089.396 9      3529.880 9        54.418 9  24514613.047 8 100383175.655 8      2750.557 8        49.918 8  24514613.229 9  96200538.369 9      2635.951 9        56.518 9
G07  24610896.085 9 129331070.975 9     -2973.527 9        54.353 9  24610897.664 8 100777433.685 8     -2317.037 8        49.853 8  24610900.679 9  96578379.128 9     -2220.494 9        56.453 9
G18  24772614.741 9 130180923.539 9     -1378.591 9        54.334 9  24772615.921 8 101439662.535 8     -1074.227 8        49.834 8  24772618.181 9  97213013.819 9     -1029.468 9        56.434 9
G20  23530944.564 9 123655896.860 9     -3652.401 9        54.721 9  23530946.104 8  96355224.686 8     -2846.030 8        50.221 8  23530948.446 9  92340427.226 9     -2727.446 9        56.821 9
G14  20963128.624 9 110161959.950 9       112.982 9        55.781 9  20963128.597 8  85840475.810 8        88.038 8        51.281 8  20963130.473 9  82263794.004 9        84.370 9        57.881 9
G23  24855424.965 9 130616096.052 9      3222.404 9        54.295 9  24855426.030 8 101778758.467 8      2510.966 8        49.795 8  24855428.265 9  97537980.855 9      2406.342 9        56.395 9
G05  21752868.748 9 114312067.660 9     -2441.303 9        55.467 9  21752868.375 8  89074322.212 8     -1902.315 8        50.967 8  21752870.948 9  85362899.033 9     -1823.052 9        57.567 9
G30  21866590.485 9 114909679.612 9     -2268.424 9        55.472 9  21866592.990 8  89540005.746 8     -1767.604 8        50.972 8  21866592.671 9  85809167.756 9     -1693.954 9        57.572 9
G15  21108686.141 9 110926868.709 9      2285.472 9        55.714 9  21108685.644 8  86436506.098 8      1780.888 8        51.214 8  21108688.078 9  82834991.761 9      1706.684 9        57.814 9
E05  23312295.649 9 122506919.502 9       352.679 9        57.977 9  23312295.649 9 122506919.502 9       352.679 9        57.977 9  23312298.175 9  91482437.365 9       263.364 9        57.837 9  23312298.175 9  91482437.365 9       263.364 9        57.837 9  23312297.995 9  93868936.455 9       270.235 9        57.837 9  23312297.995 9  93868936.455 9       270.235 9        57.837 9  23312298.083 9  92675686.913 9       266.800 9        60.847 9  23312298.083 9  92675686.913 9       266.800 9        60.847 9
E09  25224255.905 9 132554327.283 9     -2100.278 9        57.362 9  25224255.905 9 132554327.283 9     -2100.278 9        57.362 9  25224258.831 9  98985366.698 9     -1568.391 9        57.223 9  25224258.831 9  98985366.698 9     -1568.391 9        57.223 9  25224258.555 9 101567594.765 9     -1609.305 9        57.223 9  25224258.555 9 101567594.765 9     -1609.305 9        57.223 9  25224258.690 9 100276480.735 9     -1588.848 9        60.233 9  25224258.690 9 100276480.735 9     -1588.848 9        60.233 9
E13  28146230.642 9 147909393.721 9       315.322 9        56.288 9  28146230.642 9 147909393.721 9       315.322 9        56.288 9  28146234.325 9 110451806.834 9       235.468 9        56.149 9  28146234.325 9 110451806.834 9       235.468 9        56.149 9  28146233.926 9 113333159.924 9       241.611 9        56.149 9  28146233.926 9 113333159.924 9       241.611 9        56.149 9  28146234.122 9 111892483.384 9       238.539 9        59.159 9  28146234.122 9 111892483.384 9       238.539 9        59.159 9
E25  27064450.432 9 142224596.478 9      3127.797 9        56.726 9  27064450.432 9 142224596.478 9      3127.797 9        56.726 9  27064455.294 9 106206668.365 9      2335.694 9        56.586 9  27064455.294 9 106206668.365 9      2335.694 9        56.586 9  27064454.862 9 108977278.846 9      2396.625 9        56.586 9  27064454.862 9 108977278.846 9      2396.625 9        56.586 9  27064455.074 9 107591973.611 9      2366.160 9        59.597 9  27064455.074 9 107591973.611 9      2366.160 9        59.597 9
E31  24974097.403 9 131239738.695 9     -1547.605 9        57.420 9  24974097.403 9 131239738.695 9     -1547.605 9        57.420 9  24974100.586 9  98003696.309 9     -1155.679 9        57.280 9  24974100.586 9  98003696.309 9     -1155.679 9        57.280 9  24974100.337 9 100560315.472 9     -1185.827 9        57.280 9  24974100.337 9 100560315.472 9     -1185.827 9        57.280 9  24974100.459 9  99282005.893 9     -1170.753 9        60.291 9  24974100.459 9  99282005.893 9     -1170.753 9        60.291 9
E15  27834101.993 9 146269146.530 9     -1867.050 9        56.360 9  27834101.993 9 146269146.530 9     -1867.050 9        56.360 9  27834107.122 9 109226952.547 9     -1394.227 9        56.220 9  27834107.122 9 109226952.547 9     -1394.227 9        56.220 9  27834106.722 9 112076352.919 9     -1430.598 9        56.220 9  27834106.722 9 112076352.919 9     -1430.598 9        56.220 9  27834106.918 9 110651652.738 9     -1412.412 9        59.231 9  27834106.918 9 110651652.738 9     -1412.412 9        59.231 9
E03  26314886.363 9 138285626.584 9      2460.983 9        56.976 9  26314886.363 9 138285626.584 9      2460.983 9        56.976 9  26314889.861 9 103265233.859 9      1837.748 9        56.836 9  26314889.861 9 103265233.859 9      1837.748 9        56.836 9  26314889.564 9 105959110.718 9      1885.689 9        56.836 9  26314889.564 9 105959110.718 9      1885.689 9        56.836 9  26314889.709 9 104612172.292 9      1861.718 9        59.846 9  26314889.709 9 104612172.292 9      1861.718 9        59.846 9
E24  24079828.416 9 126540328.648 9      1234.607 9        57.797 9  24079828.416 9 126540328.648 9      1234.607 9        57.797 9  24079829.434 9  94494391.186 9       921.947 9        57.658 9  24079829.434 9  94494391.186 9       921.947 9        57.658 9  24079829.230 9  96959463.079 9       945.998 9        57.658 9  24079829.230 9  96959463.079 9       945.998 9        57.658 9  24079829.330 9  95726927.135 9       933.973 9        60.668 9  24079829.330 9  95726927.135 9       933.973 9        60.668 9
> 2023 01 08 10 00 38.0000000  0 20       0.000000000000
G08  25075983.563 9 131775132.468 9     -1498.837 9        54.229 9  25075987.669 8 102681912.726 8     -1167.925 8        49.729 8  25075987.380 9  98403493.034 9     -1119.261 9        56.329 9
G13  20024708.306 9 105230531.385 9       566.911 9        56.114 9  20024707.341 8  81997802.122 8       441.749 8        51.614 8  20024709.892 9  78581234.746 9       423.343 9        58.214 9
G17  24957646.185 9 131153233.226 9      2930.962 9        54.188 9  24957649.107 8 102197294.874 8      2283.870 8        49.688 8  24957652.426 9  97939078.243 9      2188.709 9        56.288 9
G24  24513937.600 9 128821559.570 9      3529.775 9        54.418 9  24513941.342 8 100380425.143 8      2750.475 8        49.918 8  24513941.524 9  96197902.461 9      2635.872 9        56.518 9
G07  24611461.933 9 129334044.513 9     -2973.577 9        54.353 9  24611463.513 8 100779750.725 8     -2317.075 8        49.853 8  24611466.528 9  96580599.624 9     -2220.531 9        56.453 9
G18  24772877.129 9 130182302.391 9     -1379.117 9        54.334 9  24772878.308 8 101440736.965 8     -1074.637 8        49.834 8  24772880.569 9  97214043.480 9     -1029.861 9        56.434 9
G20  23531639.607 9 123659549.324 9     -3652.547 9        54.721 9  23531641.148 8  96358070.759 8     -2846.143 8        50.221 8  23531643.489 9  92343154.712 9     -2727.554 9        56.821 9
G14  20963107.187 9 110161847.297 9       112.323 9        55.781 9  20963107.160 8  85840388.028 8        87.524 8        51.281 8  20963109.036 9  82263709.880 9        83.878 9        57.881 9
G23  24854811.791 9 130612873.807 9      3222.094 9        54.295 9  24854812.856 8 101776247.628 8      2510.724 8        49.795 8  24854815.090 9  97535574.634 9      2406.111 9        56.395 9
G05  21753333.362 9 114314509.218 9     -2441.820 9        55.466 9  21753332.989 8  89076224.724 8     -1902.718 8        50.966 8  21753335.562 9  85364722.274 9     -1823.438 9        57.566 9
G30  21867022.177 9 114911948.165 9     -2268.692 9        55.472 9  21867024.682 8  89541773.448 8     -1767.813 8        50.972 8  21867024.363 9  85810861.804 9     -1694.154 9        57.572 9
G15  21108251.271 9 110924583.453 9      2285.040 9        55.715 9  21108250.774 8  86434725.380 8      1780.551 8        51.215 8  21108253.208 9  82833285.239 9      1706.361 9        57.815 9
E05  23312228.567 9 122506566.981 9       352.362 9        57.977 9  23312228.567 9 122506566.981 9       352.362 9        57.977 9  23312231.092 9  91482174.119 9       263.127 9        57.837 9  23312231.092 9  91482174.119 9       263.127 9        57.837 9  23312230.913 9  93868666.341 9       269.992 9        57.837 9  23312230.913 9  93868666.341 9       269.992 9        57.837 9  23312231.001 9  92675420.232 9       266.559 9        60.847 9  23312231.001 9  92675420.232 9       266.559 9        60.847 9
E09  25224655.597 9 132556427.673 9     -2100.513 9        57.362 9  25224655.597 9 132556427.673 9     -2100.513 9        57.362 9  25224658.523 9  98986935.170 9     -1568.566 9        57.222 9  25224658.523 9  98986935.170 9     -1568.566 9        57.222 9  25224658.247 9 101569204.154 9     -1609.485 9        57.222 9  25224658.247 9 101569204.154 9     -1609.485 9        57.222 9  25224658.383 9 100278069.665 9     -1589.026 9        60.233 9  25224658.383 9 100278069.665 9     -1589.026 9        60.233 9
E13  28146170.685 9 147909078.647 9       314.827 9        56.288 9  28146170.685 9 147909078.647 9       314.827 9        56.288 9  28146174.369 9 110451571.552 9       235.099 9        56.149 9  28146174.369 9 110451571.552 9       235.099 9        56.149 9  28146173.969 9 113332918.504 9       241.232 9        56.149 9  28146173.969 9 113332918.504 9       241.232 9        56.149 9  28146174.165 9 111892245.033 9       238.165 9        59.159 9  28146174.165 9 111892245.033 9       238.165 9        59.159 9
E25  27063855.243 9 142221468.746 9      3127.677 9        56.726 9  27063855.243 9 142221468.746 9      3127.677 9        56.726 9  27063860.105 9 106204332.723 9      2335.605 9        56.586 9  27063860.105 9 106204332.723 9      2335.605 9        56.586 9  27063859.672 9 108974882.274 9      2396.534 9        56.586 9  27063859.672 9 108974882.274 9      2396.534 9        56.586 9  27063859.884 9 107589607.504 9      2366.069 9        59.597 9  27063859.884 9 107589607.504 9      2366.069 9        59.597 9
E31  24974391.938 9 131241286.483 9     -1547.978 9        57.420 9  24974391.938 9 131241286.483 9     -1547.978 9        57.420 9  24974395.120 9  98004852.124 9     -1155.958 9        57.280 9  24974395.120 9  98004852.124 9     -1155.958 9        57.280 9  24974394.872 9 100561501.439 9     -1186.114 9        57.280 9  24974394.872 9 100561501.439 9     -1186.114 9        57.280 9  24974394.994 9  99283176.784 9     -1171.036 9        60.291 9  24974394.994 9  99283176.784 9     -1171.036 9        60.291 9
E15  27834457.314 9 146271013.751 9     -1867.396 9        56.360 9  27834457.314 9 146271013.751 9     -1867.396 9        56.360 9  27834462.443 9 109228346.900 9     -1394.485 9        56.220 9  27834462.443 9 109228346.900 9     -1394.485 9        56.220 9  27834462.043 9 112077783.646 9     -1430.863 9        56.220 9  27834462.043 9 112077783.646 9     -1430.863 9        56.220 9  27834462.239 9 110653065.278 9     -1412.674 9        59.230 9  27834462.239 9 110653065.278 9     -1412.674 9        59.230 9
E03  26314418.062 9 138283165.651 9      2460.884 9        56.976 9  26314418.062 9 138283165.651 9      2460.884 9        56.976 9  26314421.560 9 103263396.149 9      1837.674 9        56.836 9  26314421.560 9 103263396.149 9      1837.674 9        56.836 9  26314421.264 9 105957225.068 9      1885.613 9        56.836 9  26314421.264 9 105957225.068 9      1885.613 9        56.836 9  26314421.409 9 104610310.613 9      1861.643 9        59.846 9  26314421.409 9 104610310.613 9      1861.643 9        59.846 9
E24  24079593.519 9 126539094.259 9      1234.174 9        57.797 9  24079593.519 9 126539094.259 9      1234.174 9        57.797 9  24079594.537 9  94493469.401 9       921.623 9        57.658 9  24079594.537 9  94493469.401 9       921.623 9        57.658 9  24079594.333 9  96958517.248 9       945.666 9        57.658 9  24079594.333 9  96958517.248 9       945.666 9        57.658 9  24079594.433 9  95725993.328 9       933.644 9        60.668 9  24079594.433 9  95725993.328 9       933.644 9        60.668 9
> 2023 01 08 10 00 39.0000000  0 20       0.000000000000
G08  25076268.837 9 131776631.593 9     -1499.414 9        54.229 9  25076272.943 8 102683080.876 8     -1168.374 8        49.729 8  25076272.654 9  98404612.511 9     -1119.692 9        56.329 9
G13  20024600.471 9 105229964.710 9       566.437 9        56.114 9  20024599.507 8  81997360.558 8       441.379 8        51.614 8  20024602.057 9  78580811.580 9       422.988 9        58.214 9
G17  24957088.446 9 131150302.303 9      2930.914 9        54.188 9  24957091.367 8 102195011.042 8      2283.833 8        49.688 8  24957094.686 9  97936889.571 9      2188.674 9        56.288 9
G24  24513265.916 9 128818029.849 9      3529.669 9        54.418 9  24513269.658 8 100377674.712 8      2750.393 8        49.918 8  24513269.839 9  96195266.632 9      2635.793 9        56.518 9
G07  24612027.790 9 129337018.100 9     -2973.626 9        54.353 9  24612029.370 8 100782067.803 8     -2317.114 8        49.853 8  24612032.386 9  96582820.157 9     -2220.568 9        56.453 9
G18  24773139.616 9 130183681.769 9     -1379.642 9        54.334 9  24773140.796 8 101441811.804 8     -1075.047 8        49.834 8  24773143.056 9  97215073.534 9     -1030.253 9        56.434 9
G20  23532334.677 9 123663201.933 9     -3652.692 9        54.720 9  23532336.219 8  96360916.945 8     -2846.256 8        50.220 8  23532338.561 9  92345882.307 9     -2727.663 9        56.820 9
G14  20963085.875 9 110161735.303 9       111.664 9        55.781 9  20963085.848 8  85840300.760 8        87.011 8        51.281 8  20963087.724 9  82263626.248 9        83.386 9        57.881 9
G23  24854198.676 9 130609651.872 9      3221.784 9        54.296 9  24854199.741 8 101773737.030 8      2510.482 8        49.796 8  24854201.975 9  97533168.645 9      2405.879 9        56.396 9
G05  21753798.074 9 114316951.293 9     -2442.336 9        55.466 9  21753797.701 8  89078127.639 8     -1903.120 8        50.966 8  21753800.275 9  85366545.900 9     -1823.824 9        57.566 9
G30  21867453.920 9 114914216.985 9     -2268.960 9        55.472 9  21867456.425 8  89543541.360 8     -1768.022 8        50.972 8  21867456.106 9  85812556.052 9     -1694.354 9        57.572 9
G15  21107816.484 9 110922298.630 9      2284.608 9        55.715 9  21107815.986 8  86432944.999 8      1780.214 8        51.215 8  21107818.420 9  82831579.040 9      1706.039 9        57.815 9
E05  23312161.545 9 122506214.777 9       352.045 9        57.977 9  23312161.545 9 122506214.777 9       352.045 9        57.977 9  23312164.070 9  91481911.109 9       262.890 9        57.837 9  23312164.070 9  91481911.109 9       262.890 9        57.837 9  23312163.891 9  93868396.471 9       269.748 9        57.837 9  23312163.891 9  93868396.471 9       269.748 9        57.837 9  23312163.979 9  92675153.792 9       266.319 9        60.847 9  23312163.979 9  92675153.792 9       266.319 9        60.847 9
E09  25225055.333 9 132558528.298 9     -2100.748 9        57.362 9  25225055.333 9 132558528.298 9     -2100.748 9        57.362 9  25225058.260 9  98988503.817 9     -1568.742 9        57.222 9  25225058.260 9  98988503.817 9     -1568.742 9        57.222 9  25225057.984 9 101570813.722 9     -1609.665 9        57.222 9  25225057.984 9 101570813.722 9     -1609.665 9        57.222 9  25225058.119 9 100279658.773 9     -1589.203 9        60.233 9  25225058.119 9 100279658.773 9     -1589.203 9        60.233 9
E13  28146110.822 9 147908764.067 9       314.333 9        56.288 9  28146110.822 9 147908764.067 9       314.333 9        56.288 9  28146114.506 9 110451336.638 9       234.729 9        56.149 9  28146114.506 9 110451336.638 9       234.729 9        56.149 9  28146114.107 9 113332677.462 9       240.853 9        56.149 9  28146114.107 9 113332677.462 9       240.853 9        56.149 9  28146114.303 9 111892007.055 9       237.791 9        59.159 9  28146114.303 9 111892007.055 9       237.791 9        59.159 9
E25  27063260.077 9 142218341.134 9      3127.558 9        56.727 9  27063260.077 9 142218341.134 9      3127.558 9        56.727 9  27063264.938 9 106201997.170 9      2335.516 9        56.587 9  27063264.938 9 106201997.170 9      2335.516 9        56.587 9  27063264.506 9 108972485.793 9      2396.442 9        56.587 9  27063264.506 9 108972485.793 9      2396.442 9        56.587 9  27063264.718 9 107587241.487 9      2365.979 9        59.597 9  27063264.718 9 107587241.487 9      2365.979 9        59.597 9
E31  24974686.544 9 131242834.644 9     -1548.351 9        57.420 9  24974686.544 9 131242834.644 9     -1548.351 9        57.420 9  24974689.726 9  98006008.217 9     -1156.237 9        57.280 9  24974689.726 9  98006008.217 9     -1156.237 9        57.280 9  24974689.478 9 100562687.691 9     -1186.400 9        57.280 9  24974689.478 9 100562687.691 9     -1186.400 9        57.280 9  24974689.600 9  99284347.958 9     -1171.319 9        60.291 9  24974689.600 9  99284347.958 9     -1171.319 9        60.291 9
E15  27834812.701 9 146272881.320 9     -1867.743 9        56.360 9  27834812.701 9 146272881.320 9     -1867.743 9        56.360 9  27834817.830 9 109229741.511 9     -1394.744 9        56.220 9  27834817.830 9 109229741.511 9     -1394.744 9        56.220 9  27834817.430 9 112079214.639 9     -1431.129 9        56.220 9  27834817.430 9 112079214.639 9     -1431.129 9        56.220 9  27834817.627 9 110654478.080 9     -1412.936 9        59.230 9  27834817.627 9 110654478.080 9     -1412.936 9        59.230 9
E03  26313949.781 9 138280704.817 9      2460.785 9        56.976 9  26313949.781 9 138280704.817 9      2460.785 9        56.976 9  26313953.278 9 103261558.514 9      1837.600 9        56.836 9  26313953.278 9 103261558.514 9      1837.600 9        56.836 9  26313952.982 9 105955339.495 9      1885.537 9        56.836 9  26313952.982 9 105955339.495 9      1885.537 9        56.836 9  26313953.127 9 104608449.008 9      1861.568 9        59.847 9  26313953.127 9 104608449.008 9      1861.568 9        59.847 9
E24  24079358.705 9 126537860.303 9      1233.740 9        57.798 9  24079358.705 9 126537860.303 9      1233.740 9        57.798 9  24079359.723 9  94492547.941 9       921.299 9        57.658 9  24079359.723 9  94492547.941 9       921.299 9        57.658 9  24079359.519 9  96957571.750 9       945.333 9        57.658 9  24079359.519 9  96957571.750 9       945.333 9        57.658 9  24079359.619 9  95725059.848 9       933.316 9        60.668 9  24079359.619 9  95725059.848 9       933.316 9        60.668 9
> 2023 01 08 10 00 40.0000000  0 20       0.000000000000
G08  25076554.221 9 131778131.295 9     -1499.990 9        54.229 9  25076558.327 8 102684249.475 8     -1168.823 8        49.729 8  25076558.037 9  98405732.419 9     -1120.122 9        56.329 9
G13  20024492.727 9 105229398.511 9       565.962 9        56.114 9  20024491.763 8  81996919.363 8       441.009 8        51.614 8  20024494.313 9  78580388.769 9       422.634 9        58.214 9
G17  24956530.717 9 131147371.429 9      2930.867 9        54.188 9  24956533.637 8 102192727.247 8      2283.796 8        49.688 8  24956536.955 9  97934700.935 9      2188.638 9        56.288 9
G24  24512594.251 9 128814500.234 9      3529.564 9        54.418 9  24512597.993 8 100374924.364 8      2750.311 8        49.918 8  24512598.175 9  96192630.882 9      2635.715 9        56.518 9
G07  24612593.656 9 129339991.737 9     -2973.675 9        54.353 9  24612595.237 8 100784384.919 8     -2317.152 8        49.853 8  24612598.253 9  96585040.726 9     -2220.605 9        56.453 9
G18  24773402.203 9 130185061.672 9     -1380.168 9        54.334 9  24773403.384 8 101442887.053 8     -1075.456 8        49.834 8  24773405.644 9  97216103.981 9     -1030.646 9        56.434 9
G20  23533029.775 9 123666854.688 9     -3652.838 9        54.720 9  23533031.318 8  96363763.245 8     -2846.370 8        50.220 8  23533033.660 9  92348610.010 9     -2727.771 9        56.820 9
G14  20963064.689 9 110161623.968 9       111.005 9        55.781 9  20963064.662 8  85840214.005 8        86.498 8        51.281 8  20963066.538 9  82263543.108 9        82.894 9        57.881 9
G23  24853585.620 9 130606430.247 9      3221.473 9        54.296 9  24853586.685 8 101771226.675 8      2510.240 8        49.796 8  24853588.919 9  97530762.888 9      2405.647 9        56.396 9
G05  21754262.884 9 114319393.885 9     -2442.853 9        55.466 9  21754262.512 8  89080030.956 8     -1903.523 8        50.966 8  21754265.086 9  85368369.912 9     -1824.210 9        57.566 9
G30  21867885.714 9 114916486.074 9     -2269.228 9        55.472 9  21867888.220 8  89545309.479 8     -1768.230 8        50.972 8  21867887.900 9  85814250.499 9     -1694.554 9        57.572 9
G15  21107381.778 9 110920014.239 9      2284.175 9        55.715 9  21107381.280 8  86431164.954 8      1779.877 8        51.215 8  21107383.714 9  82829873.164 9      1705.716 9        57.815 9
E05  23312094.583 9 122505862.891 9       351.727 9        57.977 9  23312094.583 9 122505862.891 9       351.727 9        57.977 9  23312097.109 9  91481648.337 9       262.653 9        57.837 9  23312097.109 9  91481648.337 9       262.653 9        57.837 9  23312096.929 9  93868126.844 9       269.505 9        57.837 9  23312096.929 9  93868126.844 9       269.505 9        57.837 9  23312097.017 9  92674887.593 9       266.079 9        60.847 9  23312097.017 9  92674887.593 9       266.079 9        60.847 9
E09  25225455.114 9 132560629.157 9     -2100.983 9        57.362 9  25225455.114 9 132560629.157 9     -2100.983 9        57.362 9  25225458.041 9  98990072.640 9     -1568.917 9        57.222 9  25225458.041 9  98990072.640 9     -1568.917 9        57.222 9  25225457.765 9 101572423.471 9     -1609.845 9        57.222 9  25225457.765 9 101572423.471 9     -1609.845 9        57.222 9  25225457.901 9 100281248.059 9     -1589.381 9        60.232 9  25225457.901 9 100281248.059 9     -1589.381 9        60.232 9
E13  28146051.054 9 147908449.982 9       313.838 9        56.288 9  28146051.054 9 147908449.982 9       313.838 9        56.288 9  28146054.737 9 110451102.095 9       234.360 9        56.149 9  28146054.737 9 110451102.095 9       234.360 9        56.149 9  28146054.338 9 113332436.800 9       240.473 9        56.149 9  28146054.338 9 113332436.800 9       240.473 9        56.149 9  28146054.534 9 111891769.452 9       237.417 9        59.159 9  28146054.534 9 111891769.452 9       237.417 9        59.159 9
E25  27062664.934 9 142215213.641 9      3127.438 9        56.727 9  27062664.934 9 142215213.641 9      3127.438 9        56.727 9  27062669.795 9 106199661.706 9      2335.426 9        56.587 9  27062669.795 9 106199661.706 9      2335.426 9        56.587 9  27062669.362 9 108970089.404 9      2396.350 9        56.587 9  27062669.362 9 108970089.404 9      2396.350 9        56.587 9  27062669.574 9 107584875.561 9      2365.888 9        59.597 9  27062669.574 9 107584875.561 9      2365.888 9        59.597 9
E31  24974981.221 9 131244383.179 9     -1548.725 9        57.420 9  24974981.221 9 131244383.179 9     -1548.725 9        57.420 9  24974984.403 9  98007164.590 9     -1156.516 9        57.280 9  24974984.403 9  98007164.590 9     -1156.516 9        57.280 9  24974984.155 9 100563874.230 9     -1186.686 9        57.280 9  24974984.155 9 100563874.230 9     -1186.686 9        57.280 9  24974984.277 9  99285519.413 9     -1171.601 9        60.290 9  24974984.277 9  99285519.413 9     -1171.601 9        60.290 9
E15  27835168.154 9 146274749.234 9     -1868.089 9        56.360 9  27835168.154 9 146274749.234 9     -1868.089 9        56.360 9  27835173.284 9 109231136.381 9     -1395.003 9        56.220 9  27835173.284 9 109231136.381 9     -1395.003 9        56.220 9  27835172.884 9 112080645.897 9     -1431.394 9        56.220 9  27835172.884 9 112080645.897 9     -1431.394 9        56.220 9  27835173.080 9 110655891.145 9     -1413.198 9        59.230 9  27835173.080 9 110655891.145 9     -1413.198 9        59.230 9
E03  26313481.518 9 138278244.082 9      2460.685 9        56.976 9  26313481.518 9 138278244.082 9      2460.685 9        56.976 9  26313485.015 9 103259720.953 9      1837.525 9        56.837 9  26313485.015 9 103259720.953 9      1837.525 9        56.837 9  26313484.719 9 105953453.997 9      1885.461 9        56.837 9  26313484.719 9 105953453.997 9      1885.461 9        56.837 9  26313484.864 9 104606587.479 9      1861.493 9        59.847 9  26313484.864 9 104606587.479 9      1861.493 9        59.847 9
E24  24079123.974 9 126536626.781 9      1233.306 9        57.798 9  24079123.974 9 126536626.781 9      1233.306 9        57.798 9  24079124.991 9  94491626.805 9       920.975 9        57.658 9  24079124.991 9  94491626.805 9       920.975 9        57.658 9  24079124.788 9  96956626.584 9       945.001 9        57.658 9  24079124.788 9  96956626.584 9       945.001 9        57.658 9  24079124.887 9  95724126.697 9       932.988 9        60.668 9  24079124.887 9  95724126.697 9       932.988 9        60.668 9
> 2023 01 08 10 00 41.0000000  0 20       0.000000000000
G08  25076839.714 9 131779631.573 9     -1500.567 9        54.229 9  25076843.820 8 102685418.523 8     -1169.273 8        49.729 8  25076843.531 9  98406852.757 9     -1120.553 9        56.329 9
G13  20024385.073 9 105228832.786 9       565.487 9        56.114 9  20024384.109 8  81996478.538 8       440.639 8        51.614 8  20024386.659 9  78579966.312 9       422.279 9        58.214 9
G17  24955972.996 9 131144440.601 9      2930.819 9        54.189 9  24955975.916 8 102190443.489 8      2283.759 8        49.689 8  24955979.234 9  97932512.334 9      2188.603 9        56.289 9
G24  24511922.607 9 128810970.724 9      3529.459 9        54.419 9  24511926.348 8 100372174.097 8      2750.229 8        49.919 8  24511926.530 9  96189995.210 9      2635.636 9        56.519 9
G07  24613159.532 9 129342965.422 9     -2973.724 9        54.353 9  24613161.114 8 100786702.074 8     -2317.190 8        49.853 8  24613164.129 9  96587261.332 9     -2220.641 9        56.453 9
G18  24773664.891 9 130186442.101 9     -1380.693 9        54.334 9  24773666.071 8 101443962.711 8     -1075.866 8        49.834 8  24773668.332 9  97217134.820 9     -1031.038 9        56.434 9
G20  23533724.901 9 123670507.588 9     -3652.983 9        54.720 9  23533726.444 8  96366609.657 8     -2846.483 8        50.220 8  23533728.786 9  92351337.822 9     -2727.880 9        56.820 9
G14  20963043.628 9 110161513.291 9       110.347 9        55.781 9  20963043.601 8  85840127.764 8        85.984 8        51.281 8  20963045.477 9  82263460.460 9        82.402 9        57.881 9
G23  24852972.623 9 130603208.932 9      3221.163 9        54.296 9  24852973.687 8 101768716.561 8      2509.999 8        49.796 8  24852975.921 9  97528357.363 9      2405.416 9        56.396 9
G05  21754727.793 9 114321836.993 9     -2443.369 9        55.466 9  21754727.421 8  89081934.675 8     -1903.925 8        50.966 8  21754729.995 9  85370194.309 9     -1824.595 9        57.566 9
G30  21868317.558 9 114918755.430 9     -2269.495 9        55.471 9  21868320.065 8  89547077.808 8     -1768.439 8        50.971 8  21868319.746 9  85815945.147 9     -1694.754 9        57.571 9
G15  21106947.155 9 110917730.280 9      2283.743 9        55.715 9  21106946.657 8  86429385.246 8      1779.540 8        51.215 8  21106949.091 9  82828167.611 9      1705.393 9        57.815 9
E05  23312027.682 9 122505511.322 9       351.410 9        57.977 9  23312027.682 9 122505511.322 9       351.410 9        57.977 9  23312030.208 9  91481385.802 9       262.416 9        57.837 9  23312030.208 9  91481385.802 9       262.416 9        57.837 9  23312030.028 9  93867857.460 9       269.262 9        57.837 9  23312030.028 9  93867857.460 9       269.262 9        57.837 9  23312030.116 9  92674621.633 9       265.839 9        60.847 9  23312030.116 9  92674621.633 9       265.839 9        60.847 9
E09  25225854.940 9 132562730.252 9     -2101.217 9        57.362 9  25225854.940 9 132562730.252 9     -2101.217 9        57.362 9  25225857.867 9  98991641.638 9     -1569.092 9        57.222 9  25225857.867 9  98991641.638 9     -1569.092 9        57.222 9  25225857.592 9 101574033.399 9     -1610.025 9        57.222 9  25225857.592 9 101574033.399 9     -1610.025 9        57.222 9  25225857.727 9 100282837.522 9     -1589.559 9        60.232 9  25225857.727 9 100282837.522 9     -1589.559 9        60.232 9
E13  28145991.379 9 147908136.392 9       313.343 9        56.289 9  28145991.379 9 147908136.392 9       313.343 9        56.289 9  28145995.063 9 110450867.920 9       233.990 9        56.149 9  28145995.063 9 110450867.920 9       233.990 9        56.149 9  28145994.664 9 113332196.517 9       240.094 9        56.149 9  28145994.664 9 113332196.517 9       240.094 9        56.149 9  28145994.860 9 111891532.224 9       237.042 9        59.159 9  28145994.860 9 111891532.224 9       237.042 9        59.159 9
E25  27062069.813 9 142212086.268 9      3127.318 9        56.727 9  27062069.813 9 142212086.268 9      3127.318 9        56.727 9  27062074.674 9 106197326.332 9      2335.337 9        56.587 9  27062074.674 9 106197326.332 9      2335.337 9        56.587 9  27062074.241 9 108967693.107 9      2396.258 9        56.587 9  27062074.241 9 108967693.107 9      2396.258 9        56.587 9  27062074.453 9 107582509.725 9      2365.798 9        59.597 9  27062074.453 9 107582509.725 9      2365.798 9        59.597 9
E31  24975275.969 9 131245932.087 9     -1549.098 9        57.420 9  24975275.969 9 131245932.087 9     -1549.098 9        57.420 9  24975279.151 9  98008321.242 9     -1156.795 9        57.280 9  24975279.151 9  98008321.242 9     -1156.795 9        57.280 9  24975278.903 9 100565061.056 9     -1186.972 9        57.280 9  24975278.903 9 100565061.056 9     -1186.972 9        57.280 9  24975279.025 9  99286691.152 9     -1171.883 9        60.290 9  24975279.025 9  99286691.152 9     -1171.883 9        60.290 9
E15  27835523.673 9 146276617.495 9     -1868.436 9        56.360 9  27835523.673 9 146276617.495 9     -1868.436 9        56.360 9  27835528.803 9 109232531.510 9     -1395.261 9        56.220 9  27835528.803 9 109232531.510 9     -1395.261 9        56.220 9  27835528.403 9 112082077.421 9     -1431.659 9        56.220 9  27835528.403 9 112082077.421 9     -1431.659 9        56.220 9  27835528.599 9 110657304.471 9     -1413.460 9        59.230 9  27835528.599 9 110657304.471 9     -1413.460 9        59.230 9
E03  26313013.274 9 138275783.447 9      2460.586 9        56.977 9  26313013.274 9 138275783.447 9      2460.586 9        56.977 9  26313016.771 9 103257883.467 9      1837.451 9        56.837 9  26313016.771 9 103257883.467 9      1837.451 9        56.837 9  26313016.475 9 105951568.576 9      1885.385 9        56.837 9  26313016.475 9 105951568.576 9      1885.385 9        56.837 9  26313016.620 9 104604726.025 9      1861.418 9        59.847 9  26313016.620 9 104604726.025 9      1861.418 9        59.847 9
E24  24078889.325 9 126535393.694 9      1232.872 9        57.798 9  24078889.325 9 126535393.694 9      1232.872 9        57.798 9  24078890.342 9  94490705.993 9       920.651 9        57.658 9  24078890.342 9  94490705.993 9       920.651 9        57.658 9  24078890.139 9  96955681.751 9       944.668 9        57.658 9  24078890.139 9  96955681.751 9       944.668 9        57.658 9  24078890.239 9  95723193.875 9       932.660 9        60.668 9  24078890.239 9  95723193.875 9       932.660 9        60.668 9
> 2023 01 08 10 00 42.0000000  0 20       0.000000000000
G08  25077125.317 9 131781132.428 9     -1501.143 9        54.229 9  25077129.423 8 102686588.020 8     -1169.722 8        49.729 8  25077129.134 9  98407973.525 9     -1120.983 9        56.329 9
G13  20024277.510 9 105228267.535 9       565.013 9        56.114 9  20024276.545 8  81996038.083 8       440.270 8        51.614 8  20024279.096 9  78579544.209 9       421.925 9        58.214 9
G17  24955415.285 9 131141509.822 9      2930.771 9        54.189 9  24955418.204 8 102188159.768 8      2283.721 8        49.689 8  24955421.522 9  97930323.769 9      2188.567 9        56.289 9
G24  24511250.983 9 128807441.319 9      3529.353 9        54.419 9  24511254.724 8 100369423.912 8      2750.147 8        49.919 8  24511254.905 9  96187359.617 9      2635.557 9        56.519 9
G07  24613725.417 9 129345939.157 9     -2973.773 9        54.352 9  24613726.999 8 100789019.267 8     -2317.229 8        49.852 8  24613730.015 9  96589481.975 9     -2220.678 9        56.452 9
G18  24773927.678 9 130187823.056 9     -1381.219 9        54.334 9  24773928.859 8 101445038.779 8     -1076.275 8        49.834 8  24773931.119 9  97218166.052 9     -1031.430 9        56.434 9
G20  23534420.055 9 123674160.633 9     -3653.128 9        54.719 9  23534421.598 8  96369456.183 8     -2846.596 8        50.219 8  23534423.941 9  92354065.742 9     -2727.988 9        56.819 9
G14  20963022.692 9 110161403.274 9       109.688 9        55.781 9  20963022.665 8  85840042.036 8        85.471 8        51.281 8  20963024.542 9  82263378.304 9        81.910 9        57.881 9
G23  24852359.685 9 130599987.928 9      3220.853 9        54.296 9  24852360.749 8 101766206.689 8      2509.757 8        49.796 8  24852362.983 9  97525952.069 9      2405.184 9        56.396 9
G05  21755192.800 9 114324280.617 9     -2443.886 9        55.466 9  21755192.428 8  89083838.797 8     -1904.328 8        50.966 8  21755195.002 9  85372019.093 9     -1824.981 9        57.566 9
G30  21868749.454 9 114921025.053 9     -2269.763 9        55.471 9  21868751.961 8  89548846.344 8     -1768.647 8        50.971 8  21868751.642 9  85817639.995 9     -1694.954 9        57.571 9
G15  21106512.614 9 110915446.753 9      2283.311 9        55.715 9  21106512.116 8  86427605.875 8      1779.204 8        51.215 8  21106514.550 9  82826462.381 9      1705.070 9        57.815 9
E05  23311960.841 9 122505160.071 9       351.092 9        57.977 9  23311960.841 9 122505160.071 9       351.092 9        57.977 9  23311963.367 9  91481123.504 9       262.179 9        57.837 9  23311963.367 9  91481123.504 9       262.179 9        57.837 9  23311963.187 9  93867588.319 9       269.018 9        57.837 9  23311963.187 9  93867588.319 9       269.018 9        57.837 9  23311963.275 9  92674355.914 9       265.599 9        60.847 9  23311963.275 9  92674355.914 9       265.599 9        60.847 9
E09  25226254.810 9 132564831.581 9     -2101.452 9        57.362 9  25226254.810 9 132564831.581 9     -2101.452 9        57.362 9  25226257.738 9  98993210.811 9     -1569.267 9        57.222 9  25226257.738 9  98993210.811 9     -1569.267 9        57.222 9  25226257.462 9 101575643.507 9     -1610.205 9        57.222 9  25226257.462 9 101575643.507 9     -1610.205 9        57.222 9  25226257.597 9 100284427.162 9     -1589.736 9        60.232 9  25226257.597 9 100284427.162 9     -1589.736 9        60.232 9
E13  28145931.799 9 147907823.297 9       312.848 9        56.289 9  28145931.799 9 147907823.297 9       312.848 9        56.289 9  28145935.483 9 110450634.116 9       233.621 9        56.149 9  28145935.483 9 110450634.116 9       233.621 9        56.149 9  28145935.084 9 113331956.613 9       239.715 9        56.149 9  28145935.084 9 113331956.613 9       239.715 9        56.149 9  28145935.279 9 111891295.369 9       236.668 9        59.159 9  28145935.279 9 111891295.369 9       236.668 9        59.159 9
E25  27061474.716 9 142208959.014 9      3127.198 9        56.727 9  27061474.716 9 142208959.014 9      3127.198 9        56.727 9  27061479.575 9 106194991.047 9      2335.247 9        56.587 9  27061479.575 9 106194991.047 9      2335.247 9        56.587 9  27061479.143 9 108965296.902 9      2396.167 9        56.587 9  27061479.143 9 108965296.902 9      2396.167 9        56.587 9  27061479.355 9 107580143.980 9      2365.707 9        59.598 9  27061479.355 9 107580143.980 9      2365.707 9        59.598 9
E31  24975570.788 9 131247481.369 9     -1549.472 9        57.420 9  24975570.788 9 131247481.369 9     -1549.472 9        57.420 9  24975573.971 9  98009478.172 9     -1157.074 9        57.280 9  24975573.971 9  98009478.172 9     -1157.074 9        57.280 9  24975573.722 9 100566248.167 9     -1187.258 9        57.280 9  24975573.722 9 100566248.167 9     -1187.258 9        57.280 9  24975573.844 9  99287863.172 9     -1172.166 9        60.290 9  24975573.844 9  99287863.172 9     -1172.166 9        60.290 9
E15  27835879.257 9 146278486.102 9     -1868.782 9        56.360 9  27835879.257 9 146278486.102 9     -1868.782 9        56.360 9  27835884.388 9 109233926.898 9     -1395.520 9        56.220 9  27835884.388 9 109233926.898 9     -1395.520 9        56.220 9  27835883.988 9 112083509.210 9     -1431.925 9        56.220 9  27835883.988 9 112083509.210 9     -1431.925 9        56.220 9  27835884.184 9 110658718.059 9     -1413.722 9        59.230 9  27835884.184 9 110658718.059 9     -1413.722 9        59.230 9
E03  26312545.050 9 138273322.911 9      2460.487 9        56.977 9  26312545.050 9 138273322.911 9      2460.487 9        56.977 9  26312548.546 9 103256046.054 9      1837.377 9        56.837 9  26312548.546 9 103256046.054 9      1837.377 9        56.837 9  26312548.250 9 105949683.231 9      1885.309 9        56.837 9  26312548.250 9 105949683.231 9      1885.309 9        56.837 9  26312548.395 9 104602864.646 9      1861.343 9        59.847 9  26312548.395 9 104602864.646 9      1861.343 9        59.847 9
E24  24078654.758 9 126534161.040 9      1232.438 9        57.798 9  24078654.758 9 126534161.040 9      1232.438 9        57.798 9  24078655.776 9  94489785.505 9       920.327 9        57.658 9  24078655.776 9  94489785.505 9       920.327 9        57.658 9  24078655.572 9  96954737.251 9       944.336 9        57.658 9  24078655.572 9  96954737.251 9       944.336 9        57.658 9  24078655.672 9  95722261.380 9       932.331 9        60.668 9  24078655.672 9  95722261.380 9       932.331 9        60.668 9
> 2023 01 08 10 00 43.0000000  0 20       0.000000000000
G08  25077411.030 9 131782633.859 9     -1501.719 9        54.229 9  25077415.136 8 102687757.967 8     -1170.171 8        49.729 8  25077414.846 9  98409094.724 9     -1121.414 9        56.329 9
G13  20024170.037 9 105227702.759 9       564.538 9        56.114 9  20024169.072 8  81995597.998 8       439.900 8        51.614 8  20024171.622 9  78579122.461 9       421.570 9        58.214 9
G17  24954857.583 9 131138579.091 9      2930.723 9        54.189 9  24954860.501 8 102185876.085 8      2283.684 8        49.689 8  24954863.819 9  97928135.240 9      2188.531 9        56.289 9
G24  24510579.378 9 128803912.019 9      3529.248 9        54.419 9  24510583.119 8 100366673.810 8      2750.064 8        49.919 8  24510583.301 9  96184724.102 9      2635.479 9        56.519 9
G07  24614291.311 9 129348912.940 9     -2973.822 9        54.352 9  24614292.894 8 100791336.498 8     -2317.267 8        49.852 8  24614295.910 9  96591702.655 9     -2220.715 9        56.452 9
G18  24774190.566 9 130189204.536 9     -1381.744 9        54.334 9  24774191.746 8 101446115.256 8     -1076.684 8        49.834 8  24774194.007 9  97219197.676 9     -1031.823 9        56.434 9
G20  23535115.236 9 123677813.823 9     -3653.273 9        54.719 9  23535116.780 8  96372302.822 8     -2846.709 8        50.219 8  23535119.123 9  92356793.771 9     -2728.097 9        56.819 9
G14  20963001.882 9 110161293.915 9       109.029 9        55.781 9  20963001.855 8  85839956.822 8        84.958 8        51.281 8  20963003.732 9  82263296.640 9        81.418 9        57.881 9
G23  24851746.807 9 130596767.234 9      3220.542 9        54.297 9  24851747.870 8 101763697.059 8      2509.515 8        49.797 8  24851750.104 9  97523547.007 9      2404.952 9        56.397 9
G05  21755657.906 9 114326724.758 9     -2444.402 9        55.466 9  21755657.534 8  89085743.321 8     -1904.730 8        50.966 8  21755660.108 9  85373844.261 9     -1825.366 9        57.566 9
G30  21869181.401 9 114923294.944 9     -2270.030 9        55.471 9  21869183.907 8  89550615.090 8     -1768.856 8        50.971 8  21869183.589 9  85819335.042 9     -1695.154 9        57.571 9
G15  21106078.155 9 110913163.659 9      2282.878 9        55.715 9  21106077.657 8  86425826.842 8      1778.866 8        51.215 8  21106080.091 9  82824757.473 9      1704.747 9        57.815 9
E05  23311894.061 9 122504809.137 9       350.774 9        57.977 9  23311894.061 9 122504809.137 9       350.774 9        57.977 9  23311896.587 9  91480861.442 9       261.942 9        57.837 9  23311896.587 9  91480861.442 9       261.942 9        57.837 9  23311896.407 9  93867319.421 9       268.775 9        57.837 9  23311896.407 9  93867319.421 9       268.775 9        57.837 9  23311896.495 9  92674090.434 9       265.358 9        60.847 9  23311896.495 9  92674090.434 9       265.358 9        60.847 9
E09  25226654.725 9 132566933.145 9     -2101.687 9        57.362 9  25226654.725 9 132566933.145 9     -2101.687 9        57.362 9  25226657.653 9  98994780.159 9     -1569.443 9        57.222 9  25226657.653 9  98994780.159 9     -1569.443 9        57.222 9  25226657.378 9 101577253.795 9     -1610.385 9        57.222 9  25226657.378 9 101577253.795 9     -1610.385 9        57.222 9  25226657.513 9 100286016.981 9     -1589.914 9        60.232 9  25226657.513 9 100286016.981 9     -1589.914 9        60.232 9
E13  28145872.313 9 147907510.696 9       312.354 9        56.289 9  28145872.313 9 147907510.696 9       312.354 9        56.289 9  28145875.997 9 110450400.680 9       233.251 9        56.149 9  28145875.997 9 110450400.680 9       233.251 9        56.149 9  28145875.598 9 113331717.088 9       239.336 9        56.149 9  28145875.598 9 113331717.088 9       239.336 9        56.149 9  28145875.793 9 111891058.889 9       236.294 9        59.159 9  28145875.793 9 111891058.889 9       236.294 9        59.159 9
E25  27060879.641 9 142205831.881 9      3127.079 9        56.727 9  27060879.641 9 142205831.881 9      3127.079 9        56.727 9  27060884.500 9 106192655.852 9      2335.158 9        56.587 9  27060884.500 9 106192655.852 9      2335.158 9        56.587 9  27060884.068 9 108962900.788 9      2396.075 9        56.587 9  27060884.068 9 108962900.788 9      2396.075 9        56.587 9  27060884.280 9 107577778.326 9      2365.616 9        59.598 9  27060884.280 9 107577778.326 9      2365.616 9        59.598 9
E31  24975865.677 9 131249031.024 9     -1549.845 9        57.420 9  24975865.677 9 131249031.024 9     -1549.845 9        57.420 9  24975868.861 9  98010635.381 9     -1157.352 9        57.280 9  24975868.861 9  98010635.381 9     -1157.352 9        57.280 9  24975868.613 9 100567435.564 9     -1187.544 9        57.280 9  24975868.613 9 100567435.564 9     -1187.544 9        57.280 9  24975868.734 9  99289035.476 9     -1172.448 9        60.290 9  24975868.734 9  99289035.476 9     -1172.448 9        60.290 9
E15  27836234.908 9 146280355.056 9     -1869.128 9        56.359 9  27836234.908 9 146280355.056 9     -1869.128 9        56.359 9  27836240.038 9 109235322.544 9     -1395.778 9        56.220 9  27836240.038 9 109235322.544 9     -1395.778 9        56.220 9  27836239.638 9 112084941.264 9     -1432.190 9        56.220 9  27836239.638 9 112084941.264 9     -1432.190 9        56.220 9  27836239.835 9 110660131.909 9     -1413.984 9        59.230 9  27836239.835 9 110660131.909 9     -1413.984 9        59.230 9
E03  26312076.844 9 138270862.475 9      2460.387 9        56.977 9  26312076.844 9 138270862.475 9      2460.387 9        56.977 9  26312080.340 9 103254208.716 9      1837.303 9        56.837 9  26312080.340 9 103254208.716 9      1837.303 9        56.837 9  26312080.044 9 105947797.962 9      1885.232 9        56.837 9  26312080.044 9 105947797.962 9      1885.232 9        56.837 9  26312080.189 9 104601003.343 9      1861.268 9        59.847 9  26312080.189 9 104601003.343 9      1861.268 9        59.847 9
E24  24078420.275 9 126532928.820 9      1232.004 9        57.798 9  24078420.275 9 126532928.820 9      1232.004 9        57.798 9  24078421.292 9  94488865.341 9       920.003 9        57.658 9  24078421.292 9  94488865.341 9       920.003 9        57.658 9  24078421.089 9  96953793.082 9       944.003 9        57.658 9  24078421.089 9  96953793.082 9       944.003 9        57.658 9  24078421.188 9  95721329.214 9       932.003 9        60.668 9  24078421.188 9  95721329.214 9       932.003 9        60.668 9
> 2023 01 08 10 00 44.0000000  0 20       0.000000000000
G08  25077696.852 9 131784135.866 9     -1502.296 9        54.229 9  25077700.958 8 102688928.362 8     -1170.620 8        49.729 8  25077700.669 9  98410216.353 9     -1121.844 9        56.329 9
G13  20024062.654 9 105227138.458 9       564.063 9        56.114 9  20024061.689 8  81995158.283 8       439.530 8        51.614 8  20024064.240 9  78578701.067 9       421.216 9        58.214 9
G17  24954299.890 9 131135648.407 9      2930.675 9        54.189 9  24954302.807 8 102183592.439 8      2283.646 8        49.689 8  24954306.124 9  97925946.746 9      2188.495 9        56.289 9
G24  24509907.794 9 128800382.825 9      3529.143 9        54.419 9  24509911.535 8 100363923.790 8      2749.982 8        49.919 8  24509911.716 9  96182088.666 9      2635.400 9        56.519 9
G07  24614857.215 9 129351886.773 9     -2973.871 9        54.352 9  24614858.799 8 100793653.768 8     -2317.305 8        49.852 8  24614861.815 9  96593923.370 9     -2220.751 9        56.452 9
G18  24774453.553 9 130190586.541 9     -1382.269 9        54.334 9  24774454.734 8 101447192.143 8     -1077.094 8        49.834 8  24774456.995 9  97220229.692 9     -1032.215 9        56.434 9
G20  23535810.444 9 123681467.158 9     -3653.418 9        54.719 9  23535811.989 8  96375149.574 8     -2846.822 8        50.219 8  23535814.332 9  92359521.907 9     -2728.205 9        56.819 9
G14  20962981.197 9 110161185.216 9       108.370 9        55.781 9  20962981.170 8  85839872.120 8        84.444 8        51.281 8  20962983.047 9  82263215.468 9        80.926 9        57.881 9
G23  24851133.987 9 130593546.852 9      3220.231 9        54.297 9  24851135.050 8 101761187.671 8      2509.273 8        49.797 8  24851137.284 9  97521142.177 9      2404.720 9        56.397 9
G05  21756123.109 9 114329169.415 9     -2444.918 9        55.465 9  21756122.738 8  89087648.248 8     -1905.132 8        50.965 8  21756125.312 9  85375669.816 9     -1825.752 9        57.565 9
G30  21869613.398 9 114925565.103 9     -2270.298 9        55.471 9  21869615.905 8  89552384.043 8     -1769.064 8        50.971 8  21869615.586 9  85821030.289 9     -1695.353 9        57.571 9
G15  21105643.779 9 110910880.998 9      2282.445 9        55.716 9  21105643.280 8  86424048.145 8      1778.529 8        51.216 8  21105645.715 9  82823052.889 9      1704.424 9        57.816 9
E05  23311827.341 9 122504458.521 9       350.457 9        57.977 9  23311827.341 9 122504458.521 9       350.457 9        57.977 9  23311829.867 9  91480599.619 9       261.705 9        57.837 9  23311829.867 9  91480599.619 9       261.705 9        57.837 9  23311829.687 9  93867050.767 9       268.532 9        57.837 9  23311829.687 9  93867050.767 9       268.532 9        57.837 9  23311829.775 9  92673825.195 9       265.118 9        60.847 9  23311829.775 9  92673825.195 9       265.118 9        60.847 9
E09  25227054.685 9 132569034.943 9     -2101.922 9        57.361 9  25227054.685 9 132569034.943 9     -2101.922 9        57.361 9  25227057.614 9  98996349.683 9     -1569.618 9        57.222 9  25227057.614 9  98996349.683 9     -1569.618 9        57.222 9  25227057.338 9 101578864.263 9     -1610.564 9        57.222 9  25227057.338 9 101578864.263 9     -1610.564 9        57.222 9  25227057.473 9 100287606.976 9     -1590.091 9        60.232 9  25227057.473 9 100287606.976 9     -1590.091 9        60.232 9
E13  28145812.921 9 147907198.590 9       311.859 9        56.289 9  28145812.921 9 147907198.590 9       311.859 9        56.289 9  28145816.605 9 110450167.614 9       232.882 9        56.149 9  28145816.605 9 110450167.614 9       232.882 9        56.149 9  28145816.206 9 113331477.942 9       238.957 9        56.149 9  28145816.206 9 113331477.942 9       238.957 9        56.149 9  28145816.401 9 111890822.783 9       235.919 9        59.159 9  28145816.401 9 111890822.783 9       235.919 9        59.159 9
E25  27060284.589 9 142202704.867 9      3126.959 9        56.728 9  27060284.589 9 142202704.867 9      3126.959 9        56.728 9  27060289.448 9 106190320.746 9      2335.068 9        56.588 9  27060289.448 9 106190320.746 9      2335.068 9        56.588 9  27060289.016 9 108960504.766 9      2395.983 9        56.588 9  27060289.016 9 108960504.766 9      2395.983 9        56.588 9  27060289.227 9 107575412.762 9      2365.526 9        59.598 9  27060289.227 9 107575412.762 9      2365.526 9        59.598 9
E31  24976160.638 9 131250581.052 9     -1550.218 9        57.420 9  24976160.638 9 131250581.052 9     -1550.218 9        57.420 9  24976163.822 9  98011792.869 9     -1157.631 9        57.280 9  24976163.822 9  98011792.869 9     -1157.631 9        57.280 9  24976163.574 9 100568623.247 9     -1187.830 9        57.280 9  24976163.574 9 100568623.247 9     -1187.830 9        57.280 9  24976163.695 9  99290208.061 9     -1172.731 9        60.290 9  24976163.695 9  99290208.061 9     -1172.731 9        60.290 9
E15  27836590.625 9 146282224.355 9     -1869.474 9        56.359 9  27836590.625 9 146282224.355 9     -1869.474 9        56.359 9  27836595.755 9 109236718.449 9     -1396.037 9        56.220 9  27836595.755 9 109236718.449 9     -1396.037 9        56.220 9  27836595.355 9 112086373.584 9     -1432.455 9        56.220 9  27836595.355 9 112086373.584 9     -1432.455 9        56.220 9  27836595.551 9 110661546.021 9     -1414.246 9        59.230 9  27836595.551 9 110661546.021 9     -1414.246 9        59.230 9
E03  26311608.657 9 138268402.137 9      2460.288 9        56.977 9  26311608.657 9 138268402.137 9      2460.288 9        56.977 9  26311612.153 9 103252371.452 9      1837.229 9        56.837 9  26311612.153 9 103252371.452 9      1837.229 9        56.837 9  26311611.857 9 105945912.769 9      1885.156 9        56.837 9  26311611.857 9 105945912.769 9      1885.156 9        56.837 9  26311612.002 9 104599142.114 9      1861.192 9        59.847 9  26311612.002 9 104599142.114 9      1861.192 9        59.847 9
E24  24078185.873 9 126531697.035 9      1231.570 9        57.798 9  24078185.873 9 126531697.035 9      1231.570 9        57.798 9  24078186.891 9  94487945.502 9       919.679 9        57.658 9  24078186.891 9  94487945.502 9       919.679 9        57.658 9  24078186.687 9  96952849.247 9       943.670 9        57.658 9  24078186.687 9  96952849.247 9       943.670 9        57.658 9  24078186.787 9  95720397.377 9       931.675 9        60.668 9  24078186.787 9  95720397.377 9       931.675 9        60.668 9
