     3.04           OBSERVATION DATA    M: MIXED            RINEX VERSION / TYPE
PosApp V8.01.00     Spirent             20230108 100018 UTC PGM / RUN BY / DATE 
                                                            MARKER NAME         
GEODETIC                                                    MARKER TYPE         
gpssim              Spirent                                 OBSERVER / AGENCY   
rec_num             rec_type            rec_vers            REC # / TYPE / VERS 
1                   ant_type                                ANT # / TYPE        
     1.000                                                  INTERVAL            
  2023     1     8    10     0    0.0000000     GPS         TIME OF FIRST OBS   
  4156857.1196   673209.0288  4774767.0311                  APPROX POSITION XYZ 
        0.0000        0.0000        0.0000                  ANTENNA: DELTA H/E/N
G   12 C1C L1C D1C S1C C2X L2X D2X S2X C5I L5I D5I S5I      SYS / # / OBS TYPES 
E   32 C1B L1B D1B S1B C1C L1C D1C S1C C5I L5I D5I S5I C5Q  SYS / # / OBS TYPES 
       L5Q D5Q S5Q C7I L7I D7I S7I C7Q L7Q D7Q S7Q C8I L8I  SYS / # / OBS TYPES 
       D8I S8I C8Q L8Q D8Q S8Q                              SYS / # / OBS TYPES 
GNSS SIMULATOR OUTPUTS ALIGNED CARRIER PHASES.              COMMENT             
NO FURTHER PHASE SHIFTS APPLIED IN THE RINEX ENCODER.       COMMENT             
G L1C                                                       SYS / PHASE SHIFT   
G L2X  0.00000                                              SYS / PHASE SHIFT   
G L5I                                                       SYS / PHASE SHIFT   
E L1B                                                       SYS / PHASE SHIFT   
E L1C  0.00000                                              SYS / PHASE SHIFT   
E L5I                                                       SYS / PHASE SHIFT   
E L5Q  0.00000                                              SYS / PHASE SHIFT   
E L7I                                                       SYS / PHASE SHIFT   
E L7Q  0.00000                                              SYS / PHASE SHIFT   
E L8I                                                       SYS / PHASE SHIFT   
E L8Q  0.00000                                              SYS / PHASE SHIFT   
DBHZ                                                        SIGNAL STRENGTH UNIT
                                                            END OF HEADER       
> 2023 01 08 10 00  0.0000000  0 20       0.000000000000
G08  25064360.368 9 131714052.132 9     -1477.809 9        54.233 9  25064364.477 8 102634317.650 8     -1151.540 8        49.733 8  25064364.188 9  98357881.085 9     -1103.559 9        56.333 9
G13  20029160.452 9 105253927.576 9       586.180 9        56.112 9  20029159.487 8  82016032.922 8       456.763 8        51.612 8  20029162.037 9  78598705.930 9       437.732 9        58.212 9
G17  24977204.845 9 131256014.191 9      2932.950 9        54.181 9  24977207.798 8 102277383.814 8      2285.416 8        49.681 8  24977211.123 9  98015830.117 9      2190.190 9        56.281 9
G24  24541405.147 9 128965902.308 9      3533.697 9        54.408 9  24541408.902 8 100492899.953 8      2753.530 8        49.908 8  24541409.087 9  96305690.810 9      2638.800 9        56.508 9
G07  24588116.326 9 129211362.948 9     -2971.251 9        54.361 9  24588117.879 8 100684154.808 8     -2315.261 8        49.861 8  24588120.888 9  96488986.894 9     -2218.792 9        56.461 9
G18  24764700.723 9 130139335.180 9     -1359.712 9        54.337 9  24764701.898 8 101407256.043 8     -1059.516 8        49.837 8  24764704.157 9  97181957.602 9     -1015.369 9        56.437 9
G20  23505647.589 9 123522960.745 9     -3646.654 9        54.730 9  23505649.106 8  96251638.200 8     -2841.548 8        50.230 8  23505651.442 9  92241156.865 9     -2723.151 9        56.830 9
G14  20962992.826 9 110161246.338 9       137.559 9        55.781 9  20962992.798 8  85839919.751 8       107.189 8        51.281 8  20962994.675 9  82263261.115 9       102.723 9        57.881 9
G23  24879225.571 9 130741168.867 9      3233.422 9        54.287 9  24879226.650 8 101876217.749 8      2519.550 8        49.787 8  24879228.887 9  97631379.322 9      2414.569 9        56.387 9
G05  21736645.368 9 114226813.365 9     -2421.983 9        55.473 9  21736644.986 8  89007890.330 8     -1887.259 8        50.973 8  21736647.558 9  85299235.154 9     -1808.623 9        57.573 9
G30  21849344.128 9 114819049.546 9     -2257.507 9        55.479 9  21849346.624 8  89469384.952 8     -1759.096 8        50.979 8  21849346.303 9  85741489.503 9     -1685.801 9        57.579 9
G15  21126022.334 9 111017970.938 9      2302.241 9        55.707 9  21126021.841 8  86507494.829 8      1793.954 8        51.207 8  21126024.276 9  82903022.623 9      1719.206 9        57.807 9
E05  23315086.740 9 122521586.793 9       365.180 9        57.976 9  23315086.740 9 122521586.793 9       365.180 9        57.976 9  23315089.264 9  91493390.215 9       272.699 9        57.836 9  23315089.264 9  91493390.215 9       272.699 9        57.836 9  23315089.085 9  93880175.031 9       279.813 9        57.836 9  23315089.085 9  93880175.031 9       279.813 9        57.836 9  23315089.173 9  92686782.626 9       276.256 9        60.846 9  23315089.173 9  92686782.626 9       276.256 9        60.846 9
E09  25208260.664 9 132470271.888 9     -2091.364 9        57.368 9  25208260.664 9 132470271.888 9     -2091.364 9        57.368 9  25208263.578 9  98922598.107 9     -1561.733 9        57.228 9  25208263.578 9  98922598.107 9     -1561.733 9        57.228 9  25208263.304 9 101503188.726 9     -1602.474 9        57.228 9  25208263.304 9 101503188.726 9     -1602.474 9        57.228 9  25208263.439 9 100212893.420 9     -1582.104 9        60.238 9  25208263.439 9 100212893.420 9     -1582.104 9        60.238 9
E13  28149083.589 9 147924386.035 9       332.726 9        56.288 9  28149083.589 9 147924386.035 9       332.726 9        56.288 9  28149087.275 9 110463002.385 9       248.464 9        56.148 9  28149087.275 9 110463002.385 9       248.464 9        56.148 9  28149086.876 9 113344647.534 9       254.946 9        56.148 9  28149086.876 9 113344647.534 9       254.946 9        56.148 9  28149087.072 9 111903824.965 9       251.705 9        59.158 9  28149087.072 9 111903824.965 9       251.705 9        59.158 9
E25  27087118.894 9 142343719.808 9      3132.032 9        56.719 9  27087118.894 9 142343719.808 9      3132.032 9        56.719 9  27087123.774 9 106295624.027 9      2338.855 9        56.579 9  27087123.774 9 106295624.027 9      2338.855 9        56.579 9  27087123.340 9 109068555.099 9      2399.869 9        56.579 9  27087123.340 9 109068555.099 9      2399.869 9        56.579 9  27087123.553 9 107682089.569 9      2369.362 9        59.589 9  27087123.553 9 107682089.569 9      2369.362 9        59.589 9
E31  24962031.534 9 131176332.216 9     -1533.638 9        57.425 9  24962031.534 9 131176332.216 9     -1533.638 9        57.425 9  24962034.710 9  97956347.341 9     -1145.249 9        57.285 9  24962034.710 9  97956347.341 9     -1145.249 9        57.285 9  24962034.463 9 100511731.311 9     -1175.125 9        57.285 9  24962034.463 9 100511731.311 9     -1175.125 9        57.285 9  24962034.584 9  99234039.329 9     -1160.187 9        60.295 9  24962034.584 9  99234039.329 9     -1160.187 9        60.295 9
E15  27822797.150 9 146209739.280 9     -1854.604 9        56.364 9  27822797.150 9 146209739.280 9     -1854.604 9        56.364 9  27822802.271 9 109182590.021 9     -1384.932 9        56.224 9  27822802.271 9 109182590.021 9     -1384.932 9        56.224 9  27822801.872 9 112030833.106 9     -1421.060 9        56.224 9  27822801.872 9 112030833.106 9     -1421.060 9        56.224 9  27822802.068 9 110606711.568 9     -1402.996 9        59.234 9  27822802.068 9 110606711.568 9     -1402.996 9        59.234 9
E03  26333749.040 9 138384750.523 9      2465.148 9        56.970 9  26333749.040 9 138384750.523 9      2465.148 9        56.970 9  26333752.546 9 103339254.952 9      1840.857 9        56.830 9  26333752.546 9 103339254.952 9      1840.857 9        56.830 9  26333752.248 9 106035062.800 9      1888.880 9        56.830 9  26333752.248 9 106035062.800 9      1888.880 9        56.830 9  26333752.394 9 104687158.880 9      1864.869 9        59.840 9  26333752.394 9 104687158.880 9      1864.869 9        59.840 9
E24  24088126.661 9 126583936.194 9      1250.762 9        57.794 9  24088126.661 9 126583936.194 9      1250.762 9        57.794 9  24088127.681 9  94526955.253 9       934.011 9        57.654 9  24088127.681 9  94526955.253 9       934.011 9        57.654 9  24088127.478 9  96992876.645 9       958.376 9        57.654 9  24088127.478 9  96992876.645 9       958.376 9        57.654 9  24088127.578 9  95759915.952 9       946.193 9        60.665 9  24088127.578 9  95759915.952 9       946.193 9        60.665 9
> 2023 01 08 10 00  1.0000000  0 20       0.000000000000
G08  25064641.647 9 131715530.261 9     -1478.419 9        54.233 9  25064645.755 8 102635469.439 8     -1152.014 8        49.733 8  25064645.466 9  98358984.883 9     -1104.014 9        56.333 9
G13  20029048.951 9 105253341.633 9       585.706 9        56.112 9  20029047.986 8  82015576.343 8       456.395 8        51.612 8  20029050.536 9  78598268.374 9       437.378 9        58.212 9
G17  24976646.700 9 131253081.132 9      2933.053 9        54.182 9  24976649.652 8 102275098.317 8      2285.499 8        49.682 8  24976652.977 9  98013639.850 9      2190.271 9        56.282 9
G24  24540732.707 9 128962368.613 9      3533.644 9        54.408 9  24540736.461 8 100490146.426 8      2753.490 8        49.908 8  24540736.646 9  96303052.014 9      2638.761 9        56.508 9
G07  24588681.748 9 129214334.252 9     -2971.343 9        54.361 9  24588683.302 8 100686470.107 8     -2315.335 8        49.861 8  24588686.312 9  96491205.722 9     -2218.863 9        56.461 9
G18  24764959.522 9 130140695.174 9     -1360.260 9        54.337 9  24764960.697 8 101408315.778 8     -1059.944 8        49.837 8  24764962.956 9  97182973.182 9     -1015.780 9        56.437 9
G20  23506341.542 9 123526607.483 9     -3646.822 9        54.730 9  23506343.060 8  96254479.811 8     -2841.682 8        50.230 8  23506345.396 9  92243880.075 9     -2723.279 9        56.830 9
G14  20962966.712 9 110161109.108 9       136.900 9        55.781 9  20962966.684 8  85839812.819 8       106.675 8        51.281 8  20962968.561 9  82263158.638 9       102.230 9        57.881 9
G23  24878610.290 9 130737935.552 9      3233.165 9        54.287 9  24878611.369 8 101873698.284 8      2519.351 8        49.787 8  24878613.606 9  97628964.835 9      2414.378 9        56.387 9
G05  21737106.307 9 114229235.609 9     -2422.507 9        55.473 9  21737105.925 8  89009777.792 8     -1887.669 8        50.973 8  21737108.497 9  85301043.971 9     -1809.016 9        57.573 9
G30  21849773.744 9 114821307.186 9     -2257.781 9        55.479 9  21849776.240 8  89471144.152 8     -1759.311 8        50.979 8  21849775.919 9  85743175.402 9     -1686.006 9        57.579 9
G15  21125584.272 9 111015668.909 9      2301.815 9        55.707 9  21125583.779 8  86505701.040 8      1793.623 8        51.207 8  21125586.214 9  82901303.576 9      1718.888 9        57.807 9
E05  23315017.278 9 122521221.771 9       364.863 9        57.976 9  23315017.278 9 122521221.771 9       364.863 9        57.976 9  23315019.803 9  91493117.634 9       272.463 9        57.836 9  23315019.803 9  91493117.634 9       272.463 9        57.836 9  23315019.623 9  93879895.339 9       279.570 9        57.836 9  23315019.623 9  93879895.339 9       279.570 9        57.836 9  23315019.712 9  92686506.489 9       276.016 9        60.846 9  23315019.712 9  92686506.489 9       276.016 9        60.846 9
E09  25208658.661 9 132472363.369 9     -2091.604 9        57.368 9  25208658.661 9 132472363.369 9     -2091.604 9        57.368 9  25208661.575 9  98924159.925 9     -1561.913 9        57.228 9  25208661.575 9  98924159.925 9     -1561.913 9        57.228 9  25208661.301 9 101504791.288 9     -1602.659 9        57.228 9  25208661.301 9 101504791.288 9     -1602.659 9        57.228 9  25208661.435 9 100214475.610 9     -1582.286 9        60.238 9  25208661.435 9 100214475.610 9     -1582.286 9        60.238 9
E13  28149020.319 9 147924053.548 9       332.241 9        56.288 9  28149020.319 9 147924053.548 9       332.241 9        56.288 9  28149024.005 9 110462754.099 9       248.102 9        56.148 9  28149024.005 9 110462754.099 9       248.102 9        56.148 9  28149023.605 9 113344392.771 9       254.575 9        56.148 9  28149023.605 9 113344392.771 9       254.575 9        56.148 9  28149023.801 9 111903573.440 9       251.338 9        59.158 9  28149023.801 9 111903573.440 9       251.338 9        59.158 9
E25  27086522.896 9 142340587.825 9      3131.929 9        56.719 9  27086522.896 9 142340587.825 9      3131.929 9        56.719 9  27086527.776 9 106293285.210 9      2338.780 9        56.579 9  27086527.776 9 106293285.210 9      2338.780 9        56.579 9  27086527.341 9 109066155.269 9      2399.792 9        56.579 9  27086527.341 9 109066155.269 9      2399.792 9        56.579 9  27086527.554 9 107679720.245 9      2369.286 9        59.589 9  27086527.554 9 107679720.245 9      2369.286 9        59.589 9
E31  24962323.412 9 131177866.041 9     -1534.016 9        57.425 9  24962323.412 9 131177866.041 9     -1534.016 9        57.425 9  24962326.588 9  97957492.729 9     -1145.532 9        57.285 9  24962326.588 9  97957492.729 9     -1145.532 9        57.285 9  24962326.340 9 100512906.579 9     -1175.416 9        57.285 9  24962326.340 9 100512906.579 9     -1175.416 9        57.285 9  24962326.462 9  99235199.657 9     -1160.474 9        60.295 9  24962326.462 9  99235199.657 9     -1160.474 9        60.295 9
E15  27823150.109 9 146211594.089 9     -1854.985 9        56.364 9  27823150.109 9 146211594.089 9     -1854.985 9        56.364 9  27823155.230 9 109183975.104 9     -1385.217 9        56.224 9  27823155.230 9 109183975.104 9     -1385.217 9        56.224 9  27823154.831 9 112032254.322 9     -1421.353 9        56.224 9  27823154.831 9 112032254.322 9     -1421.353 9        56.224 9  27823155.027 9 110608114.718 9     -1403.285 9        59.234 9  27823155.027 9 110608114.718 9     -1403.285 9        59.234 9
E03  26333279.946 9 138382285.419 9      2465.056 9        56.970 9  26333279.946 9 138382285.419 9      2465.056 9        56.970 9  26333283.451 9 103337414.128 9      1840.789 9        56.830 9  26333283.451 9 103337414.128 9      1840.789 9        56.830 9  26333283.154 9 106033173.954 9      1888.810 9        56.830 9  26333283.154 9 106033173.954 9      1888.810 9        56.830 9  26333283.300 9 104685294.045 9      1864.800 9        59.840 9  26333283.300 9 104685294.045 9      1864.800 9        59.840 9
E24  24087888.690 9 126582685.648 9      1250.330 9        57.794 9  24087888.690 9 126582685.648 9      1250.330 9        57.794 9  24087889.710 9  94526021.404 9       933.688 9        57.655 9  24087889.710 9  94526021.404 9       933.688 9        57.655 9  24087889.507 9  96991918.435 9       958.045 9        57.655 9  24087889.507 9  96991918.435 9       958.045 9        57.655 9  24087889.606 9  95758969.922 9       945.867 9        60.665 9  24087889.606 9  95758969.922 9       945.867 9        60.665 9
> 2023 01 08 10 00  2.0000000  0 20       0.000000000000
G08  25064923.036 9 131717008.969 9     -1478.997 9        54.233 9  25064927.144 8 102636621.679 8     -1152.465 8        49.733 8  25064926.855 9  98360089.113 9     -1104.446 9        56.333 9
G13  20028937.539 9 105252756.162 9       585.233 9        56.112 9  20028936.575 8  82015120.132 8       456.026 8        51.612 8  20028939.125 9  78597831.173 9       437.025 9        58.212 9
G17  24976088.563 9 131250148.117 9      2933.009 9        54.182 9  24976091.514 8 102272812.854 8      2285.465 8        49.682 8  24976094.839 9  98011449.615 9      2190.238 9        56.282 9
G24  24540060.286 9 128958835.022 9      3533.540 9        54.409 9  24540064.040 8 100487392.980 8      2753.409 8        49.909 8  24540064.225 9  96300413.295 9      2638.684 9        56.509 9
G07  24589247.180 9 129217305.606 9     -2971.393 9        54.361 9  24589248.735 8 100688785.445 8     -2315.374 8        49.861 8  24589251.744 9  96493424.587 9     -2218.901 9        56.461 9
G18  24765218.422 9 130142055.697 9     -1360.789 9        54.337 9  24765219.596 8 101409375.926 8     -1060.356 8        49.837 8  24765221.856 9  97183989.156 9     -1016.174 9        56.437 9
G20  23507035.524 9 123530254.369 9     -3646.971 9        54.730 9  23507037.042 8  96257321.538 8     -2841.799 8        50.230 8  23507039.378 9  92246603.396 9     -2723.391 9        56.830 9
G14  20962940.724 9 110160972.537 9       136.241 9        55.782 9  20962940.696 8  85839706.400 8       106.162 8        51.282 8  20962942.572 9  82263056.654 9       101.738 9        57.882 9
G23  24877995.068 9 130734702.544 9      3232.859 9        54.287 9  24877996.147 8 101871179.058 8      2519.112 8        49.787 8  24877998.384 9  97626550.577 9      2414.150 9        56.387 9
G05  21737567.344 9 114231658.373 9     -2423.027 9        55.473 9  21737566.963 8  89011665.659 8     -1888.074 8        50.973 8  21737569.534 9  85302853.177 9     -1809.404 9        57.573 9
G30  21850203.410 9 114823565.096 9     -2258.050 9        55.479 9  21850205.907 8  89472903.561 8     -1759.521 8        50.979 8  21850205.586 9  85744861.503 9     -1686.207 9        57.579 9
G15  21125146.292 9 111013367.309 9      2301.386 9        55.708 9  21125145.798 8  86503907.586 8      1793.288 8        51.208 8  21125148.234 9  82899584.849 9      1718.568 9        57.808 9
E05  23314947.877 9 122520857.065 9       364.547 9        57.976 9  23314947.877 9 122520857.065 9       364.547 9        57.976 9  23314950.402 9  91492845.289 9       272.226 9        57.836 9  23314950.402 9  91492845.289 9       272.226 9        57.836 9  23314950.222 9  93879615.889 9       279.328 9        57.836 9  23314950.222 9  93879615.889 9       279.328 9        57.836 9  23314950.311 9  92686230.591 9       275.777 9        60.846 9  23314950.311 9  92686230.591 9       275.777 9        60.846 9
E09  25209056.702 9 132474455.085 9     -2091.839 9        57.368 9  25209056.702 9 132474455.085 9     -2091.839 9        57.368 9  25209059.617 9  98925721.920 9     -1562.089 9        57.228 9  25209059.617 9  98925721.920 9     -1562.089 9        57.228 9  25209059.342 9 101506394.031 9     -1602.839 9        57.228 9  25209059.342 9 101506394.031 9     -1602.839 9        57.228 9  25209059.477 9 100216057.979 9     -1582.464 9        60.238 9  25209059.477 9 100216057.979 9     -1582.464 9        60.238 9
E13  28148957.142 9 147923721.554 9       331.747 9        56.288 9  28148957.142 9 147923721.554 9       331.747 9        56.288 9  28148960.828 9 110462506.182 9       247.733 9        56.148 9  28148960.828 9 110462506.182 9       247.733 9        56.148 9  28148960.429 9 113344138.387 9       254.196 9        56.148 9  28148960.429 9 113344138.387 9       254.196 9        56.148 9  28148960.625 9 111903322.289 9       250.964 9        59.158 9  28148960.625 9 111903322.289 9       250.964 9        59.158 9
E25  27085926.921 9 142337455.959 9      3131.811 9        56.719 9  27085926.921 9 142337455.959 9      3131.811 9        56.719 9  27085931.800 9 106290946.482 9      2338.692 9        56.579 9  27085931.800 9 106290946.482 9      2338.692 9        56.579 9  27085931.366 9 109063755.530 9      2399.701 9        56.579 9  27085931.366 9 109063755.530 9      2399.701 9        56.579 9  27085931.579 9 107677351.011 9      2369.197 9        59.590 9  27085931.579 9 107677351.011 9      2369.197 9        59.590 9
E31  24962615.361 9 131179400.241 9     -1534.391 9        57.424 9  24962615.361 9 131179400.241 9     -1534.391 9        57.424 9  24962618.537 9  97958638.398 9     -1145.812 9        57.285 9  24962618.537 9  97958638.398 9     -1145.812 9        57.285 9  24962618.290 9 100514082.134 9     -1175.703 9        57.285 9  24962618.290 9 100514082.134 9     -1175.703 9        57.285 9  24962618.411 9  99236360.269 9     -1160.758 9        60.295 9  24962618.411 9  99236360.269 9     -1160.758 9        60.295 9
E15  27823503.134 9 146213449.247 9     -1855.333 9        56.363 9  27823503.134 9 146213449.247 9     -1855.333 9        56.363 9  27823508.256 9 109185360.448 9     -1385.477 9        56.224 9  27823508.256 9 109185360.448 9     -1385.477 9        56.224 9  27823507.857 9 112033675.806 9     -1421.620 9        56.224 9  27823507.857 9 112033675.806 9     -1421.620 9        56.224 9  27823508.052 9 110609518.132 9     -1403.549 9        59.234 9  27823508.052 9 110609518.132 9     -1403.549 9        59.234 9
E03  26332810.870 9 138379820.411 9      2464.958 9        56.970 9  26332810.870 9 138379820.411 9      2464.958 9        56.970 9  26332814.375 9 103335573.376 9      1840.716 9        56.830 9  26332814.375 9 103335573.376 9      1840.716 9        56.830 9  26332814.078 9 106031285.183 9      1888.735 9        56.830 9  26332814.078 9 106031285.183 9      1888.735 9        56.830 9  26332814.224 9 104683429.283 9      1864.726 9        59.840 9  26332814.224 9 104683429.283 9      1864.726 9        59.840 9
E24  24087650.802 9 126581435.536 9      1249.897 9        57.795 9  24087650.802 9 126581435.536 9      1249.897 9        57.795 9  24087651.822 9  94525087.879 9       933.365 9        57.655 9  24087651.822 9  94525087.879 9       933.365 9        57.655 9  24087651.618 9  96990960.557 9       957.713 9        57.655 9  24087651.618 9  96990960.557 9       957.713 9        57.655 9  24087651.718 9  95758024.221 9       945.539 9        60.665 9  24087651.718 9  95758024.221 9       945.539 9        60.665 9
> 2023 01 08 10 00  3.0000000  0 20       0.000000000000
G08  25065204.534 9 131718488.255 9     -1479.576 9        54.233 9  25065208.642 8 102637774.370 8     -1152.916 8        49.733 8  25065208.353 9  98361193.775 9     -1104.878 9        56.333 9
G13  20028826.218 9 105252171.166 9       584.760 9        56.112 9  20028825.253 8  82014664.290 8       455.657 8        51.612 8  20028827.804 9  78597394.324 9       436.671 9        58.212 9
G17  24975530.435 9 131247215.145 9      2932.966 9        54.182 9  24975533.385 8 102270527.425 8      2285.431 8        49.682 8  24975536.710 9  98009259.413 9      2190.206 9        56.282 9
G24  24539387.885 9 128955301.535 9      3533.437 9        54.409 9  24539391.638 8 100484639.614 8      2753.328 8        49.909 8  24539391.823 9  96297774.653 9      2638.607 9        56.509 9
G07  24589812.622 9 129220277.011 9     -2971.444 9        54.361 9  24589814.177 8 100691100.823 8     -2315.413 8        49.861 8  24589817.187 9  96495643.490 9     -2218.938 9        56.461 9
G18  24765477.422 9 130143416.749 9     -1361.317 9        54.337 9  24765478.597 8 101410436.484 8     -1060.767 8        49.837 8  24765480.856 9  97185005.524 9     -1016.569 9        56.437 9
G20  23507729.534 9 123533901.405 9     -3647.121 9        54.729 9  23507731.052 8  96260163.381 8     -2841.915 8        50.229 8  23507733.389 9  92249326.829 9     -2723.502 9        56.829 9
G14  20962914.861 9 110160836.625 9       135.582 9        55.782 9  20962914.833 8  85839600.495 8       105.648 8        51.282 8  20962916.709 9  82262955.161 9       101.246 9        57.882 9
G23  24877379.904 9 130731469.842 9      3232.552 9        54.288 9  24877380.982 8 101868660.071 8      2518.873 8        49.788 8  24877383.220 9  97624136.548 9      2413.921 9        56.388 9
G05  21738028.480 9 114234081.657 9     -2423.547 9        55.473 9  21738028.099 8  89013553.931 8     -1888.479 8        50.973 8  21738030.671 9  85304662.771 9     -1809.793 9        57.573 9
G30  21850633.128 9 114825823.275 9     -2258.320 9        55.478 9  21850635.625 8  89474663.180 8     -1759.731 8        50.978 8  21850635.304 9  85746547.804 9     -1686.409 9        57.578 9
G15  21124708.393 9 111011066.138 9      2300.956 9        55.708 9  21124707.900 8  86502114.467 8      1792.953 8        51.208 8  21124710.335 9  82897866.443 9      1718.247 9        57.808 9
E05  23314878.537 9 122520492.677 9       364.230 9        57.976 9  23314878.537 9 122520492.677 9       364.230 9        57.976 9  23314881.061 9  91492573.180 9       271.990 9        57.836 9  23314881.061 9  91492573.180 9       271.990 9        57.836 9  23314880.882 9  93879336.682 9       279.085 9        57.836 9  23314880.882 9  93879336.682 9       279.085 9        57.836 9  23314880.970 9  92685954.934 9       275.537 9        60.846 9  23314880.970 9  92685954.934 9       275.537 9        60.846 9
E09  25209454.788 9 132476547.036 9     -2092.075 9        57.368 9  25209454.788 9 132476547.036 9     -2092.075 9        57.368 9  25209457.703 9  98927284.090 9     -1562.265 9        57.228 9  25209457.703 9  98927284.090 9     -1562.265 9        57.228 9  25209457.429 9 101507996.953 9     -1603.019 9        57.228 9  25209457.429 9 101507996.953 9     -1603.019 9        57.228 9  25209457.563 9 100217640.525 9     -1582.642 9        60.238 9  25209457.563 9 100217640.525 9     -1582.642 9        60.238 9
E13  28148894.060 9 147923390.055 9       331.252 9        56.288 9  28148894.060 9 147923390.055 9       331.252 9        56.288 9  28148897.746 9 110462258.634 9       247.364 9        56.148 9  28148897.746 9 110462258.634 9       247.364 9        56.148 9  28148897.347 9 113343884.381 9       253.817 9        56.148 9  28148897.347 9 113343884.381 9       253.817 9        56.148 9  28148897.542 9 111903071.513 9       250.590 9        59.158 9  28148897.542 9 111903071.513 9       250.590 9        59.158 9
E25  27085330.968 9 142334324.212 9      3131.694 9        56.719 9  27085330.968 9 142334324.212 9      3131.694 9        56.719 9  27085335.847 9 106288607.841 9      2338.604 9        56.580 9  27085335.847 9 106288607.841 9      2338.604 9        56.580 9  27085335.412 9 109061355.881 9      2399.611 9        56.580 9  27085335.412 9 109061355.881 9      2399.611 9        56.580 9  27085335.625 9 107674981.866 9      2369.108 9        59.590 9  27085335.625 9 107674981.866 9      2369.108 9        59.590 9
E31  24962907.382 9 131180934.817 9     -1534.767 9        57.424 9  24962907.382 9 131180934.817 9     -1534.767 9        57.424 9  24962910.557 9  97959784.346 9     -1146.093 9        57.284 9  24962910.557 9  97959784.346 9     -1146.093 9        57.284 9  24962910.310 9 100515257.977 9     -1175.991 9        57.284 9  24962910.310 9 100515257.977 9     -1175.991 9        57.284 9  24962910.431 9  99237521.165 9     -1161.042 9        60.295 9  24962910.431 9  99237521.165 9     -1161.042 9        60.295 9
E15  27823856.226 9 146215304.753 9     -1855.682 9        56.363 9  27823856.226 9 146215304.753 9     -1855.682 9        56.363 9  27823861.348 9 109186746.053 9     -1385.738 9        56.223 9  27823861.348 9 109186746.053 9     -1385.738 9        56.223 9  27823860.949 9 112035097.556 9     -1421.887 9        56.223 9  27823860.949 9 112035097.556 9     -1421.887 9        56.223 9  27823861.144 9 110610921.810 9     -1403.812 9        59.234 9  27823861.144 9 110610921.810 9     -1403.812 9        59.234 9
E03  26332341.813 9 138377355.502 9      2464.861 9        56.970 9  26332341.813 9 138377355.502 9      2464.861 9        56.970 9  26332345.318 9 103333732.698 9      1840.643 9        56.830 9  26332345.318 9 103333732.698 9      1840.643 9        56.830 9  26332345.021 9 106029396.487 9      1888.660 9        56.830 9  26332345.021 9 106029396.487 9      1888.660 9        56.830 9  26332345.167 9 104681564.596 9      1864.652 9        59.841 9  26332345.167 9 104681564.596 9      1864.652 9        59.841 9
E24  24087412.996 9 126580185.857 9      1249.463 9        57.795 9  24087412.996 9 126580185.857 9      1249.463 9        57.795 9  24087414.015 9  94524154.678 9       933.041 9        57.655 9  24087414.015 9  94524154.678 9       933.041 9        57.655 9  24087413.812 9  96990003.011 9       957.381 9        57.655 9  24087413.812 9  96990003.011 9       957.381 9        57.655 9  24087413.912 9  95757078.847 9       945.211 9        60.665 9  24087413.912 9  95757078.847 9       945.211 9        60.665 9
> 2023 01 08 10 00  4.0000000  0 20       0.000000000000
G08  25065486.143 9 131719968.120 9     -1480.154 9        54.233 9  25065490.251 8 102638927.511 8     -1153.367 8        49.733 8  25065489.962 9  98362298.869 9     -1105.310 9        56.333 9
G13  20028714.987 9 105251586.643 9       584.286 9        56.112 9  20028714.022 8  82014208.818 8       455.288 8        51.612 8  20028716.573 9  78596957.830 9       436.317 9        58.212 9
G17  24974972.315 9 131244282.217 9      2932.922 9        54.182 9  24974975.264 8 102268242.030 8      2285.397 8        49.682 8  24974978.588 9  98007069.244 9      2190.173 9        56.282 9
G24  24538715.503 9 128951768.151 9      3533.333 9        54.409 9  24538719.257 8 100481886.329 8      2753.248 8        49.909 8  24538719.441 9  96295136.089 9      2638.529 9        56.509 9
G07  24590378.073 9 129223248.466 9     -2971.494 9        54.361 9  24590379.629 8 100693416.239 8     -2315.453 8        49.861 8  24590382.639 9  96497862.430 9     -2218.976 9        56.461 9
G18  24765736.522 9 130144778.328 9     -1361.845 9        54.337 9  24765737.697 8 101411497.455 8     -1061.179 8        49.837 8  24765739.956 9  97186022.288 9     -1016.963 9        56.437 9
G20  23508423.572 9 123537548.590 9     -3647.270 9        54.729 9  23508425.091 8  96263005.341 8     -2842.031 8        50.229 8  23508427.428 9  92252050.373 9     -2723.614 9        56.829 9
G14  20962889.123 9 110160701.373 9       134.923 9        55.782 9  20962889.095 8  85839495.103 8       105.135 8        51.282 8  20962890.971 9  82262854.160 9       100.754 9        57.882 9
G23  24876764.799 9 130728237.446 9      3232.246 9        54.288 9  24876765.877 8 101866141.323 8      2518.634 8        49.788 8  24876768.114 9  97621722.748 9      2413.692 9        56.388 9
G05  21738489.716 9 114236505.461 9     -2424.067 9        55.472 9  21738489.335 8  89015442.608 8     -1888.884 8        50.972 8  21738491.907 9  85306472.753 9     -1810.181 9        57.572 9
G30  21851062.898 9 114828081.724 9     -2258.589 9        55.478 9  21851065.395 8  89476423.010 8     -1759.941 8        50.978 8  21851065.074 9  85748234.307 9     -1686.610 9        57.578 9
G15  21124270.576 9 111008765.397 9      2300.527 9        55.708 9  21124270.083 8  86500321.682 8      1792.619 8        51.208 8  21124272.518 9  82896148.358 9      1717.926 9        57.808 9
E05  23314809.256 9 122520128.604 9       363.913 9        57.976 9  23314809.256 9 122520128.604 9       363.913 9        57.976 9  23314811.781 9  91492301.308 9       271.753 9        57.836 9  23314811.781 9  91492301.308 9       271.753 9        57.836 9  23314811.601 9  93879057.718 9       278.843 9        57.836 9  23314811.601 9  93879057.718 9       278.843 9        57.836 9  23314811.689 9  92685679.515 9       275.298 9        60.846 9  23314811.689 9  92685679.515 9       275.298 9        60.846 9
E09  25209852.919 9 132478639.223 9     -2092.310 9        57.367 9  25209852.919 9 132478639.223 9     -2092.310 9        57.367 9  25209855.834 9  98928846.436 9     -1562.441 9        57.228 9  25209855.834 9  98928846.436 9     -1562.441 9        57.228 9  25209855.560 9 101509600.056 9     -1603.200 9        57.228 9  25209855.560 9 101509600.056 9     -1603.200 9        57.228 9  25209855.694 9 100219223.250 9     -1582.820 9        60.238 9  25209855.694 9 100219223.250 9     -1582.820 9        60.238 9
E13  28148831.072 9 147923059.050 9       330.758 9        56.288 9  28148831.072 9 147923059.050 9       330.758 9        56.288 9  28148834.758 9 110462011.456 9       246.995 9        56.148 9  28148834.758 9 110462011.456 9       246.995 9        56.148 9  28148834.358 9 113343630.754 9       253.438 9        56.148 9  28148834.358 9 113343630.754 9       253.438 9        56.148 9  28148834.554 9 111902821.110 9       250.216 9        59.158 9  28148834.554 9 111902821.110 9       250.216 9        59.158 9
E25  27084735.037 9 142331192.582 9      3131.576 9        56.720 9  27084735.037 9 142331192.582 9      3131.576 9        56.720 9  27084739.916 9 106286269.288 9      2338.516 9        56.580 9  27084739.916 9 106286269.288 9      2338.516 9        56.580 9  27084739.482 9 109058956.322 9      2399.521 9        56.580 9  27084739.482 9 109058956.322 9      2399.521 9        56.580 9  27084739.695 9 107672612.811 9      2369.018 9        59.590 9  27084739.695 9 107672612.811 9      2369.018 9        59.590 9
E31  24963199.474 9 131182469.768 9     -1535.142 9        57.424 9  24963199.474 9 131182469.768 9     -1535.142 9        57.424 9  24963202.650 9  97960930.575 9     -1146.373 9        57.284 9  24963202.650 9  97960930.575 9     -1146.373 9        57.284 9  24963202.402 9 100516434.108 9     -1176.278 9        57.284 9  24963202.402 9 100516434.108 9     -1176.278 9        57.284 9  24963202.524 9  99238682.345 9     -1161.325 9        60.295 9  24963202.524 9  99238682.345 9     -1161.325 9        60.295 9
E15  27824209.384 9 146217160.608 9     -1856.031 9        56.363 9  27824209.384 9 146217160.608 9     -1856.031 9        56.363 9  27824214.506 9 109188131.917 9     -1385.998 9        56.223 9  27824214.506 9 109188131.917 9     -1385.998 9        56.223 9  27824214.107 9 112036519.574 9     -1422.154 9        56.223 9  27824214.107 9 112036519.574 9     -1422.154 9        56.223 9  27824214.303 9 110612325.751 9     -1404.076 9        59.234 9  27824214.303 9 110612325.751 9     -1404.076 9        59.234 9
E03  26331872.775 9 138374890.691 9      2464.763 9        56.970 9  26331872.775 9 138374890.691 9      2464.763 9        56.970 9  26331876.280 9 103331892.093 9      1840.570 9        56.830 9  26331876.280 9 103331892.093 9      1840.570 9        56.830 9  26331875.982 9 106027507.866 9      1888.585 9        56.830 9  26331875.982 9 106027507.866 9      1888.585 9        56.830 9  26331876.128 9 104679699.983 9      1864.578 9        59.841 9  26331876.128 9 104679699.983 9      1864.578 9        59.841 9
E24  24087175.272 9 126578936.611 9      1249.030 9        57.795 9  24087175.272 9 126578936.611 9      1249.030 9        57.795 9  24087176.292 9  94523221.799 9       932.718 9        57.655 9  24087176.292 9  94523221.799 9       932.718 9        57.655 9  24087176.088 9  96989045.797 9       957.049 9        57.655 9  24087176.088 9  96989045.797 9       957.049 9        57.655 9  24087176.188 9  95756133.801 9       944.883 9        60.665 9  24087176.188 9  95756133.801 9       944.883 9        60.665 9
> 2023 01 08 10 00  5.0000000  0 20       0.000000000000
G08  25065767.862 9 131721448.563 9     -1480.732 9        54.233 9  25065771.970 8 102640081.103 8     -1153.817 8        49.733 8  25065771.681 9  98363404.395 9     -1105.742 9        56.333 9
G13  20028603.846 9 105251002.593 9       583.813 9        56.112 9  20028602.882 8  82013753.714 8       454.919 8        51.612 8  20028605.432 9  78596521.688 9       435.964 9        58.212 9
G17  24974414.203 9 131241349.334 9      2932.878 9        54.182 9  24974417.151 8 102265956.670 8      2285.363 8        49.682 8  24974420.476 9  98004879.107 9      2190.140 9        56.282 9
G24  24538043.142 9 128948234.871 9      3533.229 9        54.409 9  24538046.895 8 100479133.125 8      2753.167 8        49.909 8  24538047.079 9  96292497.602 9      2638.452 9        56.509 9
G07  24590943.534 9 129226219.971 9     -2971.544 9        54.360 9  24590945.091 8 100695731.695 8     -2315.492 8        49.860 8  24590948.100 9  96500081.408 9     -2219.014 9        56.460 9
G18  24765995.723 9 130146140.436 9     -1362.373 9        54.336 9  24765996.898 8 101412558.837 8     -1061.590 8        49.836 8  24765999.158 9  97187039.445 9     -1017.358 9        56.436 9
G20  23509117.639 9 123541195.925 9     -3647.419 9        54.729 9  23509119.159 8  96265847.417 8     -2842.147 8        50.229 8  23509121.496 9  92254774.029 9     -2723.725 9        56.829 9
G14  20962863.511 9 110160566.779 9       134.264 9        55.782 9  20962863.483 8  85839390.224 8       104.621 8        51.282 8  20962865.359 9  82262753.652 9       100.262 9        57.882 9
G23  24876149.752 9 130725005.358 9      3231.939 9        54.288 9  24876150.829 8 101863622.814 8      2518.395 8        49.788 8  24876153.066 9  97619309.177 9      2413.462 9        56.388 9
G05  21738951.050 9 114238929.785 9     -2424.587 9        55.472 9  21738950.670 8  89017331.690 8     -1889.289 8        50.972 8  21738953.241 9  85308283.123 9     -1810.569 9        57.572 9
G30  21851492.718 9 114830340.442 9     -2258.858 9        55.478 9  21851495.216 8  89478183.049 8     -1760.150 8        50.978 8  21851494.894 9  85749921.011 9     -1686.811 9        57.578 9
G15  21123832.841 9 111006465.085 9      2300.097 9        55.708 9  21123832.348 8  86498529.232 8      1792.284 8        51.208 8  21123834.783 9  82894430.593 9      1717.606 9        57.808 9
E05  23314740.036 9 122519764.849 9       363.597 9        57.976 9  23314740.036 9 122519764.849 9       363.597 9        57.976 9  23314742.561 9  91492029.672 9       271.517 9        57.836 9  23314742.561 9  91492029.672 9       271.517 9        57.836 9  23314742.381 9  93878778.996 9       278.600 9        57.836 9  23314742.381 9  93878778.996 9       278.600 9        57.836 9  23314742.469 9  92685404.336 9       275.058 9        60.846 9  23314742.469 9  92685404.336 9       275.058 9        60.846 9
E09  25210251.094 9 132480731.645 9     -2092.546 9        57.367 9  25210251.094 9 132480731.645 9     -2092.546 9        57.367 9  25210254.010 9  98930408.958 9     -1562.616 9        57.227 9  25210254.010 9  98930408.958 9     -1562.616 9        57.227 9  25210253.735 9 101511203.340 9     -1603.380 9        57.227 9  25210253.735 9 101511203.340 9     -1603.380 9        57.227 9  25210253.870 9 100220806.152 9     -1582.998 9        60.238 9  25210253.870 9 100220806.152 9     -1582.998 9        60.238 9
E13  28148768.178 9 147922728.540 9       330.263 9        56.288 9  28148768.178 9 147922728.540 9       330.263 9        56.288 9  28148771.864 9 110461764.646 9       246.625 9        56.148 9  28148771.864 9 110461764.646 9       246.625 9        56.148 9  28148771.464 9 113343377.506 9       253.059 9        56.148 9  28148771.464 9 113343377.506 9       253.059 9        56.148 9  28148771.660 9 111902571.081 9       249.842 9        59.158 9  28148771.660 9 111902571.081 9       249.842 9        59.158 9
E25  27084139.129 9 142328061.070 9      3131.458 9        56.720 9  27084139.129 9 142328061.070 9      3131.458 9        56.720 9  27084144.007 9 106283930.823 9      2338.428 9        56.580 9  27084144.007 9 106283930.823 9      2338.428 9        56.580 9  27084143.573 9 109056556.854 9      2399.430 9        56.580 9  27084143.573 9 109056556.854 9      2399.430 9        56.580 9  27084143.786 9 107670243.844 9      2368.929 9        59.590 9  27084143.786 9 107670243.844 9      2368.929 9        59.590 9
E31  24963491.637 9 131184005.094 9     -1535.517 9        57.424 9  24963491.637 9 131184005.094 9     -1535.517 9        57.424 9  24963494.813 9  97962077.084 9     -1146.653 9        57.284 9  24963494.813 9  97962077.084 9     -1146.653 9        57.284 9  24963494.566 9 100517610.526 9     -1176.566 9        57.284 9  24963494.566 9 100517610.526 9     -1176.566 9        57.284 9  24963494.687 9  99239843.808 9     -1161.609 9        60.295 9  24963494.687 9  99239843.808 9     -1161.609 9        60.295 9
E15  27824562.608 9 146219016.812 9     -1856.379 9        56.363 9  27824562.608 9 146219016.812 9     -1856.379 9        56.363 9  27824567.731 9 109189518.043 9     -1386.258 9        56.223 9  27824567.731 9 109189518.043 9     -1386.258 9        56.223 9  27824567.331 9 112037941.859 9     -1422.421 9        56.223 9  27824567.331 9 112037941.859 9     -1422.421 9        56.223 9  27824567.527 9 110613729.956 9     -1404.340 9        59.234 9  27824567.527 9 110613729.956 9     -1404.340 9        59.234 9
E03  26331403.755 9 138372425.978 9      2464.665 9        56.970 9  26331403.755 9 138372425.978 9      2464.665 9        56.970 9  26331407.260 9 103330051.561 9      1840.497 9        56.831 9  26331407.260 9 103330051.561 9      1840.497 9        56.831 9  26331406.962 9 106025619.320 9      1888.510 9        56.831 9  26331406.962 9 106025619.320 9      1888.510 9        56.831 9  26331407.108 9 104677835.444 9      1864.503 9        59.841 9  26331407.108 9 104677835.444 9      1864.503 9        59.841 9
E24  24086937.631 9 126577687.799 9      1248.597 9        57.795 9  24086937.631 9 126577687.799 9      1248.597 9        57.795 9  24086938.650 9  94522289.245 9       932.394 9        57.655 9  24086938.650 9  94522289.245 9       932.394 9        57.655 9  24086938.447 9  96988088.915 9       956.717 9        57.655 9  24086938.447 9  96988088.915 9       956.717 9        57.655 9  24086938.547 9  95755189.082 9       944.556 9        60.665 9  24086938.547 9  95755189.082 9       944.556 9        60.665 9
> 2023 01 08 10 00  6.0000000  0 20       0.000000000000
G08  25066049.691 9 131722929.584 9     -1481.311 9        54.233 9  25066053.799 8 102641235.146 8     -1154.268 8        49.733 8  25066053.510 9  98364510.352 9     -1106.173 9        56.333 9
G13  20028492.796 9 105250419.016 9       583.339 9        56.112 9  20028491.831 8  82013298.979 8       454.550 8        51.612 8  20028494.381 9  78596085.901 9       435.610 9        58.212 9
G17  24973856.099 9 131238416.494 9      2932.834 9        54.182 9  24973859.047 8 102263671.344 8      2285.328 8        49.682 8  24973862.371 9  98002689.004 9      2190.107 9        56.282 9
G24  24537370.800 9 128944701.695 9      3533.125 9        54.410 9  24537374.553 8 100476380.002 8      2753.086 8        49.910 8  24537374.737 9  96289859.192 9      2638.374 9        56.510 9
G07  24591509.004 9 129229191.527 9     -2971.595 9        54.360 9  24591510.562 8 100698047.190 8     -2315.531 8        49.860 8  24591513.572 9  96502300.424 9     -2219.051 9        56.460 9
G18  24766255.025 9 130147503.072 9     -1362.901 9        54.336 9  24766256.200 8 101413620.630 8     -1062.002 8        49.836 8  24766258.459 9  97188056.997 9     -1017.752 9        56.436 9
G20  23509811.734 9 123544843.408 9     -3647.568 9        54.729 9  23509813.254 8  96268689.609 8     -2842.263 8        50.229 8  23509815.592 9  92257497.796 9     -2723.836 9        56.829 9
G14  20962838.024 9 110160432.844 9       133.605 9        55.782 9  20962837.996 8  85839285.860 8       104.108 8        51.282 8  20962839.872 9  82262653.636 9        99.770 9        57.882 9
G23  24875534.763 9 130721773.576 9      3231.632 9        54.288 9  24875535.840 8 101861104.544 8      2518.156 8        49.788 8  24875538.077 9  97616895.835 9      2413.233 9        56.388 9
G05  21739412.483 9 114241354.628 9     -2425.106 9        55.472 9  21739412.103 8  89019221.178 8     -1889.694 8        50.972 8  21739414.675 9  85310093.882 9     -1810.957 9        57.572 9
G30  21851922.590 9 114832599.430 9     -2259.128 9        55.478 9  21851925.088 8  89479943.298 8     -1760.360 8        50.978 8  21851924.767 9  85751607.916 9     -1687.012 9        57.578 9
G15  21123395.188 9 111004165.203 9      2299.668 9        55.708 9  21123394.694 8  86496737.116 8      1791.949 8        51.208 8  21123397.130 9  82892713.149 9      1717.285 9        57.808 9
E05  23314670.876 9 122519401.410 9       363.280 9        57.976 9  23314670.876 9 122519401.410 9       363.280 9        57.976 9  23314673.401 9  91491758.273 9       271.280 9        57.836 9  23314673.401 9  91491758.273 9       271.280 9        57.836 9  23314673.221 9  93878500.517 9       278.357 9        57.836 9  23314673.221 9  93878500.517 9       278.357 9        57.836 9  23314673.309 9  92685129.397 9       274.819 9        60.846 9  23314673.309 9  92685129.397 9       274.819 9        60.846 9
E09  25210649.314 9 132482824.303 9     -2092.781 9        57.367 9  25210649.314 9 132482824.303 9     -2092.781 9        57.367 9  25210652.230 9  98931971.656 9     -1562.792 9        57.227 9  25210652.230 9  98931971.656 9     -1562.792 9        57.227 9  25210651.956 9 101512806.804 9     -1603.561 9        57.227 9  25210651.956 9 101512806.804 9     -1603.561 9        57.227 9  25210652.091 9 100222389.233 9     -1583.176 9        60.238 9  25210652.091 9 100222389.233 9     -1583.176 9        60.238 9
E13  28148705.378 9 147922398.525 9       329.769 9        56.288 9  28148705.378 9 147922398.525 9       329.769 9        56.288 9  28148709.063 9 110461518.206 9       246.256 9        56.148 9  28148709.063 9 110461518.206 9       246.256 9        56.148 9  28148708.664 9 113343124.637 9       252.680 9        56.148 9  28148708.664 9 113343124.637 9       252.680 9        56.148 9  28148708.860 9 111902321.427 9       249.468 9        59.158 9  28148708.860 9 111902321.427 9       249.468 9        59.158 9
E25  27083543.244 9 142324929.676 9      3131.340 9        56.720 9  27083543.244 9 142324929.676 9      3131.340 9        56.720 9  27083548.121 9 106281592.446 9      2338.340 9        56.580 9  27083548.121 9 106281592.446 9      2338.340 9        56.580 9  27083547.687 9 109054157.476 9      2399.340 9        56.580 9  27083547.687 9 109054157.476 9      2399.340 9        56.580 9  27083547.900 9 107667874.966 9      2368.840 9        59.590 9  27083547.900 9 107667874.966 9      2368.840 9        59.590 9
E31  24963783.871 9 131185540.795 9     -1535.892 9        57.424 9  24963783.871 9 131185540.795 9     -1535.892 9        57.424 9  24963787.048 9  97963223.873 9     -1146.933 9        57.284 9  24963787.048 9  97963223.873 9     -1146.933 9        57.284 9  24963786.800 9 100518787.231 9     -1176.853 9        57.284 9  24963786.800 9 100518787.231 9     -1176.853 9        57.284 9  24963786.922 9  99241005.555 9     -1161.893 9        60.294 9  24963786.922 9  99241005.555 9     -1161.893 9        60.294 9
E15  27824915.899 9 146220873.364 9     -1856.728 9        56.363 9  27824915.899 9 146220873.364 9     -1856.728 9        56.363 9  27824921.022 9 109190904.428 9     -1386.518 9        56.223 9  27824921.022 9 109190904.428 9     -1386.518 9        56.223 9  27824920.622 9 112039364.411 9     -1422.688 9        56.223 9  27824920.622 9 112039364.411 9     -1422.688 9        56.223 9  27824920.818 9 110615134.425 9     -1404.603 9        59.233 9  27824920.818 9 110615134.425 9     -1404.603 9        59.233 9
E03  26330934.754 9 138369961.362 9      2464.567 9        56.971 9  26330934.754 9 138369961.362 9      2464.567 9        56.971 9  26330938.258 9 103328211.102 9      1840.424 9        56.831 9  26330938.258 9 103328211.102 9      1840.424 9        56.831 9  26330937.961 9 106023730.849 9      1888.435 9        56.831 9  26330937.961 9 106023730.849 9      1888.435 9        56.831 9  26330938.107 9 104675970.979 9      1864.429 9        59.841 9  26330938.107 9 104675970.979 9      1864.429 9        59.841 9
E24  24086700.072 9 126576439.419 9      1248.164 9        57.795 9  24086700.072 9 126576439.419 9      1248.164 9        57.795 9  24086701.091 9  94521357.014 9       932.070 9        57.655 9  24086701.091 9  94521357.014 9       932.070 9        57.655 9  24086700.888 9  96987132.365 9       956.385 9        57.655 9  24086700.888 9  96987132.365 9       956.385 9        57.655 9  24086700.988 9  95754244.692 9       944.228 9        60.665 9  24086700.988 9  95754244.692 9       944.228 9        60.665 9
> 2023 01 08 10 00  7.0000000  0 20       0.000000000000
G08  25066331.630 9 131724411.184 9     -1481.889 9        54.233 9  25066335.738 8 102642389.640 8     -1154.719 8        49.733 8  25066335.449 9  98365616.742 9     -1106.605 9        56.333 9
G13  20028381.835 9 105249835.914 9       582.866 9        56.112 9  20028380.870 8  82012844.613 8       454.181 8        51.612 8  20028383.420 9  78595650.467 9       435.257 9        58.212 9
G17  24973298.004 9 131235483.698 9      2932.789 9        54.183 9  24973300.951 8 102261386.052 8      2285.294 8        49.683 8  24973304.275 9  98000498.933 9      2190.074 9        56.283 9
G24  24536698.478 9 128941168.623 9      3533.021 9        54.410 9  24536702.230 8 100473626.960 8      2753.005 8        49.910 8  24536702.414 9  96287220.860 9      2638.297 9        56.510 9
G07  24592074.484 9 129232163.132 9     -2971.645 9        54.360 9  24592076.042 8 100700362.725 8     -2315.570 8        49.860 8  24592079.052 9  96504519.477 9     -2219.089 9        56.460 9
G18  24766514.427 9 130148866.236 9     -1363.429 9        54.336 9  24766515.602 8 101414682.835 8     -1062.413 8        49.836 8  24766517.862 9  97189074.944 9     -1018.146 9        56.436 9
G20  23510505.857 9 123548491.040 9     -3647.717 9        54.728 9  23510507.378 8  96271531.917 8     -2842.379 8        50.228 8  23510509.716 9  92260221.673 9     -2723.947 9        56.828 9
G14  20962812.662 9 110160299.568 9       132.946 9        55.782 9  20962812.634 8  85839182.008 8       103.594 8        51.282 8  20962814.511 9  82262554.111 9        99.278 9        57.882 9
G23  24874919.833 9 130718542.102 9      3231.325 9        54.288 9  24874920.910 8 101858586.513 8      2517.917 8        49.788 8  24874923.147 9  97614482.723 9      2413.004 9        56.388 9
G05  21739874.015 9 114243779.991 9     -2425.626 9        55.472 9  21739873.635 8  89021111.070 8     -1890.099 8        50.972 8  21739876.207 9  85311905.028 9     -1811.345 9        57.572 9
G30  21852352.513 9 114834858.687 9     -2259.397 9        55.478 9  21852355.011 8  89481703.757 8     -1760.570 8        50.978 8  21852354.690 9  85753295.023 9     -1687.213 9        57.578 9
G15  21122957.616 9 111001865.751 9      2299.238 9        55.708 9  21122957.122 8  86494945.336 8      1791.614 8        51.208 8  21122959.558 9  82890996.026 9      1716.964 9        57.808 9
E05  23314601.776 9 122519038.288 9       362.963 9        57.976 9  23314601.776 9 122519038.288 9       362.963 9        57.976 9  23314604.301 9  91491487.110 9       271.044 9        57.836 9  23314604.301 9  91491487.110 9       271.044 9        57.836 9  23314604.121 9  93878222.280 9       278.115 9        57.836 9  23314604.121 9  93878222.280 9       278.115 9        57.836 9  23314604.209 9  92684854.697 9       274.579 9        60.846 9  23314604.209 9  92684854.697 9       274.579 9        60.846 9
E09  25211047.580 9 132484917.196 9     -2093.016 9        57.367 9  25211047.580 9 132484917.196 9     -2093.016 9        57.367 9  25211050.496 9  98933534.529 9     -1562.968 9        57.227 9  25211050.496 9  98933534.529 9     -1562.968 9        57.227 9  25211050.221 9 101514410.448 9     -1603.741 9        57.227 9  25211050.221 9 101514410.448 9     -1603.741 9        57.227 9  25211050.356 9 100223972.492 9     -1583.354 9        60.237 9  25211050.356 9 100223972.492 9     -1583.354 9        60.237 9
E13  28148642.672 9 147922069.003 9       329.275 9        56.288 9  28148642.672 9 147922069.003 9       329.275 9        56.288 9  28148646.358 9 110461272.135 9       245.887 9        56.148 9  28148646.358 9 110461272.135 9       245.887 9        56.148 9  28148645.958 9 113342872.147 9       252.301 9        56.148 9  28148645.958 9 113342872.147 9       252.301 9        56.148 9  28148646.154 9 111902072.146 9       249.094 9        59.158 9  28148646.154 9 111902072.146 9       249.094 9        59.158 9
E25  27082947.381 9 142321798.401 9      3131.222 9        56.720 9  27082947.381 9 142321798.401 9      3131.222 9        56.720 9  27082952.258 9 106279254.158 9      2338.252 9        56.580 9  27082952.258 9 106279254.158 9      2338.252 9        56.580 9  27082951.824 9 109051758.188 9      2399.250 9        56.580 9  27082951.824 9 109051758.188 9      2399.250 9        56.580 9  27082952.036 9 107665506.178 9      2368.751 9        59.591 9  27082952.036 9 107665506.178 9      2368.751 9        59.591 9
E31  24964076.177 9 131187076.871 9     -1536.267 9        57.424 9  24964076.177 9 131187076.871 9     -1536.267 9        57.424 9  24964079.354 9  97964370.942 9     -1147.213 9        57.284 9  24964079.354 9  97964370.942 9     -1147.213 9        57.284 9  24964079.107 9 100519964.224 9     -1177.140 9        57.284 9  24964079.107 9 100519964.224 9     -1177.140 9        57.284 9  24964079.228 9  99242167.586 9     -1162.177 9        60.294 9  24964079.228 9  99242167.586 9     -1162.177 9        60.294 9
E15  27825269.256 9 146222730.264 9     -1857.076 9        56.363 9  27825269.256 9 146222730.264 9     -1857.076 9        56.363 9  27825274.379 9 109192291.074 9     -1386.779 9        56.223 9  27825274.379 9 109192291.074 9     -1386.779 9        56.223 9  27825273.980 9 112040787.230 9     -1422.955 9        56.223 9  27825273.980 9 112040787.230 9     -1422.955 9        56.223 9  27825274.175 9 110616539.157 9     -1404.867 9        59.233 9  27825274.175 9 110616539.157 9     -1404.867 9        59.233 9
E03  26330465.772 9 138367496.845 9      2464.469 9        56.971 9  26330465.772 9 138367496.845 9      2464.469 9        56.971 9  26330469.276 9 103326370.717 9      1840.351 9        56.831 9  26330469.276 9 103326370.717 9      1840.351 9        56.831 9  26330468.979 9 106021842.453 9      1888.360 9        56.831 9  26330468.979 9 106021842.453 9      1888.360 9        56.831 9  26330469.124 9 104674106.589 9      1864.355 9        59.841 9  26330469.124 9 104674106.589 9      1864.355 9        59.841 9
E24  24086462.596 9 126575191.473 9      1247.730 9        57.795 9  24086462.596 9 126575191.473 9      1247.730 9        57.795 9  24086463.615 9  94520425.106 9       931.747 9        57.655 9  24086463.615 9  94520425.106 9       931.747 9        57.655 9  24086463.411 9  96986176.146 9       956.053 9        57.655 9  24086463.411 9  96986176.146 9       956.053 9        57.655 9  24086463.511 9  95753300.629 9       943.900 9        60.665 9  24086463.511 9  95753300.629 9       943.900 9        60.665 9
> 2023 01 08 10 00  8.0000000  0 20       0.000000000000
G08  25066613.679 9 131725893.362 9     -1482.467 9        54.233 9  25066617.787 8 102643544.584 8     -1155.169 8        49.733 8  25066617.498 9  98366723.564 9     -1107.037 9        56.333 9
G13  20028270.964 9 105249253.285 9       582.392 9        56.112 9  20028269.999 8  82012390.616 8       453.812 8        51.612 8  20028272.550 9  78595215.387 9       434.903 9        58.212 9
G17  24972739.918 9 131232550.947 9      2932.745 9        54.183 9  24972742.863 8 102259100.795 8      2285.259 8        49.683 8  24972746.188 9  97998308.896 9      2190.041 9        56.283 9
G24  24536026.175 9 128937635.655 9      3532.918 9        54.410 9  24536029.928 8 100470873.999 8      2752.924 8        49.910 8  24536030.112 9  96284582.606 9      2638.219 9        56.510 9
G07  24592639.973 9 129235134.788 9     -2971.695 9        54.360 9  24592641.532 8 100702678.298 8     -2315.609 8        49.860 8  24592644.543 9  96506738.567 9     -2219.126 9        56.460 9
G18  24766773.929 9 130150229.928 9     -1363.957 9        54.336 9  24766775.105 8 101415745.452 8     -1062.825 8        49.836 8  24766777.364 9  97190093.284 9     -1018.540 9        56.436 9
G20  23511200.009 9 123552138.821 9     -3647.865 9        54.728 9  23511201.531 8  96274374.341 8     -2842.495 8        50.228 8  23511203.868 9  92262945.662 9     -2724.058 9        56.828 9
G14  20962787.426 9 110160166.951 9       132.287 9        55.782 9  20962787.398 8  85839078.670 8       103.081 8        51.282 8  20962789.275 9  82262455.079 9        98.786 9        57.882 9
G23  24874304.961 9 130715310.934 9      3231.018 9        54.289 9  24874306.037 8 101856068.722 8      2517.678 8        49.789 8  24874308.274 9  97612069.839 9      2412.775 9        56.389 9
G05  21740335.646 9 114246205.874 9     -2426.145 9        55.472 9  21740335.266 8  89023001.367 8     -1890.504 8        50.972 8  21740337.838 9  85313716.563 9     -1811.733 9        57.572 9
G30  21852782.487 9 114837118.214 9     -2259.666 9        55.478 9  21852784.985 8  89483464.426 8     -1760.780 8        50.978 8  21852784.665 9  85754982.330 9     -1687.414 9        57.578 9
G15  21122520.127 9 110999566.728 9      2298.808 9        55.709 9  21122519.633 8  86493153.890 8      1791.279 8        51.209 8  21122522.068 9  82889279.224 9      1716.643 9        57.809 9
E05  23314532.736 9 122518675.482 9       362.647 9        57.976 9  23314532.736 9 122518675.482 9       362.647 9        57.976 9  23314535.261 9  91491216.184 9       270.807 9        57.836 9  23314535.261 9  91491216.184 9       270.807 9        57.836 9  23314535.082 9  93877944.286 9       277.872 9        57.836 9  23314535.082 9  93877944.286 9       277.872 9        57.836 9  23314535.170 9  92684580.237 9       274.340 9        60.846 9  23314535.170 9  92684580.237 9       274.340 9        60.846 9
E09  25211445.889 9 132487010.324 9     -2093.252 9        57.367 9  25211445.889 9 132487010.324 9     -2093.252 9        57.367 9  25211448.806 9  98935097.578 9     -1563.144 9        57.227 9  25211448.806 9  98935097.578 9     -1563.144 9        57.227 9  25211448.532 9 101516014.272 9     -1603.921 9        57.227 9  25211448.532 9 101516014.272 9     -1603.921 9        57.227 9  25211448.666 9 100225555.929 9     -1583.532 9        60.237 9  25211448.666 9 100225555.929 9     -1583.532 9        60.237 9
E13  28148580.060 9 147921739.976 9       328.780 9        56.288 9  28148580.060 9 147921739.976 9       328.780 9        56.288 9  28148583.746 9 110461026.434 9       245.518 9        56.148 9  28148583.746 9 110461026.434 9       245.518 9        56.148 9  28148583.346 9 113342620.036 9       251.923 9        56.148 9  28148583.346 9 113342620.036 9       251.923 9        56.148 9  28148583.542 9 111901823.240 9       248.720 9        59.158 9  28148583.542 9 111901823.240 9       248.720 9        59.158 9
E25  27082351.540 9 142318667.243 9      3131.104 9        56.720 9  27082351.540 9 142318667.243 9      3131.104 9        56.720 9  27082356.417 9 106276915.957 9      2338.164 9        56.581 9  27082356.417 9 106276915.957 9      2338.164 9        56.581 9  27082355.982 9 109049358.991 9      2399.159 9        56.581 9  27082355.982 9 109049358.991 9      2399.159 9        56.581 9  27082356.195 9 107663137.479 9      2368.662 9        59.591 9  27082356.195 9 107663137.479 9      2368.662 9        59.591 9
E31  24964368.555 9 131188613.322 9     -1536.642 9        57.424 9  24964368.555 9 131188613.322 9     -1536.642 9        57.424 9  24964371.732 9  97965518.291 9     -1147.493 9        57.284 9  24964371.732 9  97965518.291 9     -1147.493 9        57.284 9  24964371.484 9 100521141.504 9     -1177.428 9        57.284 9  24964371.484 9 100521141.504 9     -1177.428 9        57.284 9  24964371.606 9  99243329.901 9     -1162.460 9        60.294 9  24964371.606 9  99243329.901 9     -1162.460 9        60.294 9
E15  27825622.679 9 146224587.513 9     -1857.425 9        56.363 9  27825622.679 9 146224587.513 9     -1857.425 9        56.363 9  27825627.802 9 109193677.979 9     -1387.039 9        56.223 9  27825627.802 9 109193677.979 9     -1387.039 9        56.223 9  27825627.403 9 112042210.316 9     -1423.222 9        56.223 9  27825627.403 9 112042210.316 9     -1423.222 9        56.223 9  27825627.599 9 110617944.153 9     -1405.131 9        59.233 9  27825627.599 9 110617944.153 9     -1405.131 9        59.233 9
E03  26329996.808 9 138365032.426 9      2464.371 9        56.971 9  26329996.808 9 138365032.426 9      2464.371 9        56.971 9  26330000.312 9 103324530.404 9      1840.277 9        56.831 9  26330000.312 9 103324530.404 9      1840.277 9        56.831 9  26330000.015 9 106019954.133 9      1888.285 9        56.831 9  26330000.015 9 106019954.133 9      1888.285 9        56.831 9  26330000.160 9 104672242.272 9      1864.281 9        59.841 9  26330000.160 9 104672242.272 9      1864.281 9        59.841 9
E24  24086225.202 9 126573943.961 9      1247.297 9        57.795 9  24086225.202 9 126573943.961 9      1247.297 9        57.795 9  24086226.221 9  94519493.522 9       931.423 9        57.655 9  24086226.221 9  94519493.522 9       931.423 9        57.655 9  24086226.017 9  96985220.260 9       955.721 9        57.655 9  24086226.017 9  96985220.260 9       955.721 9        57.655 9  24086226.117 9  95752356.894 9       943.572 9        60.665 9  24086226.117 9  95752356.894 9       943.572 9        60.665 9
> 2023 01 08 10 00  9.0000000  0 20       0.000000000000
G08  25066895.838 9 131727376.119 9     -1483.045 9        54.233 9  25066899.946 8 102644699.979 8     -1155.620 8        49.733 8  25066899.657 9  98367830.817 9     -1107.469 9        56.333 9
G13  20028160.184 9 105248671.129 9       581.918 9        56.112 9  20028159.219 8  82011936.989 8       453.443 8        51.612 8  20028161.769 9  78594780.660 9       434.549 9        58.212 9
G17  24972181.840 9 131229618.240 9      2932.701 9        54.183 9  24972184.784 8 102256815.572 8      2285.225 8        49.683 8  24972188.108 9  97996118.891 9      2190.008 9        56.283 9
G24  24535353.893 9 128934102.790 9      3532.814 9        54.410 9  24535357.645 8 100468121.118 8      2752.843 8        49.910 8  24535357.829 9  96281944.430 9      2638.141 9        56.510 9
G07  24593205.472 9 129238106.495 9     -2971.745 9        54.360 9  24593207.032 8 100704993.910 8     -2315.648 8        49.860 8  24593210.042 9  96508957.695 9     -2219.164 9        56.460 9
G18  24767033.532 9 130151594.148 9     -1364.485 9        54.336 9  24767034.708 8 101416808.479 8     -1063.236 8        49.836 8  24767036.967 9  97191112.019 9     -1018.935 9        56.436 9
G20  23511894.189 9 123555786.750 9     -3648.014 9        54.728 9  23511895.711 8  96277216.881 8     -2842.611 8        50.228 8  23511898.049 9  92265669.762 9     -2724.169 9        56.828 9
G14  20962762.315 9 110160034.993 9       131.628 9        55.782 9  20962762.288 8  85838975.846 8       102.567 8        51.282 8  20962764.164 9  82262356.539 9        98.294 9        57.882 9
G23  24873690.148 9 130712080.073 9      3230.711 9        54.289 9  24873691.224 8 101853551.169 8      2517.438 8        49.789 8  24873693.460 9  97609657.185 9      2412.545 9        56.389 9
G05  21740797.376 9 114248632.276 9     -2426.665 9        55.471 9  21740796.996 8  89024892.069 8     -1890.909 8        50.971 8  21740799.568 9  85315528.485 9     -1812.121 9        57.571 9
G30  21853212.513 9 114839378.009 9     -2259.936 9        55.477 9  21853215.011 8  89485225.305 8     -1760.990 8        50.977 8  21853214.690 9  85756669.839 9     -1687.615 9        57.577 9
G15  21122082.719 9 110997268.136 9      2298.378 9        55.709 9  21122082.225 8  86491362.779 8      1790.944 8        51.209 8  21122084.660 9  82887562.743 9      1716.322 9        57.809 9
E05  23314463.757 9 122518312.993 9       362.330 9        57.976 9  23314463.757 9 122518312.993 9       362.330 9        57.976 9  23314466.282 9  91490945.494 9       270.571 9        57.836 9  23314466.282 9  91490945.494 9       270.571 9        57.836 9  23314466.102 9  93877666.535 9       277.629 9        57.836 9  23314466.102 9  93877666.535 9       277.629 9        57.836 9  23314466.191 9  92684306.016 9       274.100 9        60.846 9  23314466.191 9  92684306.016 9       274.100 9        60.846 9
E09  25211844.244 9 132489103.688 9     -2093.487 9        57.367 9  25211844.244 9 132489103.688 9     -2093.487 9        57.367 9  25211847.161 9  98936660.803 9     -1563.319 9        57.227 9  25211847.161 9  98936660.803 9     -1563.319 9        57.227 9  25211846.887 9 101517618.277 9     -1604.102 9        57.227 9  25211846.887 9 101517618.277 9     -1604.102 9        57.227 9  25211847.021 9 100227139.544 9     -1583.710 9        60.237 9  25211847.021 9 100227139.544 9     -1583.710 9        60.237 9
E13  28148517.542 9 147921411.444 9       328.286 9        56.288 9  28148517.542 9 147921411.444 9       328.286 9        56.288 9  28148521.228 9 110460781.101 9       245.149 9        56.148 9  28148521.228 9 110460781.101 9       245.149 9        56.148 9  28148520.828 9 113342368.303 9       251.544 9        56.148 9  28148520.828 9 113342368.303 9       251.544 9        56.148 9  28148521.024 9 111901574.707 9       248.346 9        59.158 9  28148521.024 9 111901574.707 9       248.346 9        59.158 9
E25  27081755.722 9 142315536.203 9      3130.986 9        56.721 9  27081755.722 9 142315536.203 9      3130.986 9        56.721 9  27081760.598 9 106274577.845 9      2338.076 9        56.581 9  27081760.598 9 106274577.845 9      2338.076 9        56.581 9  27081760.164 9 109046959.884 9      2399.069 9        56.581 9  27081760.164 9 109046959.884 9      2399.069 9        56.581 9  27081760.377 9 107660768.870 9      2368.572 9        59.591 9  27081760.377 9 107660768.870 9      2368.572 9        59.591 9
E31  24964661.004 9 131190150.148 9     -1537.017 9        57.424 9  24964661.004 9 131190150.148 9     -1537.017 9        57.424 9  24964664.181 9  97966665.920 9     -1147.773 9        57.284 9  24964664.181 9  97966665.920 9     -1147.773 9        57.284 9  24964663.933 9 100522319.071 9     -1177.715 9        57.284 9  24964663.933 9 100522319.071 9     -1177.715 9        57.284 9  24964664.054 9  99244492.499 9     -1162.744 9        60.294 9  24964664.054 9  99244492.499 9     -1162.744 9        60.294 9
E15  27825976.169 9 146226445.111 9     -1857.773 9        56.363 9  27825976.169 9 146226445.111 9     -1857.773 9        56.363 9  27825981.292 9 109195065.145 9     -1387.299 9        56.223 9  27825981.292 9 109195065.145 9     -1387.299 9        56.223 9  27825980.893 9 112043633.669 9     -1423.489 9        56.223 9  27825980.893 9 112043633.669 9     -1423.489 9        56.223 9  27825981.089 9 110619349.412 9     -1405.394 9        59.233 9  27825981.089 9 110619349.412 9     -1405.394 9        59.233 9
E03  26329527.863 9 138362568.105 9      2464.272 9        56.971 9  26329527.863 9 138362568.105 9      2464.272 9        56.971 9  26329531.366 9 103322690.165 9      1840.204 9        56.831 9  26329531.366 9 103322690.165 9      1840.204 9        56.831 9  26329531.069 9 106018065.887 9      1888.209 9        56.831 9  26329531.069 9 106018065.887 9      1888.209 9        56.831 9  26329531.215 9 104670378.030 9      1864.207 9        59.841 9  26329531.215 9 104670378.030 9      1864.207 9        59.841 9
E24  24085987.890 9 126572696.881 9      1246.864 9        57.795 9  24085987.890 9 126572696.881 9      1246.864 9        57.795 9  24085988.910 9  94518562.262 9       931.100 9        57.655 9  24085988.910 9  94518562.262 9       931.100 9        57.655 9  24085988.706 9  96984264.706 9       955.389 9        57.655 9  24085988.706 9  96984264.706 9       955.389 9        57.655 9  24085988.806 9  95751413.487 9       943.244 9        60.666 9  24085988.806 9  95751413.487 9       943.244 9        60.666 9
> 2023 01 08 10 00 10.0000000  0 20       0.000000000000
G08  25067178.107 9 131728859.453 9     -1483.624 9        54.232 9  25067182.215 8 102645855.824 8     -1156.070 8        49.732 8  25067181.926 9  98368938.502 9     -1107.901 9        56.332 9
G13  20028049.493 9 105248089.447 9       581.445 9        56.112 9  20028048.529 8  82011483.730 8       453.074 8        51.612 8  20028051.079 9  78594346.287 9       434.196 9        58.212 9
G17  24971623.770 9 131226685.578 9      2932.656 9        54.183 9  24971626.714 8 102254530.384 8      2285.190 8        49.683 8  24971630.038 9  97993928.920 9      2189.975 9        56.283 9
G24  24534681.630 9 128930570.029 9      3532.710 9        54.410 9  24534685.381 8 100465368.319 8      2752.762 8        49.910 8  24534685.566 9  96279306.330 9      2638.064 9        56.510 9
G07  24593770.981 9 129241078.251 9     -2971.795 9        54.359 9  24593772.541 8 100707309.562 8     -2315.687 8        49.859 8  24593775.552 9  96511176.861 9     -2219.201 9        56.459 9
G18  24767293.235 9 130152958.895 9     -1365.013 9        54.336 9  24767294.412 8 101417871.918 8     -1063.647 8        49.836 8  24767296.671 9  97192131.148 9     -1019.329 9        56.436 9
G20  23512588.397 9 123559434.828 9     -3648.162 9        54.728 9  23512589.920 8  96280059.536 8     -2842.727 8        50.228 8  23512592.258 9  92268393.973 9     -2724.280 9        56.828 9
G14  20962737.330 9 110159903.694 9       130.969 9        55.782 9  20962737.302 8  85838873.535 8       102.054 8        51.282 8  20962739.179 9  82262258.491 9        97.802 9        57.882 9
G23  24873075.393 9 130708849.520 9      3230.403 9        54.289 9  24873076.469 8 101851033.856 8      2517.199 8        49.789 8  24873078.705 9  97607244.761 9      2412.316 9        56.389 9
G05  21741259.204 9 114251059.197 9     -2427.184 9        55.471 9  21741258.825 8  89026783.175 8     -1891.313 8        50.971 8  21741261.397 9  85317340.795 9     -1812.509 9        57.571 9
G30  21853642.590 9 114841638.074 9     -2260.205 9        55.477 9  21853645.088 8  89486986.393 8     -1761.200 8        50.977 8  21853644.767 9  85758357.548 9     -1687.816 9        57.577 9
G15  21121645.392 9 110994969.973 9      2297.948 9        55.709 9  21121644.898 8  86489572.003 8      1790.609 8        51.209 8  21121647.334 9  82885846.583 9      1716.001 9        57.809 9
E05  23314394.838 9 122517950.821 9       362.013 9        57.976 9  23314394.838 9 122517950.821 9       362.013 9        57.976 9  23314397.363 9  91490675.040 9       270.334 9        57.836 9  23314397.363 9  91490675.040 9       270.334 9        57.836 9  23314397.184 9  93877389.026 9       277.387 9        57.836 9  23314397.184 9  93877389.026 9       277.387 9        57.836 9  23314397.272 9  92684032.035 9       273.861 9        60.847 9  23314397.272 9  92684032.035 9       273.861 9        60.847 9
E09  25212242.644 9 132491197.287 9     -2093.722 9        57.367 9  25212242.644 9 132491197.287 9     -2093.722 9        57.367 9  25212245.561 9  98938224.204 9     -1563.495 9        57.227 9  25212245.561 9  98938224.204 9     -1563.495 9        57.227 9  25212245.286 9 101519222.462 9     -1604.282 9        57.227 9  25212245.286 9 101519222.462 9     -1604.282 9        57.227 9  25212245.421 9 100228723.336 9     -1583.888 9        60.237 9  25212245.421 9 100228723.336 9     -1583.888 9        60.237 9
E13  28148455.119 9 147921083.406 9       327.791 9        56.288 9  28148455.119 9 147921083.406 9       327.791 9        56.288 9  28148458.804 9 110460536.138 9       244.779 9        56.148 9  28148458.804 9 110460536.138 9       244.779 9        56.148 9  28148458.405 9 113342116.950 9       251.165 9        56.148 9  28148458.405 9 113342116.950 9       251.165 9        56.148 9  28148458.601 9 111901326.549 9       247.972 9        59.158 9  28148458.601 9 111901326.549 9       247.972 9        59.158 9
E25  27081159.926 9 142312405.281 9      3130.868 9        56.721 9  27081159.926 9 142312405.281 9      3130.868 9        56.721 9  27081164.802 9 106272239.820 9      2337.987 9        56.581 9  27081164.802 9 106272239.820 9      2337.987 9        56.581 9  27081164.368 9 109044560.867 9      2398.978 9        56.581 9  27081164.368 9 109044560.867 9      2398.978 9        56.581 9  27081164.580 9 107658400.349 9      2368.483 9        59.591 9  27081164.580 9 107658400.349 9      2368.483 9        59.591 9
E31  24964953.524 9 131191687.349 9     -1537.392 9        57.424 9  24964953.524 9 131191687.349 9     -1537.392 9        57.424 9  24964956.701 9  97967813.830 9     -1148.053 9        57.284 9  24964956.701 9  97967813.830 9     -1148.053 9        57.284 9  24964956.453 9 100523496.926 9     -1178.002 9        57.284 9  24964956.453 9 100523496.926 9     -1178.002 9        57.284 9  24964956.575 9  99245655.381 9     -1163.028 9        60.294 9  24964956.575 9  99245655.381 9     -1163.028 9        60.294 9
E15  27826329.725 9 146228303.056 9     -1858.121 9        56.363 9  27826329.725 9 146228303.056 9     -1858.121 9        56.363 9  27826334.848 9 109196452.571 9     -1387.559 9        56.223 9  27826334.848 9 109196452.571 9     -1387.559 9        56.223 9  27826334.449 9 112045057.289 9     -1423.756 9        56.223 9  27826334.449 9 112045057.289 9     -1423.756 9        56.223 9  27826334.645 9 110620754.935 9     -1405.658 9        59.233 9  27826334.645 9 110620754.935 9     -1405.658 9        59.233 9
E03  26329058.936 9 138360103.882 9      2464.174 9        56.971 9  26329058.936 9 138360103.882 9      2464.174 9        56.971 9  26329062.440 9 103320849.999 9      1840.131 9        56.831 9  26329062.440 9 103320849.999 9      1840.131 9        56.831 9  26329062.143 9 106016177.717 9      1888.134 9        56.831 9  26329062.143 9 106016177.717 9      1888.134 9        56.831 9  26329062.288 9 104668513.862 9      1864.132 9        59.842 9  26329062.288 9 104668513.862 9      1864.132 9        59.842 9
E24  24085750.661 9 126571450.235 9      1246.430 9        57.795 9  24085750.661 9 126571450.235 9      1246.430 9        57.795 9  24085751.681 9  94517631.325 9       930.776 9        57.655 9  24085751.681 9  94517631.325 9       930.776 9        57.655 9  24085751.477 9  96983309.484 9       955.057 9        57.655 9  24085751.477 9  96983309.484 9       955.057 9        57.655 9  24085751.577 9  95750470.407 9       942.917 9        60.666 9  24085751.577 9  95750470.407 9       942.917 9        60.666 9
> 2023 01 08 10 00 11.0000000  0 20       0.000000000000
G08  25067460.486 9 131730343.366 9     -1484.202 9        54.232 9  25067464.594 8 102647012.120 8     -1156.521 8        49.732 8  25067464.305 9  98370046.619 9     -1108.332 9        56.332 9
G13  20027938.893 9 105247508.239 9       580.971 9        56.112 9  20027937.929 8  82011030.840 8       452.705 8        51.612 8  20027940.479 9  78593912.268 9       433.842 9        58.212 9
G17  24971065.709 9 131223752.960 9      2932.612 9        54.183 9  24971068.652 8 102252245.230 8      2285.155 8        49.683 8  24971071.975 9  97991738.982 9      2189.941 9        56.283 9
G24  24534009.387 9 128927037.373 9      3532.606 9        54.411 9  24534013.138 8 100462615.601 8      2752.681 8        49.911 8  24534013.322 9  96276668.309 9      2637.986 9        56.511 9
G07  24594336.499 9 129244050.058 9     -2971.845 9        54.359 9  24594338.060 8 100709625.253 8     -2315.727 8        49.859 8  24594341.071 9  96513396.064 9     -2219.239 9        56.459 9
G18  24767553.039 9 130154324.170 9     -1365.541 9        54.336 9  24767554.215 8 101418935.769 8     -1064.058 8        49.836 8  24767556.475 9  97193150.671 9     -1019.723 9        56.436 9
G20  23513282.633 9 123563083.055 9     -3648.311 9        54.727 9  23513284.157 8  96282902.307 8     -2842.842 8        50.227 8  23513286.495 9  92271118.295 9     -2724.391 9        56.827 9
G14  20962712.470 9 110159773.054 9       130.310 9        55.782 9  20962712.442 8  85838771.737 8       101.540 8        51.282 8  20962714.319 9  82262160.935 9        97.310 9        57.882 9
G23  24872460.697 9 130705619.274 9      3230.096 9        54.289 9  24872461.772 8 101848516.783 8      2516.959 8        49.789 8  24872464.008 9  97604832.566 9      2412.086 9        56.389 9
G05  21741721.132 9 114253486.638 9     -2427.703 9        55.471 9  21741720.753 8  89028674.687 8     -1891.718 8        50.971 8  21741723.325 9  85319153.493 9     -1812.897 9        57.571 9
G30  21854072.718 9 114843898.408 9     -2260.474 9        55.477 9  21854075.217 8  89488747.691 8     -1761.409 8        50.977 8  21854074.896 9  85760045.459 9     -1688.017 9        57.577 9
G15  21121208.148 9 110992672.240 9      2297.518 9        55.709 9  21121207.654 8  86487781.563 8      1790.274 8        51.209 8  21121210.089 9  82884130.744 9      1715.680 9        57.809 9
E05  23314325.980 9 122517588.966 9       361.696 9        57.976 9  23314325.980 9 122517588.966 9       361.696 9        57.976 9  23314328.505 9  91490404.824 9       270.098 9        57.836 9  23314328.505 9  91490404.824 9       270.098 9        57.836 9  23314328.325 9  93877111.760 9       277.144 9        57.836 9  23314328.325 9  93877111.760 9       277.144 9        57.836 9  23314328.413 9  92683758.294 9       273.621 9        60.847 9  23314328.413 9  92683758.294 9       273.621 9        60.847 9
E09  25212641.088 9 132493291.121 9     -2093.958 9        57.366 9  25212641.088 9 132493291.121 9     -2093.958 9        57.366 9  25212644.005 9  98939787.780 9     -1563.671 9        57.227 9  25212644.005 9  98939787.780 9     -1563.671 9        57.227 9  25212643.731 9 101520826.828 9     -1604.462 9        57.227 9  25212643.731 9 101520826.828 9     -1604.462 9        57.227 9  25212643.865 9 100230307.307 9     -1584.067 9        60.237 9  25212643.865 9 100230307.307 9     -1584.067 9        60.237 9
E13  28148392.789 9 147920755.863 9       327.297 9        56.288 9  28148392.789 9 147920755.863 9       327.297 9        56.288 9  28148396.475 9 110460291.544 9       244.410 9        56.148 9  28148396.475 9 110460291.544 9       244.410 9        56.148 9  28148396.075 9 113341865.975 9       250.786 9        56.148 9  28148396.075 9 113341865.975 9       250.786 9        56.148 9  28148396.271 9 111901078.765 9       247.598 9        59.158 9  28148396.271 9 111901078.765 9       247.598 9        59.158 9
E25  27080564.153 9 142309274.477 9      3130.749 9        56.721 9  27080564.153 9 142309274.477 9      3130.749 9        56.721 9  27080569.028 9 106269901.885 9      2337.899 9        56.581 9  27080569.028 9 106269901.885 9      2337.899 9        56.581 9  27080568.594 9 109042161.942 9      2398.888 9        56.581 9  27080568.594 9 109042161.942 9      2398.888 9        56.581 9  27080568.807 9 107656031.919 9      2368.393 9        59.591 9  27080568.807 9 107656031.919 9      2368.393 9        59.591 9
E31  24965246.115 9 131193224.925 9     -1537.767 9        57.423 9  24965246.115 9 131193224.925 9     -1537.767 9        57.423 9  24965249.292 9  97968962.019 9     -1148.333 9        57.284 9  24965249.292 9  97968962.019 9     -1148.333 9        57.284 9  24965249.045 9 100524675.068 9     -1178.289 9        57.284 9  24965249.045 9 100524675.068 9     -1178.289 9        57.284 9  24965249.166 9  99246818.546 9     -1163.311 9        60.294 9  24965249.166 9  99246818.546 9     -1163.311 9        60.294 9
E15  27826683.347 9 146230161.350 9     -1858.469 9        56.362 9  27826683.347 9 146230161.350 9     -1858.469 9        56.362 9  27826688.471 9 109197840.257 9     -1387.819 9        56.223 9  27826688.471 9 109197840.257 9     -1387.819 9        56.223 9  27826688.072 9 112046481.176 9     -1424.023 9        56.223 9  27826688.072 9 112046481.176 9     -1424.023 9        56.223 9  27826688.267 9 110622160.722 9     -1405.921 9        59.233 9  27826688.267 9 110622160.722 9     -1405.921 9        59.233 9
E03  26328590.028 9 138357639.757 9      2464.076 9        56.971 9  26328590.028 9 138357639.757 9      2464.076 9        56.971 9  26328593.532 9 103319009.907 9      1840.057 9        56.831 9  26328593.532 9 103319009.907 9      1840.057 9        56.831 9  26328593.235 9 106014289.622 9      1888.059 9        56.831 9  26328593.235 9 106014289.622 9      1888.059 9        56.831 9  26328593.380 9 104666649.768 9      1864.058 9        59.842 9  26328593.380 9 104666649.768 9      1864.058 9        59.842 9
E24  24085513.515 9 126570204.023 9      1245.997 9        57.795 9  24085513.515 9 126570204.023 9      1245.997 9        57.795 9  24085514.534 9  94516700.712 9       930.452 9        57.655 9  24085514.534 9  94516700.712 9       930.452 9        57.655 9  24085514.330 9  96982354.594 9       954.725 9        57.655 9  24085514.330 9  96982354.594 9       954.725 9        57.655 9  24085514.430 9  95749527.656 9       942.589 9        60.666 9  24085514.430 9  95749527.656 9       942.589 9        60.666 9
> 2023 01 08 10 00 12.0000000  0 20       0.000000000000
G08  25067742.975 9 131731827.856 9     -1484.780 9        54.232 9  25067747.083 8 102648168.866 8     -1156.971 8        49.732 8  25067746.794 9  98371155.167 9     -1108.764 9        56.332 9
G13  20027828.383 9 105246927.504 9       580.497 9        56.112 9  20027827.419 8  82010578.320 8       452.335 8        51.612 8  20027829.969 9  78593478.602 9       433.488 9        58.212 9
G17  24970507.656 9 131220820.387 9      2932.567 9        54.184 9  24970510.598 8 102249960.112 8      2285.120 8        49.684 8  24970513.922 9  97989549.078 9      2189.908 9        56.284 9
G24  24533337.163 9 128923504.820 9      3532.502 9        54.411 9  24533340.915 8 100459862.964 8      2752.600 8        49.911 8  24533341.099 9  96274030.365 9      2637.908 9        56.511 9
G07  24594902.027 9 129247021.914 9     -2971.896 9        54.359 9  24594903.588 8 100711940.982 8     -2315.766 8        49.859 8  24594906.599 9  96515615.304 9     -2219.276 9        56.459 9
G18  24767812.943 9 130155689.973 9     -1366.068 9        54.336 9  24767814.120 8 101420000.030 8     -1064.469 8        49.836 8  24767816.379 9  97194170.588 9     -1020.117 9        56.436 9
G20  23513976.898 9 123566731.430 9     -3648.459 9        54.727 9  23513978.423 8  96285745.194 8     -2842.958 8        50.227 8  23513980.761 9  92273842.728 9     -2724.502 9        56.827 9
G14  20962687.736 9 110159643.073 9       129.651 9        55.782 9  20962687.708 8  85838670.453 8       101.027 8        51.282 8  20962689.584 9  82262063.871 9        96.818 9        57.882 9
G23  24871846.059 9 130702389.336 9      3229.789 9        54.290 9  24871847.134 8 101845999.949 8      2516.720 8        49.790 8  24871849.370 9  97602420.601 9      2411.857 9        56.390 9
G05  21742183.158 9 114255914.597 9     -2428.222 9        55.471 9  21742182.779 8  89030566.602 8     -1892.122 8        50.971 8  21742185.351 9  85320966.579 9     -1813.284 9        57.571 9
G30  21854502.897 9 114846159.011 9     -2260.743 9        55.477 9  21854505.396 8  89490509.199 8     -1761.619 8        50.977 8  21854505.075 9  85761733.570 9     -1688.218 9        57.577 9
G15  21120770.986 9 110990374.937 9      2297.088 9        55.709 9  21120770.491 8  86485991.457 8      1789.939 8        51.209 8  21120772.926 9  82882415.226 9      1715.358 9        57.809 9
E05  23314257.181 9 122517227.427 9       361.380 9        57.976 9  23314257.181 9 122517227.427 9       361.380 9        57.976 9  23314259.706 9  91490134.843 9       269.861 9        57.836 9  23314259.706 9  91490134.843 9       269.861 9        57.836 9  23314259.526 9  93876834.737 9       276.901 9        57.836 9  23314259.526 9  93876834.737 9       276.901 9        57.836 9  23314259.615 9  92683484.792 9       273.381 9        60.847 9  23314259.615 9  92683484.792 9       273.381 9        60.847 9
E09  25213039.577 9 132495385.191 9     -2094.193 9        57.366 9  25213039.577 9 132495385.191 9     -2094.193 9        57.366 9  25213042.495 9  98941351.532 9     -1563.847 9        57.226 9  25213042.495 9  98941351.532 9     -1563.847 9        57.226 9  25213042.220 9 101522431.373 9     -1604.642 9        57.226 9  25213042.220 9 101522431.373 9     -1604.642 9        57.226 9  25213042.355 9 100231891.456 9     -1584.245 9        60.237 9  25213042.355 9 100231891.456 9     -1584.245 9        60.237 9
E13  28148330.554 9 147920428.814 9       326.802 9        56.288 9  28148330.554 9 147920428.814 9       326.802 9        56.288 9  28148334.239 9 110460047.320 9       244.041 9        56.148 9  28148334.239 9 110460047.320 9       244.041 9        56.148 9  28148333.840 9 113341615.380 9       250.407 9        56.148 9  28148333.840 9 113341615.380 9       250.407 9        56.148 9  28148334.036 9 111900831.355 9       247.224 9        59.158 9  28148334.036 9 111900831.355 9       247.224 9        59.158 9
E25  27079968.402 9 142306143.792 9      3130.631 9        56.721 9  27079968.402 9 142306143.792 9      3130.631 9        56.721 9  27079973.277 9 106267564.037 9      2337.811 9        56.581 9  27079973.277 9 106267564.037 9      2337.811 9        56.581 9  27079972.843 9 109039763.106 9      2398.797 9        56.581 9  27079972.843 9 109039763.106 9      2398.797 9        56.581 9  27079973.056 9 107653663.577 9      2368.304 9        59.592 9  27079973.056 9 107653663.577 9      2368.304 9        59.592 9
E31  24965538.778 9 131194762.875 9     -1538.141 9        57.423 9  24965538.778 9 131194762.875 9     -1538.141 9        57.423 9  24965541.955 9  97970110.487 9     -1148.613 9        57.283 9  24965541.955 9  97970110.487 9     -1148.613 9        57.283 9  24965541.708 9 100525853.497 9     -1178.577 9        57.283 9  24965541.708 9 100525853.497 9     -1178.577 9        57.283 9  24965541.829 9  99247981.995 9     -1163.595 9        60.294 9  24965541.829 9  99247981.995 9     -1163.595 9        60.294 9
E15  27827037.035 9 146232019.992 9     -1858.818 9        56.362 9  27827037.035 9 146232019.992 9     -1858.818 9        56.362 9  27827042.159 9 109199228.203 9     -1388.079 9        56.222 9  27827042.159 9 109199228.203 9     -1388.079 9        56.222 9  27827041.760 9 112047905.329 9     -1424.290 9        56.222 9  27827041.760 9 112047905.329 9     -1424.290 9        56.222 9  27827041.956 9 110623566.771 9     -1406.184 9        59.233 9  27827041.956 9 110623566.771 9     -1406.184 9        59.233 9
E03  26328121.139 9 138355175.730 9      2463.978 9        56.972 9  26328121.139 9 138355175.730 9      2463.978 9        56.972 9  26328124.642 9 103317169.887 9      1839.984 9        56.832 9  26328124.642 9 103317169.887 9      1839.984 9        56.832 9  26328124.345 9 106012401.602 9      1887.984 9        56.832 9  26328124.345 9 106012401.602 9      1887.984 9        56.832 9  26328124.491 9 104664785.749 9      1863.984 9        59.842 9  26328124.491 9 104664785.749 9      1863.984 9        59.842 9
E24  24085276.451 9 126568958.243 9      1245.564 9        57.795 9  24085276.451 9 126568958.243 9      1245.564 9        57.795 9  24085277.470 9  94515770.423 9       930.129 9        57.656 9  24085277.470 9  94515770.423 9       930.129 9        57.656 9  24085277.266 9  96981400.036 9       954.393 9        57.656 9  24085277.266 9  96981400.036 9       954.393 9        57.656 9  24085277.366 9  95748585.232 9       942.261 9        60.666 9  24085277.366 9  95748585.232 9       942.261 9        60.666 9
> 2023 01 08 10 00 13.0000000  0 20       0.000000000000
G08  25068025.574 9 131733312.925 9     -1485.358 9        54.232 9  25068029.682 8 102649326.062 8     -1157.421 8        49.732 8  25068029.393 9  98372264.147 9     -1109.195 9        56.332 9
G13  20027717.963 9 105246347.244 9       580.023 9        56.112 9  20027716.999 8  82010126.168 8       451.966 8        51.612 8  20027719.549 9  78593045.291 9       433.134 9        58.212 9
G17  24969949.612 9 131217887.858 9      2932.522 9        54.184 9  24969952.553 8 102247675.028 8      2285.085 8        49.684 8  24969955.877 9  97987359.206 9      2189.874 9        56.284 9
G24  24532664.960 9 128919972.372 9      3532.398 9        54.411 9  24532668.711 8 100457110.408 8      2752.519 8        49.911 8  24532668.895 9  96271392.499 9      2637.831 9        56.511 9
G07  24595467.564 9 129249993.821 9     -2971.946 9        54.359 9  24595469.126 8 100714256.751 8     -2315.805 8        49.859 8  24595472.137 9  96517834.582 9     -2219.313 9        56.459 9
G18  24768072.948 9 130157056.304 9     -1366.596 9        54.336 9  24768074.125 8 101421064.703 8     -1064.881 8        49.836 8  24768076.384 9  97195190.899 9     -1020.511 9        56.436 9
G20  23514671.191 9 123570379.953 9     -3648.607 9        54.727 9  23514672.716 8  96288588.196 8     -2843.073 8        50.227 8  23514675.055 9  92276567.271 9     -2724.612 9        56.827 9
G14  20962663.126 9 110159513.751 9       128.992 9        55.782 9  20962663.099 8  85838569.683 8       100.514 8        51.282 8  20962664.975 9  82261967.299 9        96.325 9        57.882 9
G23  24871231.479 9 130699159.705 9      3229.481 9        54.290 9  24871232.554 8 101843483.355 8      2516.480 8        49.790 8  24871234.790 9  97600008.865 9      2411.627 9        56.390 9
G05  21742645.283 9 114258343.076 9     -2428.741 9        55.471 9  21742644.904 8  89032458.922 8     -1892.527 8        50.971 8  21742647.477 9  85322780.052 9     -1813.672 9        57.571 9
G30  21854933.127 9 114848419.883 9     -2261.012 9        55.477 9  21854935.627 8  89492270.917 8     -1761.829 8        50.977 8  21854935.306 9  85763421.883 9     -1688.419 9        57.577 9
G15  21120333.905 9 110988078.065 9      2296.658 9        55.710 9  21120333.410 8  86484201.687 8      1789.604 8        51.210 8  21120335.846 9  82880700.030 9      1715.037 9        57.810 9
E05  23314188.443 9 122516866.205 9       361.063 9        57.976 9  23314188.443 9 122516866.205 9       361.063 9        57.976 9  23314190.968 9  91489865.100 9       269.625 9        57.836 9  23314190.968 9  91489865.100 9       269.625 9        57.836 9  23314190.788 9  93876557.956 9       276.658 9        57.836 9  23314190.788 9  93876557.956 9       276.658 9        57.836 9  23314190.877 9  92683211.530 9       273.142 9        60.847 9  23314190.877 9  92683211.530 9       273.142 9        60.847 9
E09  25213438.111 9 132497479.496 9     -2094.428 9        57.366 9  25213438.111 9 132497479.496 9     -2094.428 9        57.366 9  25213441.029 9  98942915.460 9     -1564.022 9        57.226 9  25213441.029 9  98942915.460 9     -1564.022 9        57.226 9  25213440.754 9 101524036.099 9     -1604.823 9        57.226 9  25213440.754 9 101524036.099 9     -1604.823 9        57.226 9  25213440.889 9 100233475.783 9     -1584.422 9        60.237 9  25213440.889 9 100233475.783 9     -1584.422 9        60.237 9
E13  28148268.412 9 147920102.260 9       326.308 9        56.288 9  28148268.412 9 147920102.260 9       326.308 9        56.288 9  28148272.098 9 110459803.464 9       243.671 9        56.148 9  28148272.098 9 110459803.464 9       243.671 9        56.148 9  28148271.698 9 113341365.163 9       250.028 9        56.148 9  28148271.698 9 113341365.163 9       250.028 9        56.148 9  28148271.894 9 111900584.319 9       246.850 9        59.158 9  28148271.894 9 111900584.319 9       246.850 9        59.158 9
E25  27079372.674 9 142303013.225 9      3130.513 9        56.721 9  27079372.674 9 142303013.225 9      3130.513 9        56.721 9  27079377.548 9 106265226.278 9      2337.722 9        56.581 9  27079377.548 9 106265226.278 9      2337.722 9        56.581 9  27079377.114 9 109037364.362 9      2398.706 9        56.581 9  27079377.114 9 109037364.362 9      2398.706 9        56.581 9  27079377.327 9 107651295.325 9      2368.214 9        59.592 9  27079377.327 9 107651295.325 9      2368.214 9        59.592 9
E31  24965831.512 9 131196301.201 9     -1538.516 9        57.423 9  24965831.512 9 131196301.201 9     -1538.516 9        57.423 9  24965834.690 9  97971259.236 9     -1148.893 9        57.283 9  24965834.690 9  97971259.236 9     -1148.893 9        57.283 9  24965834.442 9 100527032.213 9     -1178.864 9        57.283 9  24965834.442 9 100527032.213 9     -1178.864 9        57.283 9  24965834.563 9  99249145.728 9     -1163.878 9        60.294 9  24965834.563 9  99249145.728 9     -1163.878 9        60.294 9
E15  27827390.790 9 146233878.982 9     -1859.166 9        56.362 9  27827390.790 9 146233878.982 9     -1859.166 9        56.362 9  27827395.914 9 109200616.409 9     -1388.339 9        56.222 9  27827395.914 9 109200616.409 9     -1388.339 9        56.222 9  27827395.515 9 112049329.749 9     -1424.556 9        56.222 9  27827395.515 9 112049329.749 9     -1424.556 9        56.222 9  27827395.711 9 110624973.084 9     -1406.448 9        59.233 9  27827395.711 9 110624973.084 9     -1406.448 9        59.233 9
E03  26327652.269 9 138352711.802 9      2463.880 9        56.972 9  26327652.269 9 138352711.802 9      2463.880 9        56.972 9  26327655.772 9 103315329.941 9      1839.911 9        56.832 9  26327655.772 9 103315329.941 9      1839.911 9        56.832 9  26327655.475 9 106010513.658 9      1887.908 9        56.832 9  26327655.475 9 106010513.658 9      1887.908 9        56.832 9  26327655.621 9 104662921.803 9      1863.910 9        59.842 9  26327655.621 9 104662921.803 9      1863.910 9        59.842 9
E24  24085039.469 9 126567712.898 9      1245.130 9        57.796 9  24085039.469 9 126567712.898 9      1245.130 9        57.796 9  24085040.488 9  94514840.457 9       929.805 9        57.656 9  24085040.488 9  94514840.457 9       929.805 9        57.656 9  24085040.285 9  96980445.810 9       954.061 9        57.656 9  24085040.285 9  96980445.810 9       954.061 9        57.656 9  24085040.384 9  95747643.136 9       941.933 9        60.666 9  24085040.384 9  95747643.136 9       941.933 9        60.666 9
> 2023 01 08 10 00 14.0000000  0 20       0.000000000000
G08  25068308.283 9 131734798.572 9     -1485.936 9        54.232 9  25068312.391 8 102650483.709 8     -1157.872 8        49.732 8  25068312.102 9  98373373.558 9     -1109.627 9        56.332 9
G13  20027607.634 9 105245767.457 9       579.550 9        56.112 9  20027606.669 8  82009674.386 8       451.597 8        51.612 8  20027609.219 9  78592612.333 9       432.781 9        58.212 9
G17  24969391.576 9 131214955.375 9      2932.477 9        54.184 9  24969394.517 8 102245389.979 8      2285.050 8        49.684 8  24969397.840 9  97985169.369 9      2189.841 9        56.284 9
G24  24531992.776 9 128916440.027 9      3532.293 9        54.411 9  24531996.527 8 100454357.932 8      2752.438 8        49.911 8  24531996.711 9  96268754.711 9      2637.753 9        56.511 9
G07  24596033.111 9 129252965.778 9     -2971.996 9        54.359 9  24596034.673 8 100716572.559 8     -2315.844 8        49.859 8  24596037.685 9  96520053.897 9     -2219.351 9        56.459 9
G18  24768333.053 9 130158423.162 9     -1367.123 9        54.336 9  24768334.230 8 101422129.786 8     -1065.292 8        49.836 8  24768336.489 9  97196211.604 9     -1020.905 9        56.436 9
G20  23515365.512 9 123574028.624 9     -3648.755 9        54.726 9  23515367.038 8  96291431.314 8     -2843.189 8        50.226 8  23515369.376 9  92279291.925 9     -2724.723 9        56.826 9
G14  20962638.643 9 110159385.088 9       128.334 9        55.782 9  20962638.615 8  85838469.425 8       100.000 8        51.282 8  20962640.491 9  82261871.219 9        95.833 9        57.882 9
G23  24870616.958 9 130695930.381 9      3229.173 9        54.290 9  24870618.033 8 101840967.001 8      2516.240 8        49.790 8  24870620.269 9  97597597.359 9      2411.397 9        56.390 9
G05  21743107.507 9 114260772.074 9     -2429.260 9        55.471 9  21743107.128 8  89034351.647 8     -1892.931 8        50.971 8  21743109.701 9  85324593.913 9     -1814.059 9        57.571 9
G30  21855363.409 9 114850681.024 9     -2261.281 9        55.477 9  21855365.908 8  89494032.844 8     -1762.038 8        50.977 8  21855365.588 9  85765110.396 9     -1688.620 9        57.577 9
G15  21119896.906 9 110985781.623 9      2296.228 9        55.710 9  21119896.412 8  86482412.252 8      1789.269 8        51.210 8  21119898.847 9  82878985.155 9      1714.716 9        57.810 9
E05  23314119.765 9 122516505.300 9       360.746 9        57.976 9  23314119.765 9 122516505.300 9       360.746 9        57.976 9  23314122.290 9  91489595.593 9       269.388 9        57.836 9  23314122.290 9  91489595.593 9       269.388 9        57.836 9  23314122.111 9  93876281.419 9       276.416 9        57.836 9  23314122.111 9  93876281.419 9       276.416 9        57.836 9  23314122.199 9  92682938.508 9       272.902 9        60.847 9  23314122.199 9  92682938.508 9       272.902 9        60.847 9
E09  25213836.689 9 132499574.036 9     -2094.663 9        57.366 9  25213836.689 9 132499574.036 9     -2094.663 9        57.366 9  25213839.608 9  98944479.563 9     -1564.198 9        57.226 9  25213839.608 9  98944479.563 9     -1564.198 9        57.226 9  25213839.333 9 101525641.005 9     -1605.003 9        57.226 9  25213839.333 9 101525641.005 9     -1605.003 9        57.226 9  25213839.468 9 100235060.288 9     -1584.600 9        60.236 9  25213839.468 9 100235060.288 9     -1584.600 9        60.236 9
E13  28148206.365 9 147919776.200 9       325.813 9        56.288 9  28148206.365 9 147919776.200 9       325.813 9        56.288 9  28148210.050 9 110459559.978 9       243.302 9        56.148 9  28148210.050 9 110459559.978 9       243.302 9        56.148 9  28148209.651 9 113341115.325 9       249.649 9        56.148 9  28148209.651 9 113341115.325 9       249.649 9        56.148 9  28148209.847 9 111900337.657 9       246.476 9        59.158 9  28148209.847 9 111900337.657 9       246.476 9        59.158 9
E25  27078776.968 9 142299882.776 9      3130.395 9        56.722 9  27078776.968 9 142299882.776 9      3130.395 9        56.722 9  27078781.842 9 106262888.607 9      2337.634 9        56.582 9  27078781.842 9 106262888.607 9      2337.634 9        56.582 9  27078781.408 9 109034965.708 9      2398.616 9        56.582 9  27078781.408 9 109034965.708 9      2398.616 9        56.582 9  27078781.621 9 107648927.163 9      2368.125 9        59.592 9  27078781.621 9 107648927.163 9      2368.125 9        59.592 9
E31  24966124.317 9 131197839.901 9     -1538.891 9        57.423 9  24966124.317 9 131197839.901 9     -1538.891 9        57.423 9  24966127.495 9  97972408.265 9     -1149.172 9        57.283 9  24966127.495 9  97972408.265 9     -1149.172 9        57.283 9  24966127.248 9 100528211.216 9     -1179.151 9        57.283 9  24966127.248 9 100528211.216 9     -1179.151 9        57.283 9  24966127.369 9  99250309.744 9     -1164.162 9        60.294 9  24966127.369 9  99250309.744 9     -1164.162 9        60.294 9
E15  27827744.611 9 146235738.320 9     -1859.514 9        56.362 9  27827744.611 9 146235738.320 9     -1859.514 9        56.362 9  27827749.736 9 109202004.875 9     -1388.599 9        56.222 9  27827749.736 9 109202004.875 9     -1388.599 9        56.222 9  27827749.336 9 112050754.436 9     -1424.823 9        56.222 9  27827749.336 9 112050754.436 9     -1424.823 9        56.222 9  27827749.532 9 110626379.661 9     -1406.711 9        59.233 9  27827749.532 9 110626379.661 9     -1406.711 9        59.233 9
E03  26327183.417 9 138350247.972 9      2463.781 9        56.972 9  26327183.417 9 138350247.972 9      2463.781 9        56.972 9  26327186.920 9 103313490.069 9      1839.837 9        56.832 9  26327186.920 9 103313490.069 9      1839.837 9        56.832 9  26327186.623 9 106008625.788 9      1887.833 9        56.832 9  26327186.623 9 106008625.788 9      1887.833 9        56.832 9  26327186.769 9 104661057.932 9      1863.835 9        59.842 9  26327186.769 9 104661057.932 9      1863.835 9        59.842 9
E24  24084802.570 9 126566467.985 9      1244.697 9        57.796 9  24084802.570 9 126566467.985 9      1244.697 9        57.796 9  24084803.589 9  94513910.814 9       929.482 9        57.656 9  24084803.589 9  94513910.814 9       929.482 9        57.656 9  24084803.386 9  96979491.917 9       953.729 9        57.656 9  24084803.386 9  96979491.917 9       953.729 9        57.656 9  24084803.485 9  95746701.368 9       941.605 9        60.666 9  24084803.485 9  95746701.368 9       941.605 9        60.666 9
> 2023 01 08 10 00 15.0000000  0 20       0.000000000000
G08  25068591.102 9 131736284.796 9     -1486.513 9        54.232 9  25068595.210 8 102651641.806 8     -1158.322 8        49.732 8  25068594.921 9  98374483.402 9     -1110.059 9        56.332 9
G13  20027497.394 9 105245188.143 9       579.076 9        56.112 9  20027496.429 8  82009222.973 8       451.228 8        51.612 8  20027498.980 9  78592179.729 9       432.427 9        58.212 9
G17  24968833.549 9 131212022.936 9      2932.432 9        54.184 9  24968836.489 8 102243104.966 8      2285.015 8        49.684 8  24968839.812 9  97982979.565 9      2189.807 9        56.284 9
G24  24531320.612 9 128912907.787 9      3532.189 9        54.412 9  24531324.363 8 100451605.539 8      2752.356 8        49.912 8  24531324.547 9  96266117.000 9      2637.675 9        56.512 9
G07  24596598.667 9 129255937.785 9     -2972.046 9        54.358 9  24596600.230 8 100718888.406 8     -2315.883 8        49.858 8  24596603.242 9  96522273.250 9     -2219.388 9        56.458 9
G18  24768593.258 9 130159790.548 9     -1367.651 9        54.336 9  24768594.435 8 101423195.281 8     -1065.703 8        49.836 8  24768596.695 9  97197232.702 9     -1021.298 9        56.436 9
G20  23516059.861 9 123577677.443 9     -3648.903 9        54.726 9  23516061.388 8  96294274.547 8     -2843.304 8        50.226 8  23516063.727 9  92282016.689 9     -2724.833 9        56.826 9
G14  20962614.284 9 110159257.083 9       127.675 9        55.782 9  20962614.257 8  85838369.682 8        99.487 8        51.282 8  20962616.133 9  82261775.632 9        95.341 9        57.882 9
G23  24870002.496 9 130692701.366 9      3228.865 9        54.290 9  24870003.570 8 101838450.886 8      2516.000 8        49.790 8  24870005.806 9  97595186.083 9      2411.167 9        56.390 9
G05  21743569.829 9 114263201.591 9     -2429.779 9        55.470 9  21743569.451 8  89036244.776 8     -1893.335 8        50.970 8  21743572.023 9  85326408.161 9     -1814.447 9        57.570 9
G30  21855793.742 9 114852942.434 9     -2261.550 9        55.476 9  21855796.242 8  89495794.980 8     -1762.248 8        50.976 8  21855795.921 9  85766799.110 9     -1688.821 9        57.576 9
G15  21119459.989 9 110983485.610 9      2295.797 9        55.710 9  21119459.495 8  86480623.152 8      1788.933 8        51.210 8  21119461.930 9  82877270.601 9      1714.395 9        57.810 9
E05  23314051.148 9 122516144.712 9       360.429 9        57.976 9  23314051.148 9 122516144.712 9       360.429 9        57.976 9  23314053.673 9  91489326.322 9       269.151 9        57.836 9  23314053.673 9  91489326.322 9       269.151 9        57.836 9  23314053.493 9  93876005.124 9       276.173 9        57.836 9  23314053.493 9  93876005.124 9       276.173 9        57.836 9  23314053.581 9  92682665.725 9       272.662 9        60.847 9  23314053.581 9  92682665.725 9       272.662 9        60.847 9
E09  25214235.313 9 132501668.811 9     -2094.899 9        57.366 9  25214235.313 9 132501668.811 9     -2094.899 9        57.366 9  25214238.231 9  98946043.842 9     -1564.374 9        57.226 9  25214238.231 9  98946043.842 9     -1564.374 9        57.226 9  25214237.957 9 101527246.092 9     -1605.183 9        57.226 9  25214237.957 9 101527246.092 9     -1605.183 9        57.226 9  25214238.091 9 100236644.971 9     -1584.778 9        60.236 9  25214238.091 9 100236644.971 9     -1584.778 9        60.236 9
E13  28148144.412 9 147919450.635 9       325.319 9        56.288 9  28148144.412 9 147919450.635 9       325.319 9        56.288 9  28148148.097 9 110459316.861 9       242.933 9        56.148 9  28148148.097 9 110459316.861 9       242.933 9        56.148 9  28148147.698 9 113340865.866 9       249.270 9        56.148 9  28148147.698 9 113340865.866 9       249.270 9        56.148 9  28148147.894 9 111900091.369 9       246.102 9        59.158 9  28148147.894 9 111900091.369 9       246.102 9        59.158 9
E25  27078181.285 9 142296752.446 9      3130.276 9        56.722 9  27078181.285 9 142296752.446 9      3130.276 9        56.722 9  27078186.158 9 106260551.024 9      2337.546 9        56.582 9  27078186.158 9 106260551.024 9      2337.546 9        56.582 9  27078185.724 9 109032567.145 9      2398.525 9        56.582 9  27078185.724 9 109032567.145 9      2398.525 9        56.582 9  27078185.937 9 107646559.090 9      2368.035 9        59.592 9  27078185.937 9 107646559.090 9      2368.035 9        59.592 9
E31  24966417.194 9 131199378.976 9     -1539.265 9        57.423 9  24966417.194 9 131199378.976 9     -1539.265 9        57.423 9  24966420.372 9  97973557.573 9     -1149.452 9        57.283 9  24966420.372 9  97973557.573 9     -1149.452 9        57.283 9  24966420.124 9 100529390.507 9     -1179.438 9        57.283 9  24966420.124 9 100529390.507 9     -1179.438 9        57.283 9  24966420.246 9  99251474.043 9     -1164.445 9        60.293 9  24966420.246 9  99251474.043 9     -1164.445 9        60.293 9
E15  27828098.498 9 146237598.006 9     -1859.861 9        56.362 9  27828098.498 9 146237598.006 9     -1859.861 9        56.362 9  27828103.623 9 109203393.601 9     -1388.859 9        56.222 9  27828103.623 9 109203393.601 9     -1388.859 9        56.222 9  27828103.223 9 112052179.390 9     -1425.090 9        56.222 9  27828103.223 9 112052179.390 9     -1425.090 9        56.222 9  27828103.419 9 110627786.500 9     -1406.974 9        59.232 9  27828103.419 9 110627786.500 9     -1406.974 9        59.232 9
E03  26326714.584 9 138347784.240 9      2463.683 9        56.972 9  26326714.584 9 138347784.240 9      2463.683 9        56.972 9  26326718.087 9 103311650.270 9      1839.764 9        56.832 9  26326718.087 9 103311650.270 9      1839.764 9        56.832 9  26326717.790 9 106006737.995 9      1887.758 9        56.832 9  26326717.790 9 106006737.995 9      1887.758 9        56.832 9  26326717.935 9 104659194.136 9      1863.761 9        59.842 9  26326717.935 9 104659194.136 9      1863.761 9        59.842 9
E24  24084565.753 9 126565223.506 9      1244.263 9        57.796 9  24084565.753 9 126565223.506 9      1244.263 9        57.796 9  24084566.772 9  94512981.496 9       929.158 9        57.656 9  24084566.772 9  94512981.496 9       929.158 9        57.656 9  24084566.569 9  96978538.355 9       953.397 9        57.656 9  24084566.569 9  96978538.355 9       953.397 9        57.656 9  24084566.669 9  95745759.928 9       941.277 9        60.666 9  24084566.669 9  95745759.928 9       941.277 9        60.666 9
> 2023 01 08 10 00 16.0000000  0 20       0.000000000000
G08  25068874.031 9 131737771.598 9     -1487.091 9        54.232 9  25068878.139 8 102652800.354 8     -1158.772 8        49.732 8  25068877.850 9  98375593.676 9     -1110.490 9        56.332 9
G13  20027387.245 9 105244609.304 9       578.602 9        56.112 9  20027386.280 8  82008771.930 8       450.859 8        51.612 8  20027388.830 9  78591747.479 9       432.073 9        58.212 9
G17  24968275.531 9 131209090.543 9      2932.387 9        54.184 9  24968278.470 8 102240819.987 8      2284.980 8        49.684 8  24968281.792 9  97980789.795 9      2189.773 9        56.284 9
G24  24530648.468 9 128909375.651 9      3532.085 9        54.412 9  24530652.218 8 100448853.226 8      2752.275 8        49.912 8  24530652.402 9  96263479.368 9      2637.597 9        56.512 9
G07  24597164.232 9 129258909.842 9     -2972.096 9        54.358 9  24597165.797 8 100721204.291 8     -2315.921 8        49.858 8  24597168.808 9  96524492.639 9     -2219.425 9        56.458 9
G18  24768853.564 9 130161158.460 9     -1368.178 9        54.335 9  24768854.741 8 101424261.186 8     -1066.113 8        49.835 8  24768857.001 9  97198254.195 9     -1021.692 9        56.435 9
G20  23516754.239 9 123581326.410 9     -3649.051 9        54.726 9  23516755.766 8  96297117.895 8     -2843.419 8        50.226 8  23516758.105 9  92284741.564 9     -2724.944 9        56.826 9
G14  20962590.051 9 110159129.738 9       127.016 9        55.782 9  20962590.024 8  85838270.452 8        98.973 8        51.282 8  20962591.900 9  82261680.536 9        94.849 9        57.882 9
G23  24869388.092 9 130689472.658 9      3228.558 9        54.290 9  24869389.166 8 101835935.011 8      2515.760 8        49.790 8  24869391.402 9  97592775.036 9      2410.937 9        56.390 9
G05  21744032.250 9 114265631.627 9     -2430.298 9        55.470 9  21744031.873 8  89038138.309 8     -1893.740 8        50.970 8  21744034.445 9  85328222.797 9     -1814.834 9        57.570 9
G30  21856224.126 9 114855204.113 9     -2261.819 9        55.476 9  21856226.626 8  89497557.327 8     -1762.457 8        50.976 8  21856226.305 9  85768488.025 9     -1689.022 9        57.576 9
G15  21119023.154 9 110981190.029 9      2295.367 9        55.710 9  21119022.659 8  86478834.387 8      1788.598 8        51.210 8  21119025.095 9  82875556.368 9      1714.073 9        57.810 9
E05  23313982.590 9 122515784.441 9       360.112 9        57.976 9  23313982.590 9 122515784.441 9       360.112 9        57.976 9  23313985.116 9  91489057.288 9       268.915 9        57.836 9  23313985.116 9  91489057.288 9       268.915 9        57.836 9  23313984.936 9  93875729.072 9       275.930 9        57.836 9  23313984.936 9  93875729.072 9       275.930 9        57.836 9  23313985.024 9  92682393.182 9       272.422 9        60.847 9  23313985.024 9  92682393.182 9       272.422 9        60.847 9
E09  25214633.981 9 132503763.822 9     -2095.134 9        57.366 9  25214633.981 9 132503763.822 9     -2095.134 9        57.366 9  25214636.900 9  98947608.297 9     -1564.549 9        57.226 9  25214636.900 9  98947608.297 9     -1564.549 9        57.226 9  25214636.625 9 101528851.359 9     -1605.363 9        57.226 9  25214636.625 9 101528851.359 9     -1605.363 9        57.226 9  25214636.760 9 100238229.831 9     -1584.956 9        60.236 9  25214636.760 9 100238229.831 9     -1584.956 9        60.236 9
E13  28148082.553 9 147919125.564 9       324.824 9        56.288 9  28148082.553 9 147919125.564 9       324.824 9        56.288 9  28148086.238 9 110459074.114 9       242.564 9        56.148 9  28148086.238 9 110459074.114 9       242.564 9        56.148 9  28148085.839 9 113340616.786 9       248.891 9        56.148 9  28148085.839 9 113340616.786 9       248.891 9        56.148 9  28148086.035 9 111899845.455 9       245.727 9        59.158 9  28148086.035 9 111899845.455 9       245.727 9        59.158 9
E25  27077585.624 9 142293622.234 9      3130.158 9        56.722 9  27077585.624 9 142293622.234 9      3130.158 9        56.722 9  27077590.497 9 106258213.530 9      2337.457 9        56.582 9  27077590.497 9 106258213.530 9      2337.457 9        56.582 9  27077590.063 9 109030168.672 9      2398.434 9        56.582 9  27077590.063 9 109030168.672 9      2398.434 9        56.582 9  27077590.276 9 107644191.107 9      2367.946 9        59.592 9  27077590.276 9 107644191.107 9      2367.946 9        59.592 9
E31  24966710.142 9 131200918.425 9     -1539.640 9        57.423 9  24966710.142 9 131200918.425 9     -1539.640 9        57.423 9  24966713.320 9  97974707.161 9     -1149.732 9        57.283 9  24966713.320 9  97974707.161 9     -1149.732 9        57.283 9  24966713.072 9 100530570.084 9     -1179.725 9        57.283 9  24966713.072 9 100530570.084 9     -1179.725 9        57.283 9  24966713.194 9  99252638.626 9     -1164.728 9        60.293 9  24966713.194 9  99252638.626 9     -1164.728 9        60.293 9
E15  27828452.451 9 146239458.040 9     -1860.209 9        56.362 9  27828452.451 9 146239458.040 9     -1860.209 9        56.362 9  27828457.576 9 109204782.586 9     -1389.118 9        56.222 9  27828457.576 9 109204782.586 9     -1389.118 9        56.222 9  27828457.177 9 112053604.609 9     -1425.356 9        56.222 9  27828457.177 9 112053604.609 9     -1425.356 9        56.222 9  27828457.373 9 110629193.603 9     -1407.237 9        59.232 9  27828457.373 9 110629193.603 9     -1407.237 9        59.232 9
E03  26326245.770 9 138345320.607 9      2463.585 9        56.972 9  26326245.770 9 138345320.607 9      2463.585 9        56.972 9  26326249.272 9 103309810.544 9      1839.690 9        56.832 9  26326249.272 9 103309810.544 9      1839.690 9        56.832 9  26326248.975 9 106004850.276 9      1887.682 9        56.832 9  26326248.975 9 106004850.276 9      1887.682 9        56.832 9  26326249.121 9 104657330.414 9      1863.686 9        59.843 9  26326249.121 9 104657330.414 9      1863.686 9        59.843 9
E24  24084329.019 9 126563979.461 9      1243.830 9        57.796 9  24084329.019 9 126563979.461 9      1243.830 9        57.796 9  24084330.038 9  94512052.501 9       928.834 9        57.656 9  24084330.038 9  94512052.501 9       928.834 9        57.656 9  24084329.835 9  96977585.125 9       953.065 9        57.656 9  24084329.835 9  96977585.125 9       953.065 9        57.656 9  24084329.935 9  95744818.816 9       940.949 9        60.666 9  24084329.935 9  95744818.816 9       940.949 9        60.666 9
> 2023 01 08 10 00 17.0000000  0 20       0.000000000000
G08  25069157.070 9 131739258.978 9     -1487.669 9        54.232 9  25069161.178 8 102653959.351 8     -1159.222 8        49.732 8  25069160.888 9  98376704.382 9     -1110.921 9        56.332 9
G13  20027277.185 9 105244030.939 9       578.128 9        56.112 9  20027276.221 8  82008321.255 8       450.489 8        51.612 8  20027278.771 9  78591315.582 9       431.719 9        58.212 9
G17  24967717.521 9 131206158.195 9      2932.341 9        54.185 9  24967720.459 8 102238535.044 8      2284.945 8        49.685 8  24967723.781 9  97978600.058 9      2189.739 9        56.285 9
G24  24529976.344 9 128905843.619 9      3531.981 9        54.412 9  24529980.094 8 100446100.994 8      2752.194 8        49.912 8  24529980.278 9  96260841.813 9      2637.520 9        56.512 9
G07  24597729.808 9 129261881.949 9     -2972.146 9        54.358 9  24597731.373 8 100723520.216 8     -2315.960 8        49.858 8  24597734.384 9  96526712.067 9     -2219.463 9        56.458 9
G18  24769113.970 9 130162526.900 9     -1368.705 9        54.335 9  24769115.147 8 101425327.502 8     -1066.524 8        49.835 8  24769117.407 9  97199276.081 9     -1022.086 9        56.435 9
G20  23517448.644 9 123584975.525 9     -3649.199 9        54.726 9  23517450.172 8  96299961.359 8     -2843.534 8        50.226 8  23517452.511 9  92287466.549 9     -2725.054 9        56.826 9
G14  20962565.944 9 110159003.052 9       126.357 9        55.782 9  20962565.916 8  85838171.735 8        98.460 8        51.282 8  20962567.793 9  82261585.933 9        94.357 9        57.882 9
G23  24868773.747 9 130686244.258 9      3228.249 9        54.291 9  24868774.820 8 101833419.377 8      2515.520 8        49.791 8  24868777.057 9  97590364.220 9      2410.707 9        56.391 9
G05  21744494.770 9 114268062.181 9     -2430.817 9        55.470 9  21744494.393 8  89040032.246 8     -1894.144 8        50.970 8  21744496.965 9  85330037.820 9     -1815.221 9        57.570 9
G30  21856654.561 9 114857466.061 9     -2262.088 9        55.476 9  21856657.061 8  89499319.882 8     -1762.667 8        50.976 8  21856656.741 9  85770177.141 9     -1689.223 9        57.576 9
G15  21118586.401 9 110978894.878 9      2294.936 9        55.710 9  21118585.906 8  86477045.958 8      1788.262 8        51.210 8  21118588.341 9  82873842.457 9      1713.752 9        57.810 9
E05  23313914.093 9 122515424.487 9       359.795 9        57.976 9  23313914.093 9 122515424.487 9       359.795 9        57.976 9  23313916.619 9  91488788.491 9       268.678 9        57.836 9  23313916.619 9  91488788.491 9       268.678 9        57.836 9  23313916.439 9  93875453.263 9       275.687 9        57.836 9  23313916.439 9  93875453.263 9       275.687 9        57.836 9  23313916.527 9  92682120.879 9       272.183 9        60.847 9  23313916.527 9  92682120.879 9       272.183 9        60.847 9
E09  25215032.693 9 132505859.068 9     -2095.369 9        57.366 9  25215032.693 9 132505859.068 9     -2095.369 9        57.366 9  25215035.613 9  98949172.928 9     -1564.725 9        57.226 9  25215035.613 9  98949172.928 9     -1564.725 9        57.226 9  25215035.338 9 101530456.806 9     -1605.544 9        57.226 9  25215035.338 9 101530456.806 9     -1605.544 9        57.226 9  25215035.473 9 100239814.870 9     -1585.134 9        60.236 9  25215035.473 9 100239814.870 9     -1585.134 9        60.236 9
E13  28148020.788 9 147918800.988 9       324.329 9        56.288 9  28148020.788 9 147918800.988 9       324.329 9        56.288 9  28148024.473 9 110458831.736 9       242.194 9        56.148 9  28148024.473 9 110458831.736 9       242.194 9        56.148 9  28148024.074 9 113340368.085 9       248.512 9        56.148 9  28148024.074 9 113340368.085 9       248.512 9        56.148 9  28148024.270 9 111899599.915 9       245.353 9        59.158 9  28148024.270 9 111899599.915 9       245.353 9        59.158 9
E25  27076989.986 9 142290492.141 9      3130.039 9        56.722 9  27076989.986 9 142290492.141 9      3130.039 9        56.722 9  27076994.858 9 106255876.124 9      2337.369 9        56.582 9  27076994.858 9 106255876.124 9      2337.369 9        56.582 9  27076994.425 9 109027770.291 9      2398.343 9        56.582 9  27076994.425 9 109027770.291 9      2398.343 9        56.582 9  27076994.637 9 107641823.213 9      2367.856 9        59.593 9  27076994.637 9 107641823.213 9      2367.856 9        59.593 9
E31  24967003.161 9 131202458.249 9     -1540.015 9        57.423 9  24967003.161 9 131202458.249 9     -1540.015 9        57.423 9  24967006.339 9  97975857.029 9     -1150.012 9        57.283 9  24967006.339 9  97975857.029 9     -1150.012 9        57.283 9  24967006.092 9 100531749.948 9     -1180.012 9        57.283 9  24967006.092 9 100531749.948 9     -1180.012 9        57.283 9  24967006.213 9  99253803.492 9     -1165.012 9        60.293 9  24967006.213 9  99253803.492 9     -1165.012 9        60.293 9
E15  27828806.471 9 146241318.422 9     -1860.557 9        56.362 9  27828806.471 9 146241318.422 9     -1860.557 9        56.362 9  27828811.596 9 109206171.831 9     -1389.378 9        56.222 9  27828811.596 9 109206171.831 9     -1389.378 9        56.222 9  27828811.197 9 112055030.096 9     -1425.623 9        56.222 9  27828811.197 9 112055030.096 9     -1425.623 9        56.222 9  27828811.393 9 110630600.969 9     -1407.500 9        59.232 9  27828811.393 9 110630600.969 9     -1407.500 9        59.232 9
E03  26325776.974 9 138342857.072 9      2463.486 9        56.972 9  26325776.974 9 138342857.072 9      2463.486 9        56.972 9  26325780.477 9 103307970.892 9      1839.617 9        56.832 9  26325780.477 9 103307970.892 9      1839.617 9        56.832 9  26325780.180 9 106002962.633 9      1887.607 9        56.832 9  26325780.180 9 106002962.633 9      1887.607 9        56.832 9  26325780.325 9 104655466.766 9      1863.612 9        59.843 9  26325780.325 9 104655466.766 9      1863.612 9        59.843 9
E24  24084092.368 9 126562735.849 9      1243.396 9        57.796 9  24084092.368 9 126562735.849 9      1243.396 9        57.796 9  24084093.387 9  94511123.830 9       928.510 9        57.656 9  24084093.387 9  94511123.830 9       928.510 9        57.656 9  24084093.183 9  96976632.228 9       952.732 9        57.656 9  24084093.183 9  96976632.228 9       952.732 9        57.656 9  24084093.283 9  95743878.032 9       940.621 9        60.666 9  24084093.283 9  95743878.032 9       940.621 9        60.666 9
> 2023 01 08 10 00 18.0000000  0 20       0.000000000000
G08  25069440.219 9 131740746.936 9     -1488.247 9        54.232 9  25069444.326 8 102655118.799 8     -1159.673 8        49.732 8  25069444.037 9  98377815.520 9     -1111.353 9        56.332 9
G13  20027167.216 9 105243453.047 9       577.654 9        56.112 9  20027166.252 8  82007870.950 8       450.120 8        51.612 8  20027168.802 9  78590884.040 9       431.365 9        58.212 9
G17  24967159.520 9 131203225.892 9      2932.296 9        54.185 9  24967162.457 8 102236250.136 8      2284.909 8        49.685 8  24967165.779 9  97976410.356 9      2189.706 9        56.285 9
G24  24529304.240 9 128902311.691 9      3531.877 9        54.412 9  24529307.989 8 100443348.844 8      2752.113 8        49.912 8  24529308.173 9  96258204.336 9      2637.442 9        56.512 9
G07  24598295.392 9 129264854.105 9     -2972.196 9        54.358 9  24598296.958 8 100725836.179 8     -2315.999 8        49.858 8  24598299.970 9  96528931.531 9     -2219.500 9        56.458 9
G18  24769374.476 9 130163895.868 9     -1369.232 9        54.335 9  24769375.654 8 101426394.229 8     -1066.935 8        49.835 8  24769377.913 9  97200298.361 9     -1022.480 9        56.435 9
G20  23518143.078 9 123588624.787 9     -3649.346 9        54.725 9  23518144.606 8  96302804.937 8     -2843.649 8        50.225 8  23518146.946 9  92290191.645 9     -2725.164 9        56.825 9
G14  20962541.962 9 110158877.024 9       125.698 9        55.782 9  20962541.934 8  85838073.531 8        97.946 8        51.282 8  20962543.811 9  82261491.821 9        93.865 9        57.882 9
G23  24868159.461 9 130683016.167 9      3227.941 9        54.291 9  24868160.534 8 101830903.982 8      2515.280 8        49.791 8  24868162.770 9  97587953.634 9      2410.477 9        56.391 9
G05  21744957.389 9 114270493.254 9     -2431.335 9        55.470 9  21744957.012 8  89041926.588 8     -1894.548 8        50.970 8  21744959.584 9  85331853.230 9     -1815.609 9        57.570 9
G30  21857085.047 9 114859728.278 9     -2262.357 9        55.476 9  21857087.548 8  89501082.648 8     -1762.876 8        50.976 8  21857087.227 9  85771866.457 9     -1689.423 9        57.576 9
G15  21118149.730 9 110976600.157 9      2294.506 9        55.710 9  21118149.235 8  86475257.865 8      1787.927 8        51.210 8  21118151.670 9  82872128.867 9      1713.430 9        57.810 9
E05  23313845.657 9 122515064.850 9       359.478 9        57.976 9  23313845.657 9 122515064.850 9       359.478 9        57.976 9  23313848.182 9  91488519.931 9       268.441 9        57.836 9  23313848.182 9  91488519.931 9       268.441 9        57.836 9  23313848.002 9  93875177.696 9       275.444 9        57.836 9  23313848.002 9  93875177.696 9       275.444 9        57.836 9  23313848.091 9  92681848.816 9       271.943 9        60.847 9  23313848.091 9  92681848.816 9       271.943 9        60.847 9
E09  25215431.451 9 132507954.549 9     -2095.604 9        57.365 9  25215431.451 9 132507954.549 9     -2095.604 9        57.365 9  25215434.371 9  98950737.734 9     -1564.901 9        57.226 9  25215434.371 9  98950737.734 9     -1564.901 9        57.226 9  25215434.096 9 101532062.433 9     -1605.724 9        57.226 9  25215434.096 9 101532062.433 9     -1605.724 9        57.226 9  25215434.231 9 100241400.087 9     -1585.312 9        60.236 9  25215434.231 9 100241400.087 9     -1585.312 9        60.236 9
E13  28147959.117 9 147918476.906 9       323.835 9        56.288 9  28147959.117 9 147918476.906 9       323.835 9        56.288 9  28147962.802 9 110458589.727 9       241.825 9        56.148 9  28147962.802 9 110458589.727 9       241.825 9        56.148 9  28147962.403 9 113340119.763 9       248.133 9        56.148 9  28147962.403 9 113340119.763 9       248.133 9        56.148 9  28147962.599 9 111899354.750 9       244.979 9        59.158 9  28147962.599 9 111899354.750 9       244.979 9        59.158 9
E25  27076394.370 9 142287362.166 9      3129.921 9        56.722 9  27076394.370 9 142287362.166 9      3129.921 9        56.722 9  27076399.242 9 106253538.807 9      2337.280 9        56.582 9  27076399.242 9 106253538.807 9      2337.280 9        56.582 9  27076398.809 9 109025372.000 9      2398.253 9        56.582 9  27076398.809 9 109025372.000 9      2398.253 9        56.582 9  27076399.021 9 107639455.409 9      2367.766 9        59.593 9  27076399.021 9 107639455.409 9      2367.766 9        59.593 9
E31  24967296.251 9 131203998.447 9     -1540.389 9        57.423 9  24967296.251 9 131203998.447 9     -1540.389 9        57.423 9  24967299.430 9  97977007.176 9     -1150.291 9        57.283 9  24967299.430 9  97977007.176 9     -1150.291 9        57.283 9  24967299.182 9 100532930.100 9     -1180.299 9        57.283 9  24967299.182 9 100532930.100 9     -1180.299 9        57.283 9  24967299.304 9  99254968.641 9     -1165.295 9        60.293 9  24967299.304 9  99254968.641 9     -1165.295 9        60.293 9
E15  27829160.556 9 146243179.152 9     -1860.905 9        56.362 9  27829160.556 9 146243179.152 9     -1860.905 9        56.362 9  27829165.682 9 109207561.336 9     -1389.638 9        56.222 9  27829165.682 9 109207561.336 9     -1389.638 9        56.222 9  27829165.283 9 112056455.849 9     -1425.889 9        56.222 9  27829165.283 9 112056455.849 9     -1425.889 9        56.222 9  27829165.478 9 110632008.598 9     -1407.763 9        59.232 9  27829165.478 9 110632008.598 9     -1407.763 9        59.232 9
E03  26325308.197 9 138340393.635 9      2463.388 9        56.972 9  26325308.197 9 138340393.635 9      2463.388 9        56.972 9  26325311.700 9 103306131.314 9      1839.543 9        56.833 9  26325311.700 9 103306131.314 9      1839.543 9        56.833 9  26325311.403 9 106001075.065 9      1887.531 9        56.833 9  26325311.403 9 106001075.065 9      1887.531 9        56.833 9  26325311.548 9 104653603.193 9      1863.537 9        59.843 9  26325311.548 9 104653603.193 9      1863.537 9        59.843 9
E24  24083855.798 9 126561492.670 9      1242.963 9        57.796 9  24083855.798 9 126561492.670 9      1242.963 9        57.796 9  24083856.817 9  94510195.483 9       928.187 9        57.656 9  24083856.817 9  94510195.483 9       928.187 9        57.656 9  24083856.614 9  96975679.663 9       952.400 9        57.656 9  24083856.614 9  96975679.663 9       952.400 9        57.656 9  24083856.714 9  95742937.575 9       940.293 9        60.666 9  24083856.714 9  95742937.575 9       940.293 9        60.666 9
> 2023 01 08 10 00 19.0000000  0 20       0.000000000000
G08  25069723.478 9 131742235.472 9     -1488.824 9        54.232 9  25069727.585 8 102656278.697 8     -1160.123 8        49.732 8  25069727.296 9  98378927.089 9     -1111.784 9        56.332 9
G13  20027057.338 9 105242875.630 9       577.180 9        56.113 9  20027056.373 8  82007421.014 8       449.751 8        51.613 8  20027058.923 9  78590452.851 9       431.011 9        58.213 9
G17  24966601.527 9 131200293.635 9      2932.251 9        54.185 9  24966604.464 8 102233965.264 8      2284.874 8        49.685 8  24966607.786 9  97974220.687 9      2189.672 9        56.285 9
G24  24528632.155 9 128898779.868 9      3531.772 9        54.413 9  24528635.905 8 100440596.775 8      2752.032 8        49.913 8  24528636.088 9  96255566.936 9      2637.364 9        56.513 9
G07  24598860.987 9 129267826.312 9     -2972.245 9        54.358 9  24598862.553 8 100728152.182 8     -2316.038 8        49.858 8  24598865.565 9  96531151.033 9     -2219.537 9        56.458 9
G18  24769635.083 9 130165265.362 9     -1369.759 9        54.335 9  24769636.260 8 101427461.367 8     -1067.346 8        49.835 8  24769638.520 9  97201321.035 9     -1022.873 9        56.435 9
G20  23518837.540 9 123592274.198 9     -3649.494 9        54.725 9  23518839.069 8  96305648.630 8     -2843.764 8        50.225 8  23518841.408 9  92292916.850 9     -2725.275 9        56.825 9
G14  20962518.105 9 110158751.655 9       125.039 9        55.782 9  20962518.077 8  85837975.842 8        97.433 8        51.282 8  20962519.954 9  82261398.201 9        93.373 9        57.882 9
G23  24867545.233 9 130679788.383 9      3227.633 9        54.291 9  24867546.306 8 101828388.827 8      2515.040 8        49.791 8  24867548.541 9  97585543.277 9      2410.247 9        56.391 9
G05  21745420.106 9 114272924.845 9     -2431.854 9        55.470 9  21745419.729 8  89043821.333 8     -1894.952 8        50.970 8  21745422.302 9  85333669.028 9     -1815.996 9        57.570 9
G30  21857515.585 9 114861990.763 9     -2262.625 9        55.476 9  21857518.085 8  89502845.622 8     -1763.086 8        50.976 8  21857517.765 9  85773555.974 9     -1689.624 9        57.576 9
G15  21117713.141 9 110974305.867 9      2294.075 9        55.711 9  21117712.646 8  86473470.107 8      1787.591 8        51.211 8  21117715.081 9  82870415.599 9      1713.109 9        57.811 9
E05  23313777.281 9 122514705.530 9       359.161 9        57.976 9  23313777.281 9 122514705.530 9       359.161 9        57.976 9  23313779.806 9  91488251.607 9       268.205 9        57.836 9  23313779.806 9  91488251.607 9       268.205 9        57.836 9  23313779.626 9  93874902.373 9       275.201 9        57.836 9  23313779.626 9  93874902.373 9       275.201 9        57.836 9  23313779.714 9  92681576.992 9       271.703 9        60.847 9  23313779.714 9  92681576.992 9       271.703 9        60.847 9
E09  25215830.253 9 132510050.266 9     -2095.840 9        57.365 9  25215830.253 9 132510050.266 9     -2095.840 9        57.365 9  25215833.174 9  98952302.715 9     -1565.076 9        57.225 9  25215833.174 9  98952302.715 9     -1565.076 9        57.225 9  25215832.899 9 101533668.241 9     -1605.904 9        57.225 9  25215832.899 9 101533668.241 9     -1605.904 9        57.225 9  25215833.033 9 100242985.482 9     -1585.490 9        60.236 9  25215833.033 9 100242985.482 9     -1585.490 9        60.236 9
E13  28147897.541 9 147918153.319 9       323.340 9        56.288 9  28147897.541 9 147918153.319 9       323.340 9        56.288 9  28147901.226 9 110458348.087 9       241.456 9        56.148 9  28147901.226 9 110458348.087 9       241.456 9        56.148 9  28147900.826 9 113339871.819 9       247.754 9        56.148 9  28147900.826 9 113339871.819 9       247.754 9        56.148 9  28147901.022 9 111899109.958 9       244.605 9        59.158 9  28147901.022 9 111899109.958 9       244.605 9        59.158 9
E25  27075798.777 9 142284232.309 9      3129.802 9        56.723 9  27075798.777 9 142284232.309 9      3129.802 9        56.723 9  27075803.649 9 106251201.579 9      2337.192 9        56.583 9  27075803.649 9 106251201.579 9      2337.192 9        56.583 9  27075803.215 9 109022973.800 9      2398.162 9        56.583 9  27075803.215 9 109022973.800 9      2398.162 9        56.583 9  27075803.428 9 107637087.695 9      2367.677 9        59.593 9  27075803.428 9 107637087.695 9      2367.677 9        59.593 9
E31  24967589.413 9 131205539.020 9     -1540.763 9        57.423 9  24967589.413 9 131205539.020 9     -1540.763 9        57.423 9  24967592.592 9  97978157.603 9     -1150.571 9        57.283 9  24967592.592 9  97978157.603 9     -1150.571 9        57.283 9  24967592.344 9 100534110.538 9     -1180.586 9        57.283 9  24967592.344 9 100534110.538 9     -1180.586 9        57.283 9  24967592.466 9  99256134.074 9     -1165.578 9        60.293 9  24967592.466 9  99256134.074 9     -1165.578 9        60.293 9
E15  27829514.708 9 146245040.229 9     -1861.252 9        56.362 9  27829514.708 9 146245040.229 9     -1861.252 9        56.362 9  27829519.834 9 109208951.101 9     -1389.897 9        56.222 9  27829519.834 9 109208951.101 9     -1389.897 9        56.222 9  27829519.435 9 112057881.868 9     -1426.155 9        56.222 9  27829519.435 9 112057881.868 9     -1426.155 9        56.222 9  27829519.630 9 110633416.489 9     -1408.026 9        59.232 9  27829519.630 9 110633416.489 9     -1408.026 9        59.232 9
E03  26324839.439 9 138337930.297 9      2463.289 9        56.973 9  26324839.439 9 138337930.297 9      2463.289 9        56.973 9  26324842.941 9 103304291.809 9      1839.470 9        56.833 9  26324842.941 9 103304291.809 9      1839.470 9        56.833 9  26324842.645 9 105999187.573 9      1887.456 9        56.833 9  26324842.645 9 105999187.573 9      1887.456 9        56.833 9  26324842.790 9 104651739.695 9      1863.463 9        59.843 9  26324842.790 9 104651739.695 9      1863.463 9        59.843 9
E24  24083619.312 9 126560249.925 9      1242.529 9        57.796 9  24083619.312 9 126560249.925 9      1242.529 9        57.796 9  24083620.331 9  94509267.459 9       927.863 9        57.656 9  24083620.331 9  94509267.459 9       927.863 9        57.656 9  24083620.127 9  96974727.430 9       952.068 9        57.656 9  24083620.127 9  96974727.430 9       952.068 9        57.656 9  24083620.227 9  95741997.447 9       939.966 9        60.666 9  24083620.227 9  95741997.447 9       939.966 9        60.666 9
> 2023 01 08 10 00 20.0000000  0 20       0.000000000000
G08  25070006.846 9 131743724.585 9     -1489.402 9        54.231 9  25070010.954 8 102657439.045 8     -1160.573 8        49.731 8  25070010.665 9  98380039.089 9     -1112.216 9        56.331 9
G13  20026947.549 9 105242298.686 9       576.706 9        56.113 9  20026946.584 8  82006971.448 8       449.381 8        51.613 8  20026949.135 9  78590022.017 9       430.657 9        58.213 9
G17  24966043.543 9 131197361.423 9      2932.205 9        54.185 9  24966046.479 8 102231680.427 8      2284.838 8        49.685 8  24966049.801 9  97972031.052 9      2189.638 9        56.285 9
G24  24527960.091 9 128895248.149 9      3531.668 9        54.413 9  24527963.840 8 100437844.787 8      2751.950 8        49.913 8  24527964.023 9  96252929.615 9      2637.286 9        56.513 9
G07  24599426.590 9 129270798.568 9     -2972.295 9        54.357 9  24599428.157 8 100730468.223 8     -2316.077 8        49.857 8  24599431.169 9  96533370.572 9     -2219.574 9        56.457 9
G18  24769895.790 9 130166635.384 9     -1370.286 9        54.335 9  24769896.968 8 101428528.916 8     -1067.756 8        49.835 8  24769899.227 9  97202344.102 9     -1023.267 9        56.435 9
G20  23519532.029 9 123595923.755 9     -3649.641 9        54.725 9  23519533.559 8  96308492.439 8     -2843.879 8        50.225 8  23519535.899 9  92295642.166 9     -2725.385 9        56.825 9
G14  20962494.373 9 110158626.946 9       124.380 9        55.782 9  20962494.346 8  85837878.665 8        96.919 8        51.282 8  20962496.222 9  82261305.074 9        92.881 9        57.882 9
G23  24866931.064 9 130676560.908 9      3227.325 9        54.291 9  24866932.136 8 101825873.913 8      2514.800 8        49.791 8  24866934.372 9  97583133.151 9      2410.017 9        56.391 9
G05  21745882.922 9 114275356.955 9     -2432.372 9        55.469 9  21745882.545 8  89045716.483 8     -1895.356 8        50.969 8  21745885.118 9  85335485.212 9     -1816.383 9        57.569 9
G30  21857946.173 9 114864253.517 9     -2262.894 9        55.475 9  21857948.674 8  89504608.806 8     -1763.295 8        50.975 8  21857948.354 9  85775245.692 9     -1689.825 9        57.575 9
G15  21117276.634 9 110972012.008 9      2293.644 9        55.711 9  21117276.138 8  86471682.684 8      1787.256 8        51.211 8  21117278.573 9  82868702.653 9      1712.787 9        57.811 9
E05  23313708.965 9 122514346.526 9       358.844 9        57.976 9  23313708.965 9 122514346.526 9       358.844 9        57.976 9  23313711.490 9  91487983.520 9       267.968 9        57.836 9  23313711.490 9  91487983.520 9       267.968 9        57.836 9  23313711.310 9  93874627.292 9       274.958 9        57.836 9  23313711.310 9  93874627.292 9       274.958 9        57.836 9  23313711.398 9  92681305.409 9       271.463 9        60.847 9  23313711.398 9  92681305.409 9       271.463 9        60.847 9
E09  25216229.101 9 132512146.217 9     -2096.075 9        57.365 9  25216229.101 9 132512146.217 9     -2096.075 9        57.365 9  25216232.021 9  98953867.873 9     -1565.252 9        57.225 9  25216232.021 9  98953867.873 9     -1565.252 9        57.225 9  25216231.746 9 101535274.228 9     -1606.084 9        57.225 9  25216231.746 9 101535274.228 9     -1606.084 9        57.225 9  25216231.881 9 100244571.054 9     -1585.668 9        60.236 9  25216231.881 9 100244571.054 9     -1585.668 9        60.236 9
E13  28147836.058 9 147917830.226 9       322.846 9        56.288 9  28147836.058 9 147917830.226 9       322.846 9        56.288 9  28147839.743 9 110458106.817 9       241.086 9        56.148 9  28147839.743 9 110458106.817 9       241.086 9        56.148 9  28147839.344 9 113339624.255 9       247.375 9        56.148 9  28147839.344 9 113339624.255 9       247.375 9        56.148 9  28147839.539 9 111898865.541 9       244.231 9        59.158 9  28147839.539 9 111898865.541 9       244.231 9        59.158 9
E25  27075203.207 9 142281102.572 9      3129.683 9        56.723 9  27075203.207 9 142281102.572 9      3129.683 9        56.723 9  27075208.078 9 106248864.439 9      2337.103 9        56.583 9  27075208.078 9 106248864.439 9      2337.103 9        56.583 9  27075207.645 9 109020575.691 9      2398.071 9        56.583 9  27075207.645 9 109020575.691 9      2398.071 9        56.583 9  27075207.857 9 107634720.070 9      2367.587 9        59.593 9  27075207.857 9 107634720.070 9      2367.587 9        59.593 9
E31  24967882.646 9 131207079.967 9     -1541.138 9        57.423 9  24967882.646 9 131207079.967 9     -1541.138 9        57.423 9  24967885.825 9  97979308.310 9     -1150.850 9        57.283 9  24967885.825 9  97979308.310 9     -1150.850 9        57.283 9  24967885.577 9 100535291.263 9     -1180.872 9        57.283 9  24967885.577 9 100535291.263 9     -1180.872 9        57.283 9  24967885.699 9  99257299.790 9     -1165.861 9        60.293 9  24967885.699 9  99257299.790 9     -1165.861 9        60.293 9
E15  27829868.926 9 146246901.654 9     -1861.600 9        56.361 9  27829868.926 9 146246901.654 9     -1861.600 9        56.361 9  27829874.052 9 109210341.125 9     -1390.157 9        56.222 9  27829874.052 9 109210341.125 9     -1390.157 9        56.222 9  27829873.653 9 112059308.154 9     -1426.422 9        56.222 9  27829873.653 9 112059308.154 9     -1426.422 9        56.222 9  27829873.849 9 110634824.644 9     -1408.289 9        59.232 9  27829873.849 9 110634824.644 9     -1408.289 9        59.232 9
E03  26324370.700 9 138335467.057 9      2463.191 9        56.973 9  26324370.700 9 138335467.057 9      2463.191 9        56.973 9  26324374.202 9 103302452.377 9      1839.396 9        56.833 9  26324374.202 9 103302452.377 9      1839.396 9        56.833 9  26324373.905 9 105997300.156 9      1887.380 9        56.833 9  26324373.905 9 105997300.156 9      1887.380 9        56.833 9  26324374.051 9 104649876.270 9      1863.388 9        59.843 9  26324374.051 9 104649876.270 9      1863.388 9        59.843 9
E24  24083382.908 9 126559007.613 9      1242.096 9        57.796 9  24083382.908 9 126559007.613 9      1242.096 9        57.796 9  24083383.926 9  94508339.759 9       927.539 9        57.656 9  24083383.926 9  94508339.759 9       927.539 9        57.656 9  24083383.723 9  96973775.529 9       951.736 9        57.656 9  24083383.723 9  96973775.529 9       951.736 9        57.656 9  24083383.823 9  95741057.647 9       939.638 9        60.667 9  24083383.823 9  95741057.647 9       939.638 9        60.667 9
> 2023 01 08 10 00 21.0000000  0 20       0.000000000000
G08  25070290.325 9 131745214.275 9     -1489.979 9        54.231 9  25070294.432 8 102658599.843 8     -1161.023 8        49.731 8  25070294.143 9  98381151.520 9     -1112.647 9        56.331 9
G13  20026837.850 9 105241722.217 9       576.232 9        56.113 9  20026836.886 8  82006522.251 8       449.012 8        51.613 8  20026839.436 9  78589591.536 9       430.303 9        58.213 9
G17  24965485.568 9 131194429.257 9      2932.159 9        54.185 9  24965488.503 8 102229395.626 8      2284.803 8        49.685 8  24965491.824 9  97969841.452 9      2189.603 9        56.285 9
G24  24527288.046 9 128891716.534 9      3531.564 9        54.413 9  24527291.794 8 100435092.881 8      2751.869 8        49.913 8  24527291.978 9  96250292.372 9      2637.208 9        56.513 9
G07  24599992.203 9 129273770.875 9     -2972.345 9        54.357 9  24599993.771 8 100732784.303 8     -2316.116 8        49.857 8  24599996.783 9  96535590.148 9     -2219.612 9        56.457 9
G18  24770156.597 9 130168005.932 9     -1370.813 9        54.335 9  24770157.775 8 101429596.875 8     -1068.167 8        49.835 8  24770160.035 9  97203367.563 9     -1023.660 9        56.435 9
G20  23520226.547 9 123599573.460 9     -3649.789 9        54.725 9  23520228.078 8  96311336.362 8     -2843.994 8        50.225 8  23520230.417 9  92298367.592 9     -2725.495 9        56.825 9
G14  20962470.767 9 110158502.895 9       123.721 9        55.782 9  20962470.740 8  85837782.002 8        96.406 8        51.282 8  20962472.616 9  82261212.439 9        92.389 9        57.882 9
G23  24866316.953 9 130673333.741 9      3227.016 9        54.291 9  24866318.025 8 101823359.239 8      2514.560 8        49.791 8  24866320.261 9  97580723.256 9      2409.787 9        56.391 9
G05  21746345.836 9 114277789.583 9     -2432.890 9        55.469 9  21746345.460 8  89047612.036 8     -1895.760 8        50.969 8  21746348.033 9  85337301.784 9     -1816.770 9        57.569 9
G30  21858376.813 9 114866516.540 9     -2263.163 9        55.475 9  21858379.314 8  89506372.200 8     -1763.504 8        50.975 8  21858378.994 9  85776935.611 9     -1690.025 9        57.575 9
G15  21116840.208 9 110969718.579 9      2293.214 9        55.711 9  21116839.713 8  86469895.597 8      1786.920 8        51.211 8  21116842.148 9  82866990.028 9      1712.465 9        57.811 9
E05  23313640.709 9 122513987.840 9       358.527 9        57.976 9  23313640.709 9 122513987.840 9       358.527 9        57.976 9  23313643.234 9  91487715.670 9       267.731 9        57.836 9  23313643.234 9  91487715.670 9       267.731 9        57.836 9  23313643.055 9  93874352.455 9       274.716 9        57.836 9  23313643.055 9  93874352.455 9       274.716 9        57.836 9  23313643.143 9  92681034.065 9       271.223 9        60.847 9  23313643.143 9  92681034.065 9       271.223 9        60.847 9
E09  25216627.992 9 132514242.404 9     -2096.310 9        57.365 9  25216627.992 9 132514242.404 9     -2096.310 9        57.365 9  25216630.913 9  98955433.206 9     -1565.428 9        57.225 9  25216630.913 9  98955433.206 9     -1565.428 9        57.225 9  25216630.638 9 101536880.396 9     -1606.265 9        57.225 9  25216630.638 9 101536880.396 9     -1606.265 9        57.225 9  25216630.773 9 100246156.805 9     -1585.846 9        60.235 9  25216630.773 9 100246156.805 9     -1585.846 9        60.235 9
E13  28147774.670 9 147917507.628 9       322.351 9        56.288 9  28147774.670 9 147917507.628 9       322.351 9        56.288 9  28147778.355 9 110457865.916 9       240.717 9        56.148 9  28147778.355 9 110457865.916 9       240.717 9        56.148 9  28147777.955 9 113339377.070 9       246.997 9        56.148 9  28147777.955 9 113339377.070 9       246.997 9        56.148 9  28147778.151 9 111898621.498 9       243.857 9        59.158 9  28147778.151 9 111898621.498 9       243.857 9        59.158 9
E25  27074607.659 9 142277972.953 9      3129.565 9        56.723 9  27074607.659 9 142277972.953 9      3129.565 9        56.723 9  27074612.530 9 106246527.387 9      2337.014 9        56.583 9  27074612.530 9 106246527.387 9      2337.014 9        56.583 9  27074612.096 9 109018177.673 9      2397.980 9        56.583 9  27074612.096 9 109018177.673 9      2397.980 9        56.583 9  27074612.309 9 107632352.536 9      2367.497 9        59.593 9  27074612.309 9 107632352.536 9      2367.497 9        59.593 9
E31  24968175.950 9 131208621.289 9     -1541.512 9        57.422 9  24968175.950 9 131208621.289 9     -1541.512 9        57.422 9  24968179.129 9  97980459.296 9     -1151.130 9        57.283 9  24968179.129 9  97980459.296 9     -1151.130 9        57.283 9  24968178.882 9 100536472.275 9     -1181.159 9        57.283 9  24968178.882 9 100536472.275 9     -1181.159 9        57.283 9  24968179.003 9  99258465.789 9     -1166.145 9        60.293 9  24968179.003 9  99258465.789 9     -1166.145 9        60.293 9
E15  27830223.210 9 146248763.426 9     -1861.948 9        56.361 9  27830223.210 9 146248763.426 9     -1861.948 9        56.361 9  27830228.337 9 109211731.408 9     -1390.416 9        56.221 9  27830228.337 9 109211731.408 9     -1390.416 9        56.221 9  27830227.937 9 112060734.706 9     -1426.688 9        56.221 9  27830227.937 9 112060734.706 9     -1426.688 9        56.221 9  27830228.133 9 110636233.062 9     -1408.552 9        59.232 9  27830228.133 9 110636233.062 9     -1408.552 9        59.232 9
E03  26323901.979 9 138333003.916 9      2463.092 9        56.973 9  26323901.979 9 138333003.916 9      2463.092 9        56.973 9  26323905.481 9 103300613.019 9      1839.323 9        56.833 9  26323905.481 9 103300613.019 9      1839.323 9        56.833 9  26323905.184 9 105995412.815 9      1887.305 9        56.833 9  26323905.184 9 105995412.815 9      1887.305 9        56.833 9  26323905.330 9 104648012.921 9      1863.314 9        59.843 9  26323905.330 9 104648012.921 9      1863.314 9        59.843 9
E24  24083146.586 9 126557765.735 9      1241.662 9        57.796 9  24083146.586 9 126557765.735 9      1241.662 9        57.796 9  24083147.605 9  94507412.383 9       927.215 9        57.656 9  24083147.605 9  94507412.383 9       927.215 9        57.656 9  24083147.401 9  96972823.960 9       951.404 9        57.656 9  24083147.401 9  96972823.960 9       951.404 9        57.656 9  24083147.501 9  95740118.174 9       939.310 9        60.667 9  24083147.501 9  95740118.174 9       939.310 9        60.667 9
> 2023 01 08 10 00 22.0000000  0 20       0.000000000000
G08  25070573.913 9 131746704.543 9     -1490.557 9        54.231 9  25070578.021 8 102659761.091 8     -1161.473 8        49.731 8  25070577.732 9  98382264.383 9     -1113.078 9        56.331 9
G13  20026728.242 9 105241146.221 9       575.758 9        56.113 9  20026727.278 8  82006073.423 8       448.643 8        51.613 8  20026729.828 9  78589161.409 9       429.949 9        58.213 9
G17  24964927.601 9 131191497.137 9      2932.113 9        54.186 9  24964930.536 8 102227110.860 8      2284.767 8        49.686 8  24964933.857 9  97967651.885 9      2189.569 9        56.286 9
G24  24526616.021 9 128888185.024 9      3531.459 9        54.413 9  24526619.769 8 100432341.056 8      2751.788 8        49.913 8  24526619.953 9  96247655.206 9      2637.130 9        56.513 9
G07  24600557.826 9 129276743.231 9     -2972.395 9        54.357 9  24600559.394 8 100735100.422 8     -2316.155 8        49.857 8  24600562.407 9  96537809.761 9     -2219.649 9        56.457 9
G18  24770417.504 9 130169377.007 9     -1371.340 9        54.335 9  24770418.683 8 101430665.244 8     -1068.577 8        49.835 8  24770420.942 9  97204391.417 9     -1024.054 9        56.435 9
G20  23520921.093 9 123603223.312 9     -3649.936 9        54.724 9  23520922.624 8  96314180.400 8     -2844.109 8        50.224 8  23520924.964 9  92301093.127 9     -2725.605 9        56.824 9
G14  20962447.287 9 110158379.503 9       123.062 9        55.782 9  20962447.259 8  85837685.852 8        95.893 8        51.282 8  20962449.136 9  82261120.295 9        91.897 9        57.882 9
G23  24865702.902 9 130670106.883 9      3226.708 9        54.292 9  24865703.973 8 101820844.805 8      2514.319 8        49.792 8  24865706.209 9  97578313.590 9      2409.556 9        56.392 9
G05  21746808.850 9 114280222.730 9     -2433.409 9        55.469 9  21746808.473 8  89049507.994 8     -1896.164 8        50.969 8  21746811.046 9  85339118.743 9     -1817.157 9        57.569 9
G30  21858807.504 9 114868779.832 9     -2263.431 9        55.475 9  21858810.005 8  89508135.803 8     -1763.714 8        50.975 8  21858809.685 9  85778625.730 9     -1690.226 9        57.575 9
G15  21116403.865 9 110967425.581 9      2292.783 9        55.711 9  21116403.370 8  86468108.846 8      1786.584 8        51.211 8  21116405.805 9  82865277.725 9      1712.143 9        57.811 9
E05  23313572.514 9 122513629.471 9       358.210 9        57.976 9  23313572.514 9 122513629.471 9       358.210 9        57.976 9  23313575.039 9  91487448.056 9       267.494 9        57.837 9  23313575.039 9  91487448.056 9       267.494 9        57.837 9  23313574.859 9  93874077.860 9       274.473 9        57.837 9  23313574.859 9  93874077.860 9       274.473 9        57.837 9  23313574.948 9  92680762.961 9       270.983 9        60.847 9  23313574.948 9  92680762.961 9       270.983 9        60.847 9
E09  25217026.929 9 132516338.826 9     -2096.545 9        57.365 9  25217026.929 9 132516338.826 9     -2096.545 9        57.365 9  25217029.850 9  98956998.714 9     -1565.603 9        57.225 9  25217029.850 9  98956998.714 9     -1565.603 9        57.225 9  25217029.575 9 101538486.744 9     -1606.445 9        57.225 9  25217029.575 9 101538486.744 9     -1606.445 9        57.225 9  25217029.710 9 100247742.733 9     -1586.024 9        60.235 9  25217029.710 9 100247742.733 9     -1586.024 9        60.235 9
E13  28147713.375 9 147917185.525 9       321.857 9        56.288 9  28147713.375 9 147917185.525 9       321.857 9        56.288 9  28147717.060 9 110457625.385 9       240.348 9        56.148 9  28147717.060 9 110457625.385 9       240.348 9        56.148 9  28147716.661 9 113339130.263 9       246.618 9        56.148 9  28147716.661 9 113339130.263 9       246.618 9        56.148 9  28147716.857 9 111898377.829 9       243.483 9        59.158 9  28147716.857 9 111898377.829 9       243.483 9        59.158 9
E25  27074012.134 9 142274843.453 9      3129.446 9        56.723 9  27074012.134 9 142274843.453 9      3129.446 9        56.723 9  27074017.004 9 106244190.425 9      2336.926 9        56.583 9  27074017.004 9 106244190.425 9      2336.926 9        56.583 9  27074016.571 9 109015779.746 9      2397.889 9        56.583 9  27074016.571 9 109015779.746 9      2397.889 9        56.583 9  27074016.783 9 107629985.091 9      2367.407 9        59.594 9  27074016.783 9 107629985.091 9      2367.407 9        59.594 9
E31  24968469.326 9 131210162.985 9     -1541.886 9        57.422 9  24968469.326 9 131210162.985 9     -1541.886 9        57.422 9  24968472.505 9  97981610.562 9     -1151.409 9        57.282 9  24968472.505 9  97981610.562 9     -1151.409 9        57.282 9  24968472.257 9 100537653.574 9     -1181.446 9        57.282 9  24968472.257 9 100537653.574 9     -1181.446 9        57.282 9  24968472.379 9  99259632.071 9     -1166.428 9        60.293 9  24968472.379 9  99259632.071 9     -1166.428 9        60.293 9
E15  27830577.561 9 146250625.546 9     -1862.295 9        56.361 9  27830577.561 9 146250625.546 9     -1862.295 9        56.361 9  27830582.687 9 109213121.951 9     -1390.676 9        56.221 9  27830582.687 9 109213121.951 9     -1390.676 9        56.221 9  27830582.288 9 112062161.524 9     -1426.954 9        56.221 9  27830582.288 9 112062161.524 9     -1426.954 9        56.221 9  27830582.483 9 110637641.743 9     -1408.815 9        59.232 9  27830582.483 9 110637641.743 9     -1408.815 9        59.232 9
E03  26323433.278 9 138330540.874 9      2462.993 9        56.973 9  26323433.278 9 138330540.874 9      2462.993 9        56.973 9  26323436.779 9 103298773.735 9      1839.249 9        56.833 9  26323436.779 9 103298773.735 9      1839.249 9        56.833 9  26323436.482 9 105993525.549 9      1887.229 9        56.833 9  26323436.482 9 105993525.549 9      1887.229 9        56.833 9  26323436.628 9 104646149.646 9      1863.239 9        59.843 9  26323436.628 9 104646149.646 9      1863.239 9        59.843 9
E24  24082910.347 9 126556524.291 9      1241.229 9        57.796 9  24082910.347 9 126556524.291 9      1241.229 9        57.796 9  24082911.366 9  94506485.330 9       926.892 9        57.656 9  24082911.366 9  94506485.330 9       926.892 9        57.656 9  24082911.162 9  96971872.724 9       951.071 9        57.656 9  24082911.162 9  96971872.724 9       951.071 9        57.656 9  24082911.262 9  95739179.030 9       938.982 9        60.667 9  24082911.262 9  95739179.030 9       938.982 9        60.667 9
> 2023 01 08 10 00 23.0000000  0 20       0.000000000000
G08  25070857.612 9 131748195.389 9     -1491.134 9        54.231 9  25070861.719 8 102660922.789 8     -1161.923 8        49.731 8  25070861.430 9  98383377.677 9     -1113.509 9        56.331 9
G13  20026618.724 9 105240570.700 9       575.284 9        56.113 9  20026617.760 8  82005624.965 8       448.273 8        51.613 8  20026620.310 9  78588731.637 9       429.595 9        58.213 9
G17  24964369.644 9 131188565.062 9      2932.067 9        54.186 9  24964372.577 8 102224826.130 8      2284.731 8        49.686 8  24964375.898 9  97965462.353 9      2189.535 9        56.286 9
G24  24525944.016 9 128884653.618 9      3531.355 9        54.414 9  24525947.764 8 100429589.312 8      2751.706 8        49.914 8  24525947.947 9  96245018.119 9      2637.052 9        56.514 9
G07  24601123.458 9 129279715.637 9     -2972.445 9        54.357 9  24601125.027 8 100737416.579 8     -2316.193 8        49.857 8  24601128.040 9  96540029.411 9     -2219.686 9        56.457 9
G18  24770678.512 9 130170748.609 9     -1371.867 9        54.335 9  24770679.690 8 101431734.025 8     -1068.988 8        49.835 8  24770681.950 9  97205415.664 9     -1024.447 9        56.435 9
G20  23521615.667 9 123606873.311 9     -3650.083 9        54.724 9  23521617.199 8  96317024.553 8     -2844.223 8        50.224 8  23521619.539 9  92303818.773 9     -2725.714 9        56.824 9
G14  20962423.932 9 110158256.770 9       122.403 9        55.782 9  20962423.904 8  85837590.216 8        95.379 8        51.282 8  20962425.781 9  82261028.644 9        91.405 9        57.882 9
G23  24865088.909 9 130666880.333 9      3226.399 9        54.292 9  24865089.980 8 101818330.612 8      2514.079 8        49.792 8  24865092.215 9  97575904.155 9      2409.326 9        56.392 9
G05  21747271.961 9 114282656.394 9     -2433.927 9        55.469 9  21747271.585 8  89051404.355 8     -1896.567 8        50.969 8  21747274.158 9  85340936.089 9     -1817.544 9        57.569 9
G30  21859238.245 9 114871043.392 9     -2263.700 9        55.475 9  21859240.747 8  89509899.615 8     -1763.923 8        50.975 8  21859240.427 9  85780316.050 9     -1690.426 9        57.575 9
G15  21115967.604 9 110965133.014 9      2292.352 9        55.711 9  21115967.108 8  86466322.431 8      1786.249 8        51.211 8  21115969.543 9  82863565.744 9      1711.822 9        57.811 9
E05  23313504.379 9 122513271.419 9       357.893 9        57.976 9  23313504.379 9 122513271.419 9       357.893 9        57.976 9  23313506.904 9  91487180.680 9       267.258 9        57.837 9  23313506.904 9  91487180.680 9       267.258 9        57.837 9  23313506.724 9  93873803.508 9       274.230 9        57.837 9  23313506.724 9  93873803.508 9       274.230 9        57.837 9  23313506.813 9  92680492.096 9       270.744 9        60.847 9  23313506.813 9  92680492.096 9       270.744 9        60.847 9
E09  25217425.911 9 132518435.483 9     -2096.780 9        57.365 9  25217425.911 9 132518435.483 9     -2096.780 9        57.365 9  25217428.832 9  98958564.399 9     -1565.779 9        57.225 9  25217428.832 9  98958564.399 9     -1565.779 9        57.225 9  25217428.557 9 101540093.273 9     -1606.625 9        57.225 9  25217428.557 9 101540093.273 9     -1606.625 9        57.225 9  25217428.692 9 100249328.839 9     -1586.202 9        60.235 9  25217428.692 9 100249328.839 9     -1586.202 9        60.235 9
E13  28147652.175 9 147916863.916 9       321.362 9        56.288 9  28147652.175 9 147916863.916 9       321.362 9        56.288 9  28147655.860 9 110457385.222 9       239.978 9        56.148 9  28147655.860 9 110457385.222 9       239.978 9        56.148 9  28147655.461 9 113338883.836 9       246.239 9        56.148 9  28147655.461 9 113338883.836 9       246.239 9        56.148 9  28147655.656 9 111898134.534 9       243.108 9        59.158 9  28147655.656 9 111898134.534 9       243.108 9        59.158 9
E25  27073416.631 9 142271714.071 9      3129.327 9        56.723 9  27073416.631 9 142271714.071 9      3129.327 9        56.723 9  27073421.501 9 106241853.551 9      2336.837 9        56.583 9  27073421.501 9 106241853.551 9      2336.837 9        56.583 9  27073421.068 9 109013381.910 9      2397.798 9        56.583 9  27073421.068 9 109013381.910 9      2397.798 9        56.583 9  27073421.280 9 107627617.736 9      2367.317 9        59.594 9  27073421.280 9 107627617.736 9      2367.317 9        59.594 9
E31  24968762.772 9 131211705.055 9     -1542.261 9        57.422 9  24968762.772 9 131211705.055 9     -1542.261 9        57.422 9  24968765.952 9  97982762.107 9     -1151.689 9        57.282 9  24968765.952 9  97982762.107 9     -1151.689 9        57.282 9  24968765.704 9 100538835.159 9     -1181.733 9        57.282 9  24968765.704 9 100538835.159 9     -1181.733 9        57.282 9  24968765.826 9  99260798.636 9     -1166.711 9        60.293 9  24968765.826 9  99260798.636 9     -1166.711 9        60.293 9
E15  27830931.977 9 146252488.013 9     -1862.642 9        56.361 9  27830931.977 9 146252488.013 9     -1862.642 9        56.361 9  27830937.104 9 109214512.754 9     -1390.935 9        56.221 9  27830937.104 9 109214512.754 9     -1390.935 9        56.221 9  27830936.704 9 112063588.608 9     -1427.220 9        56.221 9  27830936.704 9 112063588.608 9     -1427.220 9        56.221 9  27830936.900 9 110639050.686 9     -1409.078 9        59.232 9  27830936.900 9 110639050.686 9     -1409.078 9        59.232 9
E03  26322964.595 9 138328077.930 9      2462.895 9        56.973 9  26322964.595 9 138328077.930 9      2462.895 9        56.973 9  26322968.096 9 103296934.524 9      1839.175 9        56.833 9  26322968.096 9 103296934.524 9      1839.175 9        56.833 9  26322967.799 9 105991638.359 9      1887.154 9        56.833 9  26322967.799 9 105991638.359 9      1887.154 9        56.833 9  26322967.945 9 104644286.446 9      1863.165 9        59.844 9  26322967.945 9 104644286.446 9      1863.165 9        59.844 9
E24  24082674.190 9 126555283.280 9      1240.795 9        57.796 9  24082674.190 9 126555283.280 9      1240.795 9        57.796 9  24082675.209 9  94505558.602 9       926.568 9        57.656 9  24082675.209 9  94505558.602 9       926.568 9        57.656 9  24082675.005 9  96970921.820 9       950.739 9        57.656 9  24082675.005 9  96970921.820 9       950.739 9        57.656 9  24082675.105 9  95738240.213 9       938.654 9        60.667 9  24082675.105 9  95738240.213 9       938.654 9        60.667 9
> 2023 01 08 10 00 24.0000000  0 20       0.000000000000
G08  25071141.420 9 131749686.812 9     -1491.712 9        54.231 9  25071145.527 8 102662084.937 8     -1162.373 8        49.731 8  25071145.238 9  98384491.402 9     -1113.940 9        56.331 9
G13  20026509.296 9 105239995.652 9       574.810 9        56.113 9  20026508.332 8  82005176.876 8       447.904 8        51.613 8  20026510.882 9  78588302.218 9       429.241 9        58.213 9
G17  24963811.695 9 131185633.034 9      2932.021 9        54.186 9  24963814.627 8 102222541.436 8      2284.695 8        49.686 8  24963817.948 9  97963272.855 9      2189.500 9        56.286 9
G24  24525272.031 9 128881122.317 9      3531.250 9        54.414 9  24525275.778 8 100426837.650 8      2751.625 8        49.914 8  24525275.962 9  96242381.109 9      2636.974 9        56.514 9
G07  24601689.100 9 129282688.092 9     -2972.494 9        54.357 9  24601690.670 8 100739732.776 8     -2316.232 8        49.857 8  24601693.682 9  96542249.099 9     -2219.723 9        56.457 9
G18  24770939.620 9 130172120.738 9     -1372.394 9        54.335 9  24770940.799 8 101432803.215 8     -1069.398 8        49.835 8  24770943.059 9  97206440.305 9     -1024.840 9        56.435 9
G20  23522310.269 9 123610523.458 9     -3650.230 9        54.724 9  23522311.801 8  96319868.820 8     -2844.338 8        50.224 8  23522314.141 9  92306544.529 9     -2725.824 9        56.824 9
G14  20962400.702 9 110158134.696 9       121.744 9        55.782 9  20962400.674 8  85837495.094 8        94.866 8        51.282 8  20962402.551 9  82260937.485 9        90.913 9        57.882 9
G23  24864474.974 9 130663654.092 9      3226.091 9        54.292 9  24864476.045 8 101815816.659 8      2513.838 8        49.792 8  24864478.280 9  97573494.951 9      2409.095 9        56.392 9
G05  21747735.172 9 114285090.577 9     -2434.445 9        55.469 9  21747734.796 8  89053301.119 8     -1896.971 8        50.969 8  21747737.369 9  85342753.821 9     -1817.931 9        57.569 9
G30  21859669.038 9 114873307.220 9     -2263.968 9        55.475 9  21859671.540 8  89511663.636 8     -1764.132 8        50.975 8  21859671.220 9  85782006.570 9     -1690.627 9        57.575 9
G15  21115531.424 9 110962840.879 9      2291.921 9        55.712 9  21115530.929 8  86464536.352 8      1785.913 8        51.212 8  21115533.364 9  82861854.085 9      1711.500 9        57.812 9
E05  23313436.304 9 122512913.684 9       357.576 9        57.976 9  23313436.304 9 122512913.684 9       357.576 9        57.976 9  23313438.830 9  91486913.540 9       267.021 9        57.837 9  23313438.830 9  91486913.540 9       267.021 9        57.837 9  23313438.650 9  93873529.400 9       273.987 9        57.837 9  23313438.650 9  93873529.400 9       273.987 9        57.837 9  23313438.738 9  92680221.472 9       270.504 9        60.847 9  23313438.738 9  92680221.472 9       270.504 9        60.847 9
E09  25217824.937 9 132520532.375 9     -2097.015 9        57.365 9  25217824.937 9 132520532.375 9     -2097.015 9        57.365 9  25217827.858 9  98960130.258 9     -1565.954 9        57.225 9  25217827.858 9  98960130.258 9     -1565.954 9        57.225 9  25217827.583 9 101541699.981 9     -1606.805 9        57.225 9  25217827.583 9 101541699.981 9     -1606.805 9        57.225 9  25217827.718 9 100250915.123 9     -1586.380 9        60.235 9  25217827.718 9 100250915.123 9     -1586.380 9        60.235 9
E13  28147591.069 9 147916542.802 9       320.867 9        56.288 9  28147591.069 9 147916542.802 9       320.867 9        56.288 9  28147594.754 9 110457145.430 9       239.609 9        56.148 9  28147594.754 9 110457145.430 9       239.609 9        56.148 9  28147594.354 9 113338637.788 9       245.860 9        56.148 9  28147594.354 9 113338637.788 9       245.860 9        56.148 9  28147594.550 9 111897891.614 9       242.734 9        59.158 9  28147594.550 9 111897891.614 9       242.734 9        59.158 9
E25  27072821.151 9 142268584.809 9      3129.208 9        56.723 9  27072821.151 9 142268584.809 9      3129.208 9        56.723 9  27072826.021 9 106239516.765 9      2336.748 9        56.584 9  27072826.021 9 106239516.765 9      2336.748 9        56.584 9  27072825.587 9 109010984.165 9      2397.707 9        56.584 9  27072825.587 9 109010984.165 9      2397.707 9        56.584 9  27072825.800 9 107625250.471 9      2367.227 9        59.594 9  27072825.800 9 107625250.471 9      2367.227 9        59.594 9
E31  24969056.290 9 131213247.499 9     -1542.635 9        57.422 9  24969056.290 9 131213247.499 9     -1542.635 9        57.422 9  24969059.470 9  97983913.932 9     -1151.968 9        57.282 9  24969059.470 9  97983913.932 9     -1151.968 9        57.282 9  24969059.222 9 100540017.032 9     -1182.019 9        57.282 9  24969059.222 9 100540017.032 9     -1182.019 9        57.282 9  24969059.344 9  99261965.485 9     -1166.994 9        60.293 9  24969059.344 9  99261965.485 9     -1166.994 9        60.293 9
E15  27831286.459 9 146254350.828 9     -1862.990 9        56.361 9  27831286.459 9 146254350.828 9     -1862.990 9        56.361 9  27831291.586 9 109215903.816 9     -1391.195 9        56.221 9  27831291.586 9 109215903.816 9     -1391.195 9        56.221 9  27831291.187 9 112065015.959 9     -1427.487 9        56.221 9  27831291.187 9 112065015.959 9     -1427.487 9        56.221 9  27831291.383 9 110640459.893 9     -1409.341 9        59.231 9  27831291.383 9 110640459.893 9     -1409.341 9        59.231 9
E03  26322495.930 9 138325615.085 9      2462.796 9        56.973 9  26322495.930 9 138325615.085 9      2462.796 9        56.973 9  26322499.431 9 103295095.387 9      1839.102 9        56.834 9  26322499.431 9 103295095.387 9      1839.102 9        56.834 9  26322499.135 9 105989751.245 9      1887.078 9        56.834 9  26322499.135 9 105989751.245 9      1887.078 9        56.834 9  26322499.280 9 104642423.320 9      1863.090 9        59.844 9  26322499.280 9 104642423.320 9      1863.090 9        59.844 9
E24  24082438.116 9 126554042.703 9      1240.361 9        57.796 9  24082438.116 9 126554042.703 9      1240.361 9        57.796 9  24082439.135 9  94504632.197 9       926.244 9        57.657 9  24082439.135 9  94504632.197 9       926.244 9        57.657 9  24082438.931 9  96969971.248 9       950.407 9        57.657 9  24082438.931 9  96969971.248 9       950.407 9        57.657 9  24082439.031 9  95737301.725 9       938.326 9        60.667 9  24082439.031 9  95737301.725 9       938.326 9        60.667 9
> 2023 01 08 10 00 25.0000000  0 20       0.000000000000
G08  25071425.338 9 131751178.812 9     -1492.289 9        54.231 9  25071429.445 8 102663247.535 8     -1162.822 8        49.731 8  25071429.156 9  98385605.558 9     -1114.371 9        56.331 9
G13  20026399.959 9 105239421.079 9       574.336 9        56.113 9  20026398.994 8  82004729.156 8       447.534 8        51.613 8  20026401.545 9  78587873.154 9       428.887 9        58.213 9
G17  24963253.754 9 131182701.051 9      2931.975 9        54.186 9  24963256.686 8 102220256.778 8      2284.659 8        49.686 8  24963260.007 9  97961083.392 9      2189.466 9        56.286 9
G24  24524600.065 9 128877591.120 9      3531.146 9        54.414 9  24524603.813 8 100424086.069 8      2751.543 8        49.914 8  24524603.996 9  96239744.178 9      2636.896 9        56.514 9
G07  24602254.751 9 129285660.598 9     -2972.544 9        54.356 9  24602256.321 8 100742049.011 8     -2316.271 8        49.856 8  24602259.334 9  96544468.824 9     -2219.760 9        56.456 9
G18  24771200.828 9 130173493.394 9     -1372.920 9        54.335 9  24771202.007 8 101433872.816 8     -1069.809 8        49.835 8  24771204.267 9  97207465.339 9     -1025.234 9        56.435 9
G20  23523004.898 9 123614173.751 9     -3650.377 9        54.724 9  23523006.432 8  96322713.201 8     -2844.452 8        50.224 8  23523008.772 9  92309270.394 9     -2725.934 9        56.824 9
G14  20962377.597 9 110158013.281 9       121.086 9        55.782 9  20962377.570 8  85837400.484 8        94.352 8        51.282 8  20962379.446 9  82260846.817 9        90.421 9        57.882 9
G23  24863861.099 9 130660428.159 9      3225.782 9        54.292 9  24863862.169 8 101813302.947 8      2513.598 8        49.792 8  24863864.404 9  97571085.977 9      2408.865 9        56.392 9
G05  21748198.481 9 114287525.278 9     -2434.963 9        55.469 9  21748198.105 8  89055198.287 8     -1897.375 8        50.969 8  21748200.678 9  85344571.941 9     -1818.317 9        57.569 9
G30  21860099.883 9 114875571.317 9     -2264.237 9        55.475 9  21860102.385 8  89513427.866 8     -1764.341 8        50.975 8  21860102.065 9  85783697.290 9     -1690.827 9        57.575 9
G15  21115095.327 9 110960549.174 9      2291.490 9        55.712 9  21115094.831 8  86462750.608 8      1785.577 8        51.212 8  21115097.266 9  82860142.747 9      1711.178 9        57.812 9
E05  23313368.290 9 122512556.266 9       357.259 9        57.976 9  23313368.290 9 122512556.266 9       357.259 9        57.976 9  23313370.815 9  91486646.637 9       266.784 9        57.837 9  23313370.815 9  91486646.637 9       266.784 9        57.837 9  23313370.636 9  93873255.534 9       273.744 9        57.837 9  23313370.636 9  93873255.534 9       273.744 9        57.837 9  23313370.724 9  92679951.088 9       270.264 9        60.847 9  23313370.724 9  92679951.088 9       270.264 9        60.847 9
E09  25218224.008 9 132522629.502 9     -2097.251 9        57.365 9  25218224.008 9 132522629.502 9     -2097.251 9        57.365 9  25218226.930 9  98961696.294 9     -1566.130 9        57.225 9  25218226.930 9  98961696.294 9     -1566.130 9        57.225 9  25218226.654 9 101543306.870 9     -1606.985 9        57.225 9  25218226.654 9 101543306.870 9     -1606.985 9        57.225 9  25218226.789 9 100252501.585 9     -1586.558 9        60.235 9  25218226.789 9 100252501.585 9     -1586.558 9        60.235 9
E13  28147530.057 9 147916222.182 9       320.373 9        56.288 9  28147530.057 9 147916222.182 9       320.373 9        56.288 9  28147533.742 9 110456906.006 9       239.240 9        56.148 9  28147533.742 9 110456906.006 9       239.240 9        56.148 9  28147533.342 9 113338392.118 9       245.481 9        56.148 9  28147533.342 9 113338392.118 9       245.481 9        56.148 9  28147533.538 9 111897649.067 9       242.360 9        59.158 9  28147533.538 9 111897649.067 9       242.360 9        59.158 9
E25  27072225.694 9 142265455.665 9      3129.089 9        56.724 9  27072225.694 9 142265455.665 9      3129.089 9        56.724 9  27072230.563 9 106237180.069 9      2336.659 9        56.584 9  27072230.563 9 106237180.069 9      2336.659 9        56.584 9  27072230.130 9 109008586.511 9      2397.615 9        56.584 9  27072230.130 9 109008586.511 9      2397.615 9        56.584 9  27072230.342 9 107622883.295 9      2367.137 9        59.594 9  27072230.342 9 107622883.295 9      2367.137 9        59.594 9
E31  24969349.879 9 131214790.318 9     -1543.009 9        57.422 9  24969349.879 9 131214790.318 9     -1543.009 9        57.422 9  24969353.059 9  97985066.036 9     -1152.248 9        57.282 9  24969353.059 9  97985066.036 9     -1152.248 9        57.282 9  24969352.811 9 100541199.191 9     -1182.306 9        57.282 9  24969352.811 9 100541199.191 9     -1182.306 9        57.282 9  24969352.933 9  99263132.616 9     -1167.277 9        60.292 9  24969352.933 9  99263132.616 9     -1167.277 9        60.292 9
E15  27831641.008 9 146256213.990 9     -1863.337 9        56.361 9  27831641.008 9 146256213.990 9     -1863.337 9        56.361 9  27831646.135 9 109217295.137 9     -1391.454 9        56.221 9  27831646.135 9 109217295.137 9     -1391.454 9        56.221 9  27831645.735 9 112066443.576 9     -1427.753 9        56.221 9  27831645.735 9 112066443.576 9     -1427.753 9        56.221 9  27831645.931 9 110641869.361 9     -1409.603 9        59.231 9  27831645.931 9 110641869.361 9     -1409.603 9        59.231 9
E03  26322027.285 9 138323152.338 9      2462.697 9        56.974 9  26322027.285 9 138323152.338 9      2462.697 9        56.974 9  26322030.786 9 103293256.324 9      1839.028 9        56.834 9  26322030.786 9 103293256.324 9      1839.028 9        56.834 9  26322030.489 9 105987864.206 9      1887.003 9        56.834 9  26322030.489 9 105987864.206 9      1887.003 9        56.834 9  26322030.635 9 104640560.269 9      1863.015 9        59.844 9  26322030.635 9 104640560.269 9      1863.015 9        59.844 9
E24  24082202.124 9 126552802.559 9      1239.928 9        57.797 9  24082202.124 9 126552802.559 9      1239.928 9        57.797 9  24082203.143 9  94503706.116 9       925.920 9        57.657 9  24082203.143 9  94503706.116 9       925.920 9        57.657 9  24082202.939 9  96969021.008 9       950.075 9        57.657 9  24082202.939 9  96969021.008 9       950.075 9        57.657 9  24082203.039 9  95736363.564 9       937.998 9        60.667 9  24082203.039 9  95736363.564 9       937.998 9        60.667 9
> 2023 01 08 10 00 26.0000000  0 20       0.000000000000
G08  25071709.366 9 131752671.390 9     -1492.866 9        54.231 9  25071713.473 8 102664410.582 8     -1163.272 8        49.731 8  25071713.184 9  98386720.146 9     -1114.803 9        56.331 9
G13  20026290.711 9 105238846.980 9       573.861 9        56.113 9  20026289.747 8  82004281.806 8       447.165 8        51.613 8  20026292.297 9  78587444.443 9       428.533 9        58.213 9
G17  24962695.823 9 131179769.115 9      2931.929 9        54.186 9  24962698.754 8 102217972.156 8      2284.623 8        49.686 8  24962702.074 9  97958893.963 9      2189.431 9        56.286 9
G24  24523928.120 9 128874060.028 9      3531.041 9        54.414 9  24523931.867 8 100421334.570 8      2751.462 8        49.914 8  24523932.050 9  96237107.325 9      2636.818 9        56.514 9
G07  24602820.411 9 129288633.153 9     -2972.594 9        54.356 9  24602821.983 8 100744365.285 8     -2316.310 8        49.856 8  24602824.996 9  96546688.586 9     -2219.797 9        56.456 9
G18  24771462.137 9 130174866.576 9     -1373.447 9        54.335 9  24771463.316 8 101434942.828 8     -1070.219 8        49.835 8  24771465.575 9  97208490.767 9     -1025.627 9        56.435 9
G20  23523699.556 9 123617824.191 9     -3650.524 9        54.723 9  23523701.090 8  96325557.697 8     -2844.567 8        50.223 8  23523703.430 9  92311996.368 9     -2726.044 9        56.823 9
G14  20962354.618 9 110157892.525 9       120.427 9        55.782 9  20962354.591 8  85837306.388 8        93.839 8        51.282 8  20962356.467 9  82260756.642 9        89.929 9        57.882 9
G23  24863247.282 9 130657202.536 9      3225.473 9        54.293 9  24863248.352 8 101810789.475 8      2513.357 8        49.793 8  24863250.587 9  97568677.234 9      2408.634 9        56.393 9
G05  21748661.888 9 114289960.496 9     -2435.480 9        55.468 9  21748661.513 8  89057095.859 8     -1897.778 8        50.968 8  21748664.086 9  85346390.447 9     -1818.704 9        57.568 9
G30  21860530.778 9 114877835.683 9     -2264.505 9        55.474 9  21860533.280 8  89515192.306 8     -1764.551 8        50.974 8  21860532.960 9  85785388.211 9     -1691.028 9        57.574 9
G15  21114659.312 9 110958257.900 9      2291.058 9        55.712 9  21114658.816 8  86460965.200 8      1785.241 8        51.212 8  21114661.251 9  82858431.732 9      1710.856 9        57.812 9
E05  23313300.336 9 122512199.165 9       356.942 9        57.976 9  23313300.336 9 122512199.165 9       356.942 9        57.976 9  23313302.862 9  91486379.971 9       266.547 9        57.837 9  23313302.862 9  91486379.971 9       266.547 9        57.837 9  23313302.682 9  93872981.911 9       273.501 9        57.837 9  23313302.682 9  93872981.911 9       273.501 9        57.837 9  23313302.770 9  92679680.943 9       270.024 9        60.847 9  23313302.770 9  92679680.943 9       270.024 9        60.847 9
E09  25218623.123 9 132524726.865 9     -2097.486 9        57.364 9  25218623.123 9 132524726.865 9     -2097.486 9        57.364 9  25218626.045 9  98963262.505 9     -1566.305 9        57.224 9  25218626.045 9  98963262.505 9     -1566.305 9        57.224 9  25218625.770 9 101544913.939 9     -1607.165 9        57.224 9  25218625.770 9 101544913.939 9     -1607.165 9        57.224 9  25218625.905 9 100254088.225 9     -1586.735 9        60.235 9  25218625.905 9 100254088.225 9     -1586.735 9        60.235 9
E13  28147469.139 9 147915902.057 9       319.878 9        56.288 9  28147469.139 9 147915902.057 9       319.878 9        56.288 9  28147472.824 9 110456666.952 9       238.870 9        56.148 9  28147472.824 9 110456666.952 9       238.870 9        56.148 9  28147472.424 9 113338146.828 9       245.102 9        56.148 9  28147472.424 9 113338146.828 9       245.102 9        56.148 9  28147472.620 9 111897406.895 9       241.986 9        59.158 9  28147472.620 9 111897406.895 9       241.986 9        59.158 9
E25  27071630.259 9 142262326.640 9      3128.970 9        56.724 9  27071630.259 9 142262326.640 9      3128.970 9        56.724 9  27071635.127 9 106234843.461 9      2336.571 9        56.584 9  27071635.127 9 106234843.461 9      2336.571 9        56.584 9  27071634.694 9 109006188.948 9      2397.524 9        56.584 9  27071634.694 9 109006188.948 9      2397.524 9        56.584 9  27071634.907 9 107620516.210 9      2367.047 9        59.594 9  27071634.907 9 107620516.210 9      2367.047 9        59.594 9
E31  24969643.540 9 131216333.510 9     -1543.383 9        57.422 9  24969643.540 9 131216333.510 9     -1543.383 9        57.422 9  24969646.720 9  97986218.419 9     -1152.527 9        57.282 9  24969646.720 9  97986218.419 9     -1152.527 9        57.282 9  24969646.472 9 100542381.636 9     -1182.593 9        57.282 9  24969646.472 9 100542381.636 9     -1182.593 9        57.282 9  24969646.593 9  99264300.031 9     -1167.560 9        60.292 9  24969646.593 9  99264300.031 9     -1167.560 9        60.292 9
E15  27831995.623 9 146258077.499 9     -1863.684 9        56.361 9  27831995.623 9 146258077.499 9     -1863.684 9        56.361 9  27832000.750 9 109218686.718 9     -1391.713 9        56.221 9  27832000.750 9 109218686.718 9     -1391.713 9        56.221 9  27832000.350 9 112067871.459 9     -1428.019 9        56.221 9  27832000.350 9 112067871.459 9     -1428.019 9        56.221 9  27832000.546 9 110643279.093 9     -1409.866 9        59.231 9  27832000.546 9 110643279.093 9     -1409.866 9        59.231 9
E03  26321558.658 9 138320689.691 9      2462.599 9        56.974 9  26321558.658 9 138320689.691 9      2462.599 9        56.974 9  26321562.159 9 103291417.335 9      1838.954 9        56.834 9  26321562.159 9 103291417.335 9      1838.954 9        56.834 9  26321561.862 9 105985977.243 9      1886.927 9        56.834 9  26321561.862 9 105985977.243 9      1886.927 9        56.834 9  26321562.008 9 104638697.292 9      1862.941 9        59.844 9  26321562.008 9 104638697.292 9      1862.941 9        59.844 9
E24  24081966.215 9 126551562.849 9      1239.494 9        57.797 9  24081966.215 9 126551562.849 9      1239.494 9        57.797 9  24081967.234 9  94502780.358 9       925.596 9        57.657 9  24081967.234 9  94502780.358 9       925.596 9        57.657 9  24081967.030 9  96968071.100 9       949.742 9        57.657 9  24081967.030 9  96968071.100 9       949.742 9        57.657 9  24081967.130 9  95735425.732 9       937.669 9        60.667 9  24081967.130 9  95735425.732 9       937.669 9        60.667 9
> 2023 01 08 10 00 27.0000000  0 20       0.000000000000
G08  25071993.504 9 131754164.544 9     -1493.443 9        54.231 9  25071997.611 8 102665574.080 8     -1163.722 8        49.731 8  25071997.322 9  98387835.164 9     -1115.234 9        56.331 9
G13  20026181.554 9 105238273.355 9       573.387 9        56.113 9  20026180.590 8  82003834.826 8       446.795 8        51.613 8  20026183.140 9  78587016.087 9       428.179 9        58.213 9
G17  24962137.900 9 131176837.225 9      2931.883 9        54.187 9  24962140.830 8 102215687.569 8      2284.587 8        49.687 8  24962144.151 9  97956704.569 9      2189.397 9        56.287 9
G24  24523256.195 9 128870529.040 9      3530.936 9        54.415 9  24523259.941 8 100418583.152 8      2751.380 8        49.915 8  24523260.124 9  96234470.549 9      2636.740 9        56.515 9
G07  24603386.081 9 129291605.758 9     -2972.643 9        54.356 9  24603387.653 8 100746681.598 8     -2316.348 8        49.856 8  24603390.666 9  96548908.385 9     -2219.834 9        56.456 9
G18  24771723.545 9 130176240.285 9     -1373.973 9        54.334 9  24771724.724 8 101436013.249 8     -1070.629 8        49.834 8  24771726.984 9  97209516.587 9     -1026.020 9        56.434 9
G20  23524394.242 9 123621474.778 9     -3650.670 9        54.723 9  23524395.776 8  96328402.308 8     -2844.681 8        50.223 8  23524398.117 9  92314722.453 9     -2726.153 9        56.823 9
G14  20962331.764 9 110157772.427 9       119.768 9        55.782 9  20962331.737 8  85837212.806 8        93.325 8        51.282 8  20962333.613 9  82260666.959 9        89.437 9        57.882 9
G23  24862633.524 9 130653977.221 9      3225.164 9        54.293 9  24862634.594 8 101808276.245 8      2513.116 8        49.793 8  24862636.829 9  97566268.721 9      2408.403 9        56.393 9
G05  21749125.394 9 114292396.232 9     -2435.998 9        55.468 9  21749125.019 8  89058993.835 8     -1898.181 8        50.968 8  21749127.592 9  85348209.340 9     -1819.091 9        57.568 9
G30  21860961.724 9 114880100.317 9     -2264.774 9        55.474 9  21860964.227 8  89516956.955 8     -1764.760 8        50.974 8  21860963.907 9  85787079.333 9     -1691.228 9        57.574 9
G15  21114223.379 9 110955967.058 9      2290.627 9        55.712 9  21114222.883 8  86459180.129 8      1784.905 8        51.212 8  21114225.318 9  82856721.038 9      1710.534 9        57.812 9
E05  23313232.442 9 122511842.382 9       356.624 9        57.977 9  23313232.442 9 122511842.382 9       356.624 9        57.977 9  23313234.968 9  91486113.541 9       266.310 9        57.837 9  23313234.968 9  91486113.541 9       266.310 9        57.837 9  23313234.788 9  93872708.532 9       273.257 9        57.837 9  23313234.788 9  93872708.532 9       273.257 9        57.837 9  23313234.876 9  92679411.039 9       269.784 9        60.847 9  23313234.876 9  92679411.039 9       269.784 9        60.847 9
E09  25219022.284 9 132526824.462 9     -2097.721 9        57.364 9  25219022.284 9 132526824.462 9     -2097.721 9        57.364 9  25219025.206 9  98964828.891 9     -1566.481 9        57.224 9  25219025.206 9  98964828.891 9     -1566.481 9        57.224 9  25219024.931 9 101546521.188 9     -1607.346 9        57.224 9  25219024.931 9 101546521.188 9     -1607.346 9        57.224 9  25219025.066 9 100255675.043 9     -1586.913 9        60.235 9  25219025.066 9 100255675.043 9     -1586.913 9        60.235 9
E13  28147408.315 9 147915582.427 9       319.383 9        56.288 9  28147408.315 9 147915582.427 9       319.383 9        56.288 9  28147412.000 9 110456428.267 9       238.501 9        56.148 9  28147412.000 9 110456428.267 9       238.501 9        56.148 9  28147411.601 9 113337901.917 9       244.723 9        56.148 9  28147411.601 9 113337901.917 9       244.723 9        56.148 9  28147411.796 9 111897165.097 9       241.612 9        59.158 9  28147411.796 9 111897165.097 9       241.612 9        59.158 9
E25  27071034.847 9 142259197.734 9      3128.851 9        56.724 9  27071034.847 9 142259197.734 9      3128.851 9        56.724 9  27071039.715 9 106232506.943 9      2336.482 9        56.584 9  27071039.715 9 106232506.943 9      2336.482 9        56.584 9  27071039.282 9 109003791.476 9      2397.433 9        56.584 9  27071039.282 9 109003791.476 9      2397.433 9        56.584 9  27071039.494 9 107618149.215 9      2366.957 9        59.594 9  27071039.494 9 107618149.215 9      2366.957 9        59.594 9
E31  24969937.271 9 131217877.077 9     -1543.757 9        57.422 9  24969937.271 9 131217877.077 9     -1543.757 9        57.422 9  24969940.451 9  97987371.082 9     -1152.806 9        57.282 9  24969940.451 9  97987371.082 9     -1152.806 9        57.282 9  24969940.203 9 100543564.368 9     -1182.879 9        57.282 9  24969940.203 9 100543564.368 9     -1182.879 9        57.282 9  24969940.325 9  99265467.728 9     -1167.843 9        60.292 9  24969940.325 9  99265467.728 9     -1167.843 9        60.292 9
E15  27832350.303 9 146259941.355 9     -1864.031 9        56.361 9  27832350.303 9 146259941.355 9     -1864.031 9        56.361 9  27832355.431 9 109220078.557 9     -1391.972 9        56.221 9  27832355.431 9 109220078.557 9     -1391.972 9        56.221 9  27832355.031 9 112069299.607 9     -1428.285 9        56.221 9  27832355.031 9 112069299.607 9     -1428.285 9        56.221 9  27832355.227 9 110644689.087 9     -1410.128 9        59.231 9  27832355.227 9 110644689.087 9     -1410.128 9        59.231 9
E03  26321090.050 9 138318227.142 9      2462.500 9        56.974 9  26321090.050 9 138318227.142 9      2462.500 9        56.974 9  26321093.551 9 103289578.419 9      1838.880 9        56.834 9  26321093.551 9 103289578.419 9      1838.880 9        56.834 9  26321093.254 9 105984090.355 9      1886.851 9        56.834 9  26321093.254 9 105984090.355 9      1886.851 9        56.834 9  26321093.400 9 104636834.391 9      1862.866 9        59.844 9  26321093.400 9 104636834.391 9      1862.866 9        59.844 9
E24  24081730.389 9 126550323.573 9      1239.060 9        57.797 9  24081730.389 9 126550323.573 9      1239.060 9        57.797 9  24081731.407 9  94501854.925 9       925.273 9        57.657 9  24081731.407 9  94501854.925 9       925.273 9        57.657 9  24081731.204 9  96967121.525 9       949.410 9        57.657 9  24081731.204 9  96967121.525 9       949.410 9        57.657 9  24081731.303 9  95734488.228 9       937.341 9        60.667 9  24081731.303 9  95734488.228 9       937.341 9        60.667 9
> 2023 01 08 10 00 28.0000000  0 20       0.000000000000
G08  25072277.751 9 131755658.276 9     -1494.021 9        54.231 9  25072281.859 8 102666738.027 8     -1164.172 8        49.731 8  25072281.569 9  98388950.613 9     -1115.665 9        56.331 9
G13  20026072.487 9 105237700.205 9       572.913 9        56.113 9  20026071.523 8  82003388.215 8       446.426 8        51.613 8  20026074.073 9  78586588.085 9       427.825 9        58.213 9
G17  24961579.986 9 131173905.382 9      2931.836 9        54.187 9  24961582.916 8 102213403.020 8      2284.551 8        49.687 8  24961586.236 9  97954515.209 9      2189.362 9        56.287 9
G24  24522584.289 9 128866998.157 9      3530.832 9        54.415 9  24522588.036 8 100415831.816 8      2751.299 8        49.915 8  24522588.219 9  96231833.852 9      2636.661 9        56.515 9
G07  24603951.761 9 129294578.412 9     -2972.693 9        54.356 9  24603953.333 8 100748997.949 8     -2316.387 8        49.856 8  24603956.347 9  96551128.221 9     -2219.871 9        56.456 9
G18  24771985.054 9 130177614.520 9     -1374.500 9        54.334 9  24771986.233 8 101437084.081 8     -1071.039 8        49.834 8  24771988.493 9  97210542.801 9     -1026.413 9        56.434 9
G20  23525088.955 9 123625125.511 9     -3650.817 9        54.723 9  23525090.491 8  96331247.032 8     -2844.795 8        50.223 8  23525092.831 9  92317448.647 9     -2726.262 9        56.823 9
G14  20962309.036 9 110157652.989 9       119.109 9        55.782 9  20962309.009 8  85837119.737 8        92.812 8        51.282 8  20962310.885 9  82260577.768 9        88.945 9        57.882 9
G23  24862019.825 9 130650752.216 9      3224.855 9        54.293 9  24862020.894 8 101805763.255 8      2512.875 8        49.793 8  24862023.129 9  97563860.440 9      2408.172 9        56.393 9
G05  21749588.999 9 114294832.486 9     -2436.516 9        55.468 9  21749588.624 8  89060892.213 8     -1898.585 8        50.968 8  21749591.197 9  85350028.619 9     -1819.477 9        57.568 9
G30  21861392.721 9 114882365.219 9     -2265.042 9        55.474 9  21861395.224 8  89518721.813 8     -1764.969 8        50.974 8  21861394.904 9  85788770.655 9     -1691.429 9        57.574 9
G15  21113787.528 9 110953676.647 9      2290.196 9        55.712 9  21113787.032 8  86457395.393 8      1784.569 8        51.212 8  21113789.467 9  82855010.667 9      1710.212 9        57.812 9
E05  23313164.609 9 122511485.916 9       356.307 9        57.977 9  23313164.609 9 122511485.916 9       356.307 9        57.977 9  23313167.135 9  91485847.349 9       266.073 9        57.837 9  23313167.135 9  91485847.349 9       266.073 9        57.837 9  23313166.955 9  93872435.395 9       273.014 9        57.837 9  23313166.955 9  93872435.395 9       273.014 9        57.837 9  23313167.043 9  92679141.374 9       269.544 9        60.847 9  23313167.043 9  92679141.374 9       269.544 9        60.847 9
E09  25219421.489 9 132528922.295 9     -2097.956 9        57.364 9  25219421.489 9 132528922.295 9     -2097.956 9        57.364 9  25219424.412 9  98966395.453 9     -1566.657 9        57.224 9  25219424.412 9  98966395.453 9     -1566.657 9        57.224 9  25219424.136 9 101548128.617 9     -1607.526 9        57.224 9  25219424.136 9 101548128.617 9     -1607.526 9        57.224 9  25219424.271 9 100257262.038 9     -1587.091 9        60.235 9  25219424.271 9 100257262.038 9     -1587.091 9        60.235 9
E13  28147347.586 9 147915263.292 9       318.889 9        56.288 9  28147347.586 9 147915263.292 9       318.889 9        56.288 9  28147351.270 9 110456189.952 9       238.131 9        56.148 9  28147351.270 9 110456189.952 9       238.131 9        56.148 9  28147350.871 9 113337657.384 9       244.344 9        56.148 9  28147350.871 9 113337657.384 9       244.344 9        56.148 9  28147351.067 9 111896923.673 9       241.237 9        59.159 9  28147351.067 9 111896923.673 9       241.237 9        59.159 9
E25  27070439.457 9 142256068.948 9      3128.732 9        56.724 9  27070439.457 9 142256068.948 9      3128.732 9        56.724 9  27070444.325 9 106230170.513 9      2336.393 9        56.584 9  27070444.325 9 106230170.513 9      2336.393 9        56.584 9  27070443.892 9 109001394.096 9      2397.342 9        56.584 9  27070443.892 9 109001394.096 9      2397.342 9        56.584 9  27070444.104 9 107615782.310 9      2366.867 9        59.595 9  27070444.104 9 107615782.310 9      2366.867 9        59.595 9
E31  24970231.074 9 131219421.017 9     -1544.131 9        57.422 9  24970231.074 9 131219421.017 9     -1544.131 9        57.422 9  24970234.254 9  97988524.023 9     -1153.085 9        57.282 9  24970234.254 9  97988524.023 9     -1153.085 9        57.282 9  24970234.006 9 100544747.387 9     -1183.166 9        57.282 9  24970234.006 9 100544747.387 9     -1183.166 9        57.282 9  24970234.128 9  99266635.708 9     -1168.126 9        60.292 9  24970234.128 9  99266635.708 9     -1168.126 9        60.292 9
E15  27832705.050 9 146261805.558 9     -1864.378 9        56.361 9  27832705.050 9 146261805.558 9     -1864.378 9        56.361 9  27832710.178 9 109221470.656 9     -1392.232 9        56.221 9  27832710.178 9 109221470.656 9     -1392.232 9        56.221 9  27832709.778 9 112070728.022 9     -1428.551 9        56.221 9  27832709.778 9 112070728.022 9     -1428.551 9        56.221 9  27832709.974 9 110646099.344 9     -1410.391 9        59.231 9  27832709.974 9 110646099.344 9     -1410.391 9        59.231 9
E03  26320621.461 9 138315764.691 9      2462.401 9        56.974 9  26320621.461 9 138315764.691 9      2462.401 9        56.974 9  26320624.962 9 103287739.577 9      1838.807 9        56.834 9  26320624.962 9 103287739.577 9      1838.807 9        56.834 9  26320624.665 9 105982203.543 9      1886.775 9        56.834 9  26320624.665 9 105982203.543 9      1886.775 9        56.834 9  26320624.810 9 104634971.564 9      1862.791 9        59.844 9  26320624.810 9 104634971.564 9      1862.791 9        59.844 9
E24  24081494.645 9 126549084.730 9      1238.627 9        57.797 9  24081494.645 9 126549084.730 9      1238.627 9        57.797 9  24081495.663 9  94500929.815 9       924.949 9        57.657 9  24081495.663 9  94500929.815 9       924.949 9        57.657 9  24081495.460 9  96966172.282 9       949.078 9        57.657 9  24081495.460 9  96966172.282 9       949.078 9        57.657 9  24081495.559 9  95733551.051 9       937.013 9        60.667 9  24081495.559 9  95733551.051 9       937.013 9        60.667 9
> 2023 01 08 10 00 29.0000000  0 20       0.000000000000
G08  25072562.109 9 131757152.586 9     -1494.598 9        54.231 9  25072566.216 8 102667902.424 8     -1164.621 8        49.731 8  25072565.927 9  98390066.494 9     -1116.095 9        56.331 9
G13  20025963.511 9 105237127.529 9       572.439 9        56.113 9  20025962.546 8  82002941.974 8       446.056 8        51.613 8  20025965.097 9  78586160.437 9       427.470 9        58.213 9
G17  24961022.081 9 131170973.585 9      2931.790 9        54.187 9  24961025.010 8 102211118.506 8      2284.515 8        49.687 8  24961028.330 9  97952325.884 9      2189.327 9        56.287 9
G24  24521912.403 9 128863467.378 9      3530.727 9        54.415 9  24521916.150 8 100413080.561 8      2751.217 8        49.915 8  24521916.333 9  96229197.234 9      2636.583 9        56.515 9
G07  24604517.450 9 129297551.116 9     -2972.743 9        54.356 9  24604519.023 8 100751314.339 8     -2316.426 8        49.856 8  24604522.036 9  96553348.094 9     -2219.908 9        56.456 9
G18  24772246.663 9 130178989.281 9     -1375.026 9        54.334 9  24772247.842 8 101438155.323 8     -1071.450 8        49.834 8  24772250.102 9  97211569.408 9     -1026.806 9        56.434 9
G20  23525783.697 9 123628776.391 9     -3650.963 9        54.723 9  23525785.233 8  96334091.871 8     -2844.909 8        50.223 8  23525787.573 9  92320174.950 9     -2726.372 9        56.823 9
G14  20962286.433 9 110157534.209 9       118.450 9        55.782 9  20962286.406 8  85837027.181 8        92.299 8        51.282 8  20962288.282 9  82260489.068 9        88.453 9        57.882 9
G23  24861406.184 9 130647527.519 9      3224.545 9        54.293 9  24861407.253 8 101803250.506 8      2512.634 8        49.793 8  24861409.488 9  97561452.389 9      2407.941 9        56.393 9
G05  21750052.702 9 114297269.258 9     -2437.033 9        55.468 9  21750052.327 8  89062790.995 8     -1898.988 8        50.968 8  21750054.900 9  85351848.285 9     -1819.864 9        57.568 9
G30  21861823.770 9 114884630.389 9     -2265.310 9        55.474 9  21861826.273 8  89520486.880 8     -1765.178 8        50.974 8  21861825.953 9  85790462.177 9     -1691.629 9        57.574 9
G15  21113351.759 9 110951386.667 9      2289.764 9        55.712 9  21113351.263 8  86455610.994 8      1784.232 8        51.212 8  21113353.697 9  82853300.618 9      1709.889 9        57.812 9
E05  23313096.836 9 122511129.767 9       355.990 9        57.977 9  23313096.836 9 122511129.767 9       355.990 9        57.977 9  23313099.362 9  91485581.393 9       265.836 9        57.837 9  23313099.362 9  91485581.393 9       265.836 9        57.837 9  23313099.182 9  93872162.502 9       272.771 9        57.837 9  23313099.182 9  93872162.502 9       272.771 9        57.837 9  23313099.271 9  92678871.950 9       269.304 9        60.847 9  23313099.271 9  92678871.950 9       269.304 9        60.847 9
E09  25219820.738 9 132531020.363 9     -2098.191 9        57.364 9  25219820.738 9 132531020.363 9     -2098.191 9        57.364 9  25219823.662 9  98967962.191 9     -1566.832 9        57.224 9  25219823.662 9  98967962.191 9     -1566.832 9        57.224 9  25219823.387 9 101549736.226 9     -1607.706 9        57.224 9  25219823.387 9 101549736.226 9     -1607.706 9        57.224 9  25219823.521 9 100258849.212 9     -1587.269 9        60.234 9  25219823.521 9 100258849.212 9     -1587.269 9        60.234 9
E13  28147286.950 9 147914944.651 9       318.394 9        56.288 9  28147286.950 9 147914944.651 9       318.394 9        56.288 9  28147290.635 9 110455952.006 9       237.762 9        56.148 9  28147290.635 9 110455952.006 9       237.762 9        56.148 9  28147290.236 9 113337413.231 9       243.965 9        56.148 9  28147290.236 9 113337413.231 9       243.965 9        56.148 9  28147290.431 9 111896682.623 9       240.863 9        59.159 9  28147290.431 9 111896682.623 9       240.863 9        59.159 9
E25  27069844.091 9 142252940.280 9      3128.613 9        56.724 9  27069844.091 9 142252940.280 9      3128.613 9        56.724 9  27069848.958 9 106227834.172 9      2336.304 9        56.585 9  27069848.958 9 106227834.172 9      2336.304 9        56.585 9  27069848.525 9 108998996.807 9      2397.251 9        56.585 9  27069848.525 9 108998996.807 9      2397.251 9        56.585 9  27069848.737 9 107613415.495 9      2366.777 9        59.595 9  27069848.737 9 107613415.495 9      2366.777 9        59.595 9
E31  24970524.947 9 131220965.332 9     -1544.505 9        57.422 9  24970524.947 9 131220965.332 9     -1544.505 9        57.422 9  24970528.128 9  97989677.245 9     -1153.365 9        57.282 9  24970528.128 9  97989677.245 9     -1153.365 9        57.282 9  24970527.880 9 100545930.692 9     -1183.452 9        57.282 9  24970527.880 9 100545930.692 9     -1183.452 9        57.282 9  24970528.002 9  99267803.972 9     -1168.409 9        60.292 9  24970528.002 9  99267803.972 9     -1168.409 9        60.292 9
E15  27833059.863 9 146263670.109 9     -1864.725 9        56.360 9  27833059.863 9 146263670.109 9     -1864.725 9        56.360 9  27833064.991 9 109222863.014 9     -1392.491 9        56.221 9  27833064.991 9 109222863.014 9     -1392.491 9        56.221 9  27833064.591 9 112072156.703 9     -1428.816 9        56.221 9  27833064.591 9 112072156.703 9     -1428.816 9        56.221 9  27833064.787 9 110647509.864 9     -1410.654 9        59.231 9  27833064.787 9 110647509.864 9     -1410.654 9        59.231 9
E03  26320152.891 9 138313302.340 9      2462.302 9        56.974 9  26320152.891 9 138313302.340 9      2462.302 9        56.974 9  26320156.391 9 103285900.809 9      1838.733 9        56.834 9  26320156.391 9 103285900.809 9      1838.733 9        56.834 9  26320156.094 9 105980316.807 9      1886.700 9        56.834 9  26320156.094 9 105980316.807 9      1886.700 9        56.834 9  26320156.240 9 104633108.812 9      1862.716 9        59.845 9  26320156.240 9 104633108.812 9      1862.716 9        59.845 9
E24  24081258.983 9 126547846.321 9      1238.193 9        57.797 9  24081258.983 9 126547846.321 9      1238.193 9        57.797 9  24081260.002 9  94500005.030 9       924.625 9        57.657 9  24081260.002 9  94500005.030 9       924.625 9        57.657 9  24081259.798 9  96965223.372 9       948.746 9        57.657 9  24081259.798 9  96965223.372 9       948.746 9        57.657 9  24081259.898 9  95732614.203 9       936.685 9        60.667 9  24081259.898 9  95732614.203 9       936.685 9        60.667 9
> 2023 01 08 10 00 30.0000000  0 20       0.000000000000
G08  25072846.576 9 131758647.472 9     -1495.175 9        54.230 9  25072850.683 8 102669067.270 8     -1165.071 8        49.730 8  25072850.394 9  98391182.805 9     -1116.526 9        56.330 9
G13  20025854.624 9 105236555.327 9       571.964 9        56.113 9  20025853.660 8  82002496.102 8       445.686 8        51.613 8  20025856.210 9  78585733.143 9       427.116 9        58.213 9
G17  24960464.185 9 131168041.835 9      2931.743 9        54.187 9  24960467.113 8 102208834.028 8      2284.478 8        49.687 8  24960470.433 9  97950136.594 9      2189.293 9        56.287 9
G24  24521240.538 9 128859936.705 9      3530.622 9        54.415 9  24521244.284 8 100410329.388 8      2751.136 8        49.915 8  24521244.466 9  96226560.693 9      2636.505 9        56.515 9
G07  24605083.148 9 129300523.869 9     -2972.792 9        54.355 9  24605084.722 8 100753630.767 8     -2316.464 8        49.855 8  24605087.736 9  96555568.004 9     -2219.945 9        56.455 9
G18  24772508.372 9 130180364.569 9     -1375.552 9        54.334 9  24772509.551 8 101439226.975 8     -1071.860 8        49.834 8  24772511.812 9  97212596.407 9     -1027.199 9        56.434 9
G20  23526478.466 9 123632427.418 9     -3651.110 9        54.722 9  23526480.003 8  96336936.824 8     -2845.023 8        50.222 8  23526482.343 9  92322901.362 9     -2726.481 9        56.822 9
G14  20962263.955 9 110157416.088 9       117.791 9        55.782 9  20962263.928 8  85836935.139 8        91.785 8        51.282 8  20962265.805 9  82260400.861 9        87.961 9        57.882 9
G23  24860792.603 9 130644303.132 9      3224.236 9        54.293 9  24860793.671 8 101800737.998 8      2512.393 8        49.793 8  24860795.907 9  97559044.569 9      2407.710 9        56.393 9
G05  21750516.503 9 114299706.547 9     -2437.551 9        55.468 9  21750516.129 8  89064690.181 8     -1899.391 8        50.968 8  21750518.702 9  85353668.337 9     -1820.250 9        57.568 9
G30  21862254.869 9 114886895.828 9     -2265.578 9        55.474 9  21862257.373 8  89522252.156 8     -1765.387 8        50.974 8  21862257.053 9  85792153.900 9     -1691.829 9        57.574 9
G15  21112916.072 9 110949097.119 9      2289.333 9        55.713 9  21112915.576 8  86453826.931 8      1783.896 8        51.213 8  21112918.010 9  82851590.891 9      1709.567 9        57.813 9
E05  23313029.124 9 122510773.935 9       355.673 9        57.977 9  23313029.124 9 122510773.935 9       355.673 9        57.977 9  23313031.650 9  91485315.675 9       265.599 9        57.837 9  23313031.650 9  91485315.675 9       265.599 9        57.837 9  23313031.470 9  93871889.851 9       272.528 9        57.837 9  23313031.470 9  93871889.851 9       272.528 9        57.837 9  23313031.558 9  92678602.765 9       269.064 9        60.847 9  23313031.558 9  92678602.765 9       269.064 9        60.847 9
E09  25220220.033 9 132533118.666 9     -2098.426 9        57.364 9  25220220.033 9 132533118.666 9     -2098.426 9        57.364 9  25220222.957 9  98969529.104 9     -1567.008 9        57.224 9  25220222.957 9  98969529.104 9     -1567.008 9        57.224 9  25220222.681 9 101551344.015 9     -1607.886 9        57.224 9  25220222.681 9 101551344.015 9     -1607.886 9        57.224 9  25220222.816 9 100260436.563 9     -1587.447 9        60.234 9  25220222.816 9 100260436.563 9     -1587.447 9        60.234 9
E13  28147226.409 9 147914626.504 9       317.900 9        56.288 9  28147226.409 9 147914626.504 9       317.900 9        56.288 9  28147230.093 9 110455714.429 9       237.393 9        56.148 9  28147230.093 9 110455714.429 9       237.393 9        56.148 9  28147229.694 9 113337169.457 9       243.585 9        56.148 9  28147229.694 9 113337169.457 9       243.585 9        56.148 9  28147229.890 9 111896441.948 9       240.489 9        59.159 9  28147229.890 9 111896441.948 9       240.489 9        59.159 9
E25  27069248.747 9 142249811.732 9      3128.494 9        56.725 9  27069248.747 9 142249811.732 9      3128.494 9        56.725 9  27069253.613 9 106225497.920 9      2336.215 9        56.585 9  27069253.613 9 106225497.920 9      2336.215 9        56.585 9  27069253.180 9 108996599.609 9      2397.159 9        56.585 9  27069253.180 9 108996599.609 9      2397.159 9        56.585 9  27069253.392 9 107611048.770 9      2366.687 9        59.595 9  27069253.392 9 107611048.770 9      2366.687 9        59.595 9
E31  24970818.892 9 131222510.020 9     -1544.879 9        57.422 9  24970818.892 9 131222510.020 9     -1544.879 9        57.422 9  24970822.073 9  97990830.745 9     -1153.644 9        57.282 9  24970822.073 9  97990830.745 9     -1153.644 9        57.282 9  24970821.825 9 100547114.284 9     -1183.739 9        57.282 9  24970821.825 9 100547114.284 9     -1183.739 9        57.282 9  24970821.947 9  99268972.518 9     -1168.691 9        60.292 9  24970821.947 9  99268972.518 9     -1168.691 9        60.292 9
E15  27833414.741 9 146265535.006 9     -1865.072 9        56.360 9  27833414.741 9 146265535.006 9     -1865.072 9        56.360 9  27833419.870 9 109224255.632 9     -1392.750 9        56.220 9  27833419.870 9 109224255.632 9     -1392.750 9        56.220 9  27833419.470 9 112073585.649 9     -1429.082 9        56.220 9  27833419.470 9 112073585.649 9     -1429.082 9        56.220 9  27833419.666 9 110648920.645 9     -1410.916 9        59.231 9  27833419.666 9 110648920.645 9     -1410.916 9        59.231 9
E03  26319684.339 9 138310840.088 9      2462.203 9        56.974 9  26319684.339 9 138310840.088 9      2462.203 9        56.974 9  26319687.839 9 103284062.114 9      1838.659 9        56.834 9  26319687.839 9 103284062.114 9      1838.659 9        56.834 9  26319687.543 9 105978430.147 9      1886.624 9        56.834 9  26319687.543 9 105978430.147 9      1886.624 9        56.834 9  26319687.688 9 104631246.134 9      1862.641 9        59.845 9  26319687.688 9 104631246.134 9      1862.641 9        59.845 9
E24  24081023.404 9 126546608.346 9      1237.759 9        57.797 9  24081023.404 9 126546608.346 9      1237.759 9        57.797 9  24081024.423 9  94499080.568 9       924.301 9        57.657 9  24081024.423 9  94499080.568 9       924.301 9        57.657 9  24081024.219 9  96964274.794 9       948.413 9        57.657 9  24081024.219 9  96964274.794 9       948.413 9        57.657 9  24081024.319 9  95731677.683 9       936.357 9        60.667 9  24081024.319 9  95731677.683 9       936.357 9        60.667 9
> 2023 01 08 10 00 31.0000000  0 20       0.000000000000
G08  25073131.153 9 131760142.935 9     -1495.752 9        54.230 9  25073135.260 8 102670232.566 8     -1165.521 8        49.730 8  25073134.971 9  98392299.547 9     -1116.957 9        56.330 9
G13  20025745.828 9 105235983.599 9       571.490 9        56.113 9  20025744.864 8  82002050.600 8       445.317 8        51.613 8  20025747.414 9  78585306.204 9       426.762 9        58.213 9
G17  24959906.298 9 131165110.131 9      2931.696 9        54.187 9  24959909.225 8 102206549.587 8      2284.442 8        49.687 8  24959912.544 9  97947947.339 9      2189.258 9        56.287 9
G24  24520568.692 9 128856406.136 9      3530.518 9        54.415 9  24520572.438 8 100407578.296 8      2751.054 8        49.915 8  24520572.620 9  96223924.230 9      2636.427 9        56.515 9
G07  24605648.856 9 129303496.672 9     -2972.842 9        54.355 9  24605650.430 8 100755947.234 8     -2316.503 8        49.855 8  24605653.444 9  96557787.951 9     -2219.982 9        56.455 9
G18  24772770.181 9 130181740.382 9     -1376.078 9        54.334 9  24772771.361 8 101440299.037 8     -1072.270 8        49.834 8  24772773.621 9  97213623.800 9     -1027.592 9        56.434 9
G20  23527173.263 9 123636078.590 9     -3651.256 9        54.722 9  23527174.800 8  96339781.891 8     -2845.137 8        50.222 8  23527177.141 9  92325627.884 9     -2726.590 9        56.822 9
G14  20962241.603 9 110157298.626 9       117.132 9        55.782 9  20962241.576 8  85836843.610 8        91.272 8        51.282 8  20962243.452 9  82260313.146 9        87.469 9        57.882 9
G23  24860179.080 9 130641079.055 9      3223.927 9        54.294 9  24860180.148 8 101798225.731 8      2512.152 8        49.794 8  24860182.383 9  97556636.980 9      2407.479 9        56.394 9
G05  21750980.403 9 114302144.354 9     -2438.068 9        55.467 9  21750980.029 8  89066589.769 8     -1899.795 8        50.967 8  21750982.602 9  85355488.776 9     -1820.637 9        57.567 9
G30  21862686.020 9 114889161.535 9     -2265.847 9        55.474 9  21862688.523 8  89524017.641 8     -1765.596 8        50.974 8  21862688.204 9  85793845.823 9     -1692.029 9        57.574 9
G15  21112480.467 9 110946808.002 9      2288.901 9        55.713 9  21112479.971 8  86452043.204 8      1783.560 8        51.213 8  21112482.406 9  82849881.486 9      1709.245 9        57.813 9
E05  23312961.472 9 122510418.421 9       355.355 9        57.977 9  23312961.472 9 122510418.421 9       355.355 9        57.977 9  23312963.998 9  91485050.193 9       265.362 9        57.837 9  23312963.998 9  91485050.193 9       265.362 9        57.837 9  23312963.818 9  93871617.444 9       272.285 9        57.837 9  23312963.818 9  93871617.444 9       272.285 9        57.837 9  23312963.906 9  92678333.821 9       268.824 9        60.847 9  23312963.906 9  92678333.821 9       268.824 9        60.847 9
E09  25220619.372 9 132535217.204 9     -2098.661 9        57.364 9  25220619.372 9 132535217.204 9     -2098.661 9        57.364 9  25220622.296 9  98971096.193 9     -1567.183 9        57.224 9  25220622.296 9  98971096.193 9     -1567.183 9        57.224 9  25220622.021 9 101552951.985 9     -1608.066 9        57.224 9  25220622.021 9 101552951.985 9     -1608.066 9        57.224 9  25220622.156 9 100262024.092 9     -1587.625 9        60.234 9  25220622.156 9 100262024.092 9     -1587.625 9        60.234 9
E13  28147165.962 9 147914308.852 9       317.405 9        56.288 9  28147165.962 9 147914308.852 9       317.405 9        56.288 9  28147169.646 9 110455477.222 9       237.023 9        56.148 9  28147169.646 9 110455477.222 9       237.023 9        56.148 9  28147169.247 9 113336926.061 9       243.206 9        56.148 9  28147169.247 9 113336926.061 9       243.206 9        56.148 9  28147169.443 9 111896201.647 9       240.115 9        59.159 9  28147169.443 9 111896201.647 9       240.115 9        59.159 9
E25  27068653.425 9 142246683.302 9      3128.375 9        56.725 9  27068653.425 9 142246683.302 9      3128.375 9        56.725 9  27068658.291 9 106223161.757 9      2336.126 9        56.585 9  27068658.291 9 106223161.757 9      2336.126 9        56.585 9  27068657.858 9 108994202.502 9      2397.068 9        56.585 9  27068657.858 9 108994202.502 9      2397.068 9        56.585 9  27068658.071 9 107608682.135 9      2366.597 9        59.595 9  27068658.071 9 107608682.135 9      2366.597 9        59.595 9
E31  24971112.908 9 131224055.082 9     -1545.253 9        57.421 9  24971112.908 9 131224055.082 9     -1545.253 9        57.421 9  24971116.089 9  97991984.524 9     -1153.923 9        57.282 9  24971116.089 9  97991984.524 9     -1153.923 9        57.282 9  24971115.841 9 100548298.162 9     -1184.025 9        57.282 9  24971115.841 9 100548298.162 9     -1184.025 9        57.282 9  24971115.963 9  99270141.347 9     -1168.974 9        60.292 9  24971115.963 9  99270141.347 9     -1168.974 9        60.292 9
E15  27833769.686 9 146267400.250 9     -1865.419 9        56.360 9  27833769.686 9 146267400.250 9     -1865.419 9        56.360 9  27833774.815 9 109225648.508 9     -1393.009 9        56.220 9  27833774.815 9 109225648.508 9     -1393.009 9        56.220 9  27833774.415 9 112075014.861 9     -1429.348 9        56.220 9  27833774.415 9 112075014.861 9     -1429.348 9        56.220 9  27833774.611 9 110650331.690 9     -1411.178 9        59.231 9  27833774.611 9 110650331.690 9     -1411.178 9        59.231 9
E03  26319215.807 9 138308377.934 9      2462.104 9        56.974 9  26319215.807 9 138308377.934 9      2462.104 9        56.974 9  26319219.307 9 103282223.494 9      1838.585 9        56.835 9  26319219.307 9 103282223.494 9      1838.585 9        56.835 9  26319219.010 9 105976543.562 9      1886.548 9        56.835 9  26319219.010 9 105976543.562 9      1886.548 9        56.835 9  26319219.155 9 104629383.532 9      1862.567 9        59.845 9  26319219.155 9 104629383.532 9      1862.567 9        59.845 9
E24  24080787.908 9 126545370.805 9      1237.326 9        57.797 9  24080787.908 9 126545370.805 9      1237.326 9        57.797 9  24080788.926 9  94498156.430 9       923.977 9        57.657 9  24080788.926 9  94498156.430 9       923.977 9        57.657 9  24080788.722 9  96963326.548 9       948.081 9        57.657 9  24080788.722 9  96963326.548 9       948.081 9        57.657 9  24080788.822 9  95730741.491 9       936.029 9        60.667 9  24080788.822 9  95730741.491 9       936.029 9        60.667 9
> 2023 01 08 10 00 32.0000000  0 20       0.000000000000
G08  25073415.840 9 131761638.975 9     -1496.329 9        54.230 9  25073419.947 8 102671398.312 8     -1165.970 8        49.730 8  25073419.658 9  98393416.720 9     -1117.388 9        56.330 9
G13  20025637.123 9 105235412.346 9       571.016 9        56.113 9  20025636.158 8  82001605.468 8       444.947 8        51.613 8  20025638.709 9  78584879.619 9       426.408 9        58.213 9
G17  24959348.420 9 131162178.474 9      2931.649 9        54.187 9  24959351.346 8 102204265.183 8      2284.405 8        49.687 8  24959354.665 9  97945758.119 9      2189.223 9        56.287 9
G24  24519896.866 9 128852875.672 9      3530.413 9        54.416 9  24519900.611 8 100404827.286 8      2750.972 8        49.916 8  24519900.794 9  96221287.846 9      2636.349 9        56.516 9
G07  24606214.573 9 129306469.525 9     -2972.891 9        54.355 9  24606216.148 8 100758263.740 8     -2316.541 8        49.855 8  24606219.162 9  96560007.935 9     -2220.019 9        56.455 9
G18  24773032.090 9 130183116.722 9     -1376.605 9        54.334 9  24773033.270 8 101441371.509 8     -1072.680 8        49.834 8  24773035.531 9  97214651.586 9     -1027.985 9        56.434 9
G20  23527868.088 9 123639729.909 9     -3651.402 9        54.722 9  23527869.626 8  96342627.071 8     -2845.251 8        50.222 8  23527871.967 9  92328354.515 9     -2726.699 9        56.822 9
G14  20962219.376 9 110157181.823 9       116.473 9        55.782 9  20962219.349 8  85836752.595 8        90.758 8        51.282 8  20962221.226 9  82260225.923 9        86.977 9        57.882 9
G23  24859565.616 9 130637855.286 9      3223.617 9        54.294 9  24859566.684 8 101795713.705 8      2511.911 8        49.794 8  24859568.919 9  97554229.623 9      2407.248 9        56.394 9
G05  21751444.401 9 114304582.678 9     -2438.586 9        55.467 9  21751444.028 8  89068489.761 8     -1900.198 8        50.967 8  21751446.601 9  85357309.601 9     -1821.023 9        57.567 9
G30  21863117.221 9 114891427.510 9     -2266.115 9        55.473 9  21863119.725 8  89525783.335 8     -1765.805 8        50.973 8  21863119.405 9  85795537.946 9     -1692.230 9        57.573 9
G15  21112044.945 9 110944519.317 9      2288.470 9        55.713 9  21112044.448 8  86450259.814 8      1783.223 8        51.213 8  21112046.883 9  82848172.403 9      1708.923 9        57.813 9
E05  23312893.880 9 122510063.224 9       355.038 9        57.977 9  23312893.880 9 122510063.224 9       355.038 9        57.977 9  23312896.406 9  91484784.949 9       265.126 9        57.837 9  23312896.406 9  91484784.949 9       265.126 9        57.837 9  23312896.226 9  93871345.280 9       272.042 9        57.837 9  23312896.226 9  93871345.280 9       272.042 9        57.837 9  23312896.314 9  92678065.117 9       268.584 9        60.847 9  23312896.314 9  92678065.117 9       268.584 9        60.847 9
E09  25221018.756 9 132537315.976 9     -2098.896 9        57.364 9  25221018.756 9 132537315.976 9     -2098.896 9        57.364 9  25221021.681 9  98972663.457 9     -1567.359 9        57.224 9  25221021.681 9  98972663.457 9     -1567.359 9        57.224 9  25221021.405 9 101554560.134 9     -1608.246 9        57.224 9  25221021.405 9 101554560.134 9     -1608.246 9        57.224 9  25221021.540 9 100263611.799 9     -1587.802 9        60.234 9  25221021.540 9 100263611.799 9     -1587.802 9        60.234 9
E13  28147105.609 9 147913991.695 9       316.910 9        56.288 9  28147105.609 9 147913991.695 9       316.910 9        56.288 9  28147109.293 9 110455240.384 9       236.654 9        56.148 9  28147109.293 9 110455240.384 9       236.654 9        56.148 9  28147108.894 9 113336683.045 9       242.827 9        56.148 9  28147108.894 9 113336683.045 9       242.827 9        56.148 9  28147109.090 9 111895961.720 9       239.741 9        59.159 9  28147109.090 9 111895961.720 9       239.741 9        59.159 9
E25  27068058.126 9 142243554.992 9      3128.255 9        56.725 9  27068058.126 9 142243554.992 9      3128.255 9        56.725 9  27068062.992 9 106220825.683 9      2336.037 9        56.585 9  27068062.992 9 106220825.683 9      2336.037 9        56.585 9  27068062.559 9 108991805.487 9      2396.977 9        56.585 9  27068062.559 9 108991805.487 9      2396.977 9        56.585 9  27068062.771 9 107606315.591 9      2366.507 9        59.595 9  27068062.771 9 107606315.591 9      2366.507 9        59.595 9
E31  24971406.995 9 131225600.518 9     -1545.626 9        57.421 9  24971406.995 9 131225600.518 9     -1545.626 9        57.421 9  24971410.176 9  97993138.583 9     -1154.202 9        57.281 9  24971410.176 9  97993138.583 9     -1154.202 9        57.281 9  24971409.929 9 100549482.327 9     -1184.312 9        57.281 9  24971409.929 9 100549482.327 9     -1184.312 9        57.281 9  24971410.050 9  99271310.458 9     -1169.257 9        60.292 9  24971410.050 9  99271310.458 9     -1169.257 9        60.292 9
E15  27834124.697 9 146269265.841 9     -1865.766 9        56.360 9  27834124.697 9 146269265.841 9     -1865.766 9        56.360 9  27834129.826 9 109227041.643 9     -1393.268 9        56.220 9  27834129.826 9 109227041.643 9     -1393.268 9        56.220 9  27834129.426 9 112076444.339 9     -1429.614 9        56.220 9  27834129.426 9 112076444.339 9     -1429.614 9        56.220 9  27834129.622 9 110651742.996 9     -1411.441 9        59.231 9  27834129.622 9 110651742.996 9     -1411.441 9        59.231 9
E03  26318747.293 9 138305915.880 9      2462.005 9        56.975 9  26318747.293 9 138305915.880 9      2462.005 9        56.975 9  26318750.793 9 103280384.947 9      1838.511 9        56.835 9  26318750.793 9 103280384.947 9      1838.511 9        56.835 9  26318750.496 9 105974657.054 9      1886.472 9        56.835 9  26318750.496 9 105974657.054 9      1886.472 9        56.835 9  26318750.641 9 104627521.004 9      1862.492 9        59.845 9  26318750.641 9 104627521.004 9      1862.492 9        59.845 9
E24  24080552.494 9 126544133.697 9      1236.892 9        57.797 9  24080552.494 9 126544133.697 9      1236.892 9        57.797 9  24080553.512 9  94497232.616 9       923.653 9        57.657 9  24080553.512 9  94497232.616 9       923.653 9        57.657 9  24080553.309 9  96962378.634 9       947.749 9        57.657 9  24080553.309 9  96962378.634 9       947.749 9        57.657 9  24080553.408 9  95729805.628 9       935.701 9        60.668 9  24080553.408 9  95729805.628 9       935.701 9        60.668 9
> 2023 01 08 10 00 33.0000000  0 20       0.000000000000
G08  25073700.637 9 131763135.592 9     -1496.905 9        54.230 9  25073704.744 8 102672564.507 8     -1166.420 8        49.730 8  25073704.454 9  98394534.324 9     -1117.819 9        56.330 9
G13  20025528.507 9 105234841.567 9       570.541 9        56.113 9  20025527.543 8  82001160.705 8       444.577 8        51.613 8  20025530.093 9  78584453.388 9       426.053 9        58.213 9
G17  24958790.551 9 131159246.865 9      2931.602 9        54.188 9  24958793.475 8 102201980.815 8      2284.369 8        49.688 8  24958796.795 9  97943568.934 9      2189.187 9        56.288 9
G24  24519225.060 9 128849345.312 9      3530.308 9        54.416 9  24519228.805 8 100402076.358 8      2750.891 8        49.916 8  24519228.988 9  96218651.540 9      2636.270 9        56.516 9
G07  24606780.299 9 129309442.427 9     -2972.941 9        54.355 9  24606781.875 8 100760580.284 8     -2316.580 8        49.855 8  24606784.889 9  96562227.956 9     -2220.056 9        56.455 9
G18  24773294.100 9 130184493.588 9     -1377.131 9        54.334 9  24773295.280 8 101442444.391 8     -1073.089 8        49.834 8  24773297.540 9  97215679.764 9     -1028.378 9        56.434 9
G20  23528562.941 9 123643381.374 9     -3651.548 9        54.722 9  23528564.479 8  96345472.366 8     -2845.365 8        50.222 8  23528566.821 9  92331081.255 9     -2726.808 9        56.822 9
G14  20962197.275 9 110157065.679 9       115.815 9        55.782 9  20962197.248 8  85836662.093 8        90.245 8        51.282 8  20962199.124 9  82260139.192 9        86.485 9        57.882 9
G23  24858952.212 9 130634631.828 9      3223.308 9        54.294 9  24858953.279 8 101793201.920 8      2511.670 8        49.794 8  24858955.514 9  97551822.496 9      2407.017 9        56.394 9
G05  21751908.498 9 114307021.519 9     -2439.103 9        55.467 9  21751908.125 8  89070390.155 8     -1900.601 8        50.967 8  21751910.698 9  85359130.812 9     -1821.409 9        57.567 9
G30  21863548.474 9 114893693.754 9     -2266.383 9        55.473 9  21863550.978 8  89527549.237 8     -1766.014 8        50.973 8  21863550.658 9  85797230.269 9     -1692.430 9        57.573 9
G15  21111609.504 9 110942231.064 9      2288.038 9        55.713 9  21111609.007 8  86448476.760 8      1782.887 8        51.213 8  21111611.442 9  82846463.643 9      1708.600 9        57.813 9
E05  23312826.349 9 122509708.344 9       354.720 9        57.977 9  23312826.349 9 122509708.344 9       354.720 9        57.977 9  23312828.875 9  91484519.941 9       264.889 9        57.837 9  23312828.875 9  91484519.941 9       264.889 9        57.837 9  23312828.695 9  93871073.359 9       271.799 9        57.837 9  23312828.695 9  93871073.359 9       271.799 9        57.837 9  23312828.783 9  92677796.652 9       268.344 9        60.847 9  23312828.783 9  92677796.652 9       268.344 9        60.847 9
E09  25221418.185 9 132539414.984 9     -2099.131 9        57.363 9  25221418.185 9 132539414.984 9     -2099.131 9        57.363 9  25221421.110 9  98974230.897 9     -1567.534 9        57.224 9  25221421.110 9  98974230.897 9     -1567.534 9        57.224 9  25221420.834 9 101556168.464 9     -1608.426 9        57.224 9  25221420.834 9 101556168.464 9     -1608.426 9        57.224 9  25221420.969 9 100265199.684 9     -1587.980 9        60.234 9  25221420.969 9 100265199.684 9     -1587.980 9        60.234 9
E13  28147045.350 9 147913675.033 9       316.415 9        56.288 9  28147045.350 9 147913675.033 9       316.415 9        56.288 9  28147049.034 9 110455003.915 9       236.284 9        56.148 9  28147049.034 9 110455003.915 9       236.284 9        56.148 9  28147048.635 9 113336440.408 9       242.448 9        56.148 9  28147048.635 9 113336440.408 9       242.448 9        56.148 9  28147048.831 9 111895722.167 9       239.366 9        59.159 9  28147048.831 9 111895722.167 9       239.366 9        59.159 9
E25  27067462.850 9 142240426.802 9      3128.136 9        56.725 9  27067462.850 9 142240426.802 9      3128.136 9        56.725 9  27067467.716 9 106218489.699 9      2335.948 9        56.585 9  27067467.716 9 106218489.699 9      2335.948 9        56.585 9  27067467.283 9 108989408.564 9      2396.885 9        56.585 9  27067467.283 9 108989408.564 9      2396.885 9        56.585 9  27067467.495 9 107603949.137 9      2366.416 9        59.596 9  27067467.495 9 107603949.137 9      2366.416 9        59.596 9
E31  24971701.154 9 131227146.328 9     -1546.000 9        57.421 9  24971701.154 9 131227146.328 9     -1546.000 9        57.421 9  24971704.335 9  97994292.921 9     -1154.481 9        57.281 9  24971704.335 9  97994292.921 9     -1154.481 9        57.281 9  24971704.087 9 100550666.778 9     -1184.598 9        57.281 9  24971704.087 9 100550666.778 9     -1184.598 9        57.281 9  24971704.209 9  99272479.853 9     -1169.540 9        60.292 9  24971704.209 9  99272479.853 9     -1169.540 9        60.292 9
E15  27834479.774 9 146271131.779 9     -1866.113 9        56.360 9  27834479.774 9 146271131.779 9     -1866.113 9        56.360 9  27834484.903 9 109228435.037 9     -1393.527 9        56.220 9  27834484.903 9 109228435.037 9     -1393.527 9        56.220 9  27834484.503 9 112077874.083 9     -1429.879 9        56.220 9  27834484.503 9 112077874.083 9     -1429.879 9        56.220 9  27834484.699 9 110653154.565 9     -1411.703 9        59.230 9  27834484.699 9 110653154.565 9     -1411.703 9        59.230 9
E03  26318278.798 9 138303453.924 9      2461.906 9        56.975 9  26318278.798 9 138303453.924 9      2461.906 9        56.975 9  26318282.297 9 103278546.475 9      1838.437 9        56.835 9  26318282.297 9 103278546.475 9      1838.437 9        56.835 9  26318282.001 9 105972770.621 9      1886.396 9        56.835 9  26318282.001 9 105972770.621 9      1886.396 9        56.835 9  26318282.146 9 104625658.552 9      1862.417 9        59.845 9  26318282.146 9 104625658.552 9      1862.417 9        59.845 9
E24  24080317.162 9 126542897.023 9      1236.458 9        57.797 9  24080317.162 9 126542897.023 9      1236.458 9        57.797 9  24080318.181 9  94496309.126 9       923.329 9        57.657 9  24080318.181 9  94496309.126 9       923.329 9        57.657 9  24080317.977 9  96961431.053 9       947.416 9        57.657 9  24080317.977 9  96961431.053 9       947.416 9        57.657 9  24080318.077 9  95728870.092 9       935.373 9        60.668 9  24080318.077 9  95728870.092 9       935.373 9        60.668 9
> 2023 01 08 10 00 34.0000000  0 20       0.000000000000
G08  25073985.543 9 131764632.786 9     -1497.482 9        54.230 9  25073989.650 8 102673731.152 8     -1166.869 8        49.730 8  25073989.361 9  98395652.358 9     -1118.250 9        56.330 9
G13  20025419.982 9 105234271.263 9       570.067 9        56.113 9  20025419.018 8  82000716.312 8       444.208 8        51.613 8  20025421.568 9  78584027.511 9       425.699 9        58.213 9
G17  24958232.690 9 131156315.302 9      2931.555 9        54.188 9  24958235.614 8 102199696.484 8      2284.332 8        49.688 8  24958238.933 9  97941379.784 9      2189.152 9        56.288 9
G24  24518553.274 9 128845815.058 9      3530.203 9        54.416 9  24518557.019 8 100399325.512 8      2750.809 8        49.916 8  24518557.202 9  96216015.313 9      2636.192 9        56.516 9
G07  24607346.035 9 129312415.379 9     -2972.990 9        54.355 9  24607347.612 8 100762896.867 8     -2316.618 8        49.855 8  24607350.626 9  96564448.014 9     -2220.093 9        56.455 9
G18  24773556.209 9 130185870.980 9     -1377.656 9        54.334 9  24773557.390 8 101443517.683 8     -1073.499 8        49.834 8  24773559.650 9  97216708.335 9     -1028.770 9        56.434 9
G20  23529257.821 9 123647032.984 9     -3651.694 9        54.721 9  23529259.360 8  96348317.774 8     -2845.478 8        50.221 8  23529261.702 9  92333808.104 9     -2726.917 9        56.821 9
G14  20962175.299 9 110156950.194 9       115.156 9        55.782 9  20962175.272 8  85836572.104 8        89.732 8        51.282 8  20962177.148 9  82260052.953 9        85.993 9        57.882 9
G23  24858338.866 9 130631408.679 9      3222.998 9        54.294 9  24858339.933 8 101790690.377 8      2511.428 8        49.794 8  24858342.168 9  97549415.601 9      2406.786 9        56.394 9
G05  21752372.694 9 114309460.877 9     -2439.620 9        55.467 9  21752372.320 8  89072290.953 8     -1901.004 8        50.967 8  21752374.894 9  85360952.410 9     -1821.795 9        57.567 9
G30  21863979.777 9 114895960.265 9     -2266.651 9        55.473 9  21863982.282 8  89529315.349 8     -1766.222 8        50.973 8  21863981.962 9  85798922.793 9     -1692.630 9        57.573 9
G15  21111174.146 9 110939943.242 9      2287.606 9        55.713 9  21111173.649 8  86446694.042 8      1782.551 8        51.213 8  21111176.084 9  82844755.205 9      1708.278 9        57.813 9
E05  23312758.878 9 122509353.782 9       354.403 9        57.977 9  23312758.878 9 122509353.782 9       354.403 9        57.977 9  23312761.404 9  91484255.170 9       264.651 9        57.837 9  23312761.404 9  91484255.170 9       264.651 9        57.837 9  23312761.224 9  93870801.681 9       271.555 9        57.837 9  23312761.224 9  93870801.681 9       271.555 9        57.837 9  23312761.312 9  92677528.428 9       268.103 9        60.847 9  23312761.312 9  92677528.428 9       268.103 9        60.847 9
E09  25221817.658 9 132541514.227 9     -2099.366 9        57.363 9  25221817.658 9 132541514.227 9     -2099.366 9        57.363 9  25221820.583 9  98975798.512 9     -1567.710 9        57.223 9  25221820.583 9  98975798.512 9     -1567.710 9        57.223 9  25221820.308 9 101557776.973 9     -1608.606 9        57.223 9  25221820.308 9 101557776.973 9     -1608.606 9        57.223 9  25221820.443 9 100266787.746 9     -1588.158 9        60.234 9  25221820.443 9 100266787.746 9     -1588.158 9        60.234 9
E13  28146985.185 9 147913358.865 9       315.921 9        56.288 9  28146985.185 9 147913358.865 9       315.921 9        56.288 9  28146988.869 9 110454767.816 9       235.915 9        56.148 9  28146988.869 9 110454767.816 9       235.915 9        56.148 9  28146988.470 9 113336198.150 9       242.069 9        56.148 9  28146988.470 9 113336198.150 9       242.069 9        56.148 9  28146988.666 9 111895482.988 9       238.992 9        59.159 9  28146988.666 9 111895482.988 9       238.992 9        59.159 9
E25  27066867.597 9 142237298.730 9      3128.017 9        56.725 9  27066867.597 9 142237298.730 9      3128.017 9        56.725 9  27066872.462 9 106216153.803 9      2335.858 9        56.586 9  27066872.462 9 106216153.803 9      2335.858 9        56.586 9  27066872.029 9 108987011.731 9      2396.794 9        56.586 9  27066872.029 9 108987011.731 9      2396.794 9        56.586 9  27066872.241 9 107601582.773 9      2366.326 9        59.596 9  27066872.241 9 107601582.773 9      2366.326 9        59.596 9
E31  24971995.383 9 131228692.512 9     -1546.374 9        57.421 9  24971995.383 9 131228692.512 9     -1546.374 9        57.421 9  24971998.564 9  97995447.538 9     -1154.760 9        57.281 9  24971998.564 9  97995447.538 9     -1154.760 9        57.281 9  24971998.317 9 100551851.515 9     -1184.884 9        57.281 9  24971998.317 9 100551851.515 9     -1184.884 9        57.281 9  24971998.438 9  99273649.530 9     -1169.822 9        60.292 9  24971998.438 9  99273649.530 9     -1169.822 9        60.292 9
E15  27834834.917 9 146272998.064 9     -1866.459 9        56.360 9  27834834.917 9 146272998.064 9     -1866.459 9        56.360 9  27834840.046 9 109229828.690 9     -1393.786 9        56.220 9  27834840.046 9 109229828.690 9     -1393.786 9        56.220 9  27834839.646 9 112079304.092 9     -1430.145 9        56.220 9  27834839.646 9 112079304.092 9     -1430.145 9        56.220 9  27834839.842 9 110654566.396 9     -1411.965 9        59.230 9  27834839.842 9 110654566.396 9     -1411.965 9        59.230 9
E03  26317810.322 9 138300992.068 9      2461.807 9        56.975 9  26317810.322 9 138300992.068 9      2461.807 9        56.975 9  26317813.821 9 103276708.076 9      1838.363 9        56.835 9  26317813.821 9 103276708.076 9      1838.363 9        56.835 9  26317813.525 9 105970884.264 9      1886.320 9        56.835 9  26317813.525 9 105970884.264 9      1886.320 9        56.835 9  26317813.670 9 104623796.174 9      1862.342 9        59.845 9  26317813.670 9 104623796.174 9      1862.342 9        59.845 9
E24  24080081.914 9 126541660.782 9      1236.024 9        57.797 9  24080081.914 9 126541660.782 9      1236.024 9        57.797 9  24080082.932 9  94495385.960 9       923.005 9        57.657 9  24080082.932 9  94495385.960 9       923.005 9        57.657 9  24080082.728 9  96960483.804 9       947.084 9        57.657 9  24080082.728 9  96960483.804 9       947.084 9        57.657 9  24080082.828 9  95727934.884 9       935.045 9        60.668 9  24080082.828 9  95727934.884 9       935.045 9        60.668 9
> 2023 01 08 10 00 35.0000000  0 20       0.000000000000
G08  25074270.559 9 131766130.556 9     -1498.059 9        54.230 9  25074274.666 8 102674898.246 8     -1167.319 8        49.730 8  25074274.377 9  98396770.824 9     -1118.680 9        56.330 9
G13  20025311.547 9 105233701.433 9       569.592 9        56.113 9  20025310.583 8  82000272.289 8       443.838 8        51.613 8  20025313.133 9  78583601.989 9       425.345 9        58.213 9
G17  24957674.839 9 131153383.786 9      2931.508 9        54.188 9  24957677.762 8 102197412.190 8      2284.295 8        49.688 8  24957681.081 9  97939190.669 9      2189.117 9        56.288 9
G24  24517881.508 9 128842284.908 9      3530.098 9        54.416 9  24517885.253 8 100396574.747 8      2750.727 8        49.916 8  24517885.435 9  96213379.163 9      2636.114 9        56.516 9
G07  24607911.781 9 129315388.380 9     -2973.040 9        54.354 9  24607913.358 8 100765213.489 8     -2316.657 8        49.854 8  24607916.372 9  96566668.109 9     -2220.130 9        56.454 9
G18  24773818.419 9 130187248.898 9     -1378.182 9        54.334 9  24773819.599 8 101444591.384 8     -1073.909 8        49.834 8  24773821.860 9  97217737.299 9     -1029.163 9        56.434 9
G20  23529952.729 9 123650684.741 9     -3651.840 9        54.721 9  23529954.269 8  96351163.296 8     -2845.592 8        50.221 8  23529956.611 9  92336535.062 9     -2727.026 9        56.821 9
G14  20962153.448 9 110156835.367 9       114.497 9        55.782 9  20962153.421 8  85836482.629 8        89.218 8        51.282 8  20962155.297 9  82259967.205 9        85.501 9        57.882 9
G23  24857725.579 9 130628185.840 9      3222.688 9        54.294 9  24857726.646 8 101788179.075 8      2511.187 8        49.794 8  24857728.880 9  97547008.937 9      2406.554 9        56.394 9
G05  21752836.987 9 114311900.752 9     -2440.137 9        55.467 9  21752836.614 8  89074192.153 8     -1901.406 8        50.967 8  21752839.188 9  85362774.393 9     -1822.181 9        57.567 9
G30  21864411.132 9 114898227.044 9     -2266.919 9        55.473 9  21864413.636 8  89531081.670 8     -1766.431 8        50.973 8  21864413.317 9  85800615.516 9     -1692.830 9        57.573 9
G15  21110738.870 9 110937655.852 9      2287.174 9        55.714 9  21110738.373 8  86444911.661 8      1782.214 8        51.214 8  21110740.808 9  82843047.090 9      1707.955 9        57.814 9
E05  23312691.468 9 122508999.537 9       354.086 9        57.977 9  23312691.468 9 122508999.537 9       354.086 9        57.977 9  23312693.994 9  91483990.637 9       264.414 9        57.837 9  23312693.994 9  91483990.637 9       264.414 9        57.837 9  23312693.814 9  93870530.247 9       271.312 9        57.837 9  23312693.814 9  93870530.247 9       271.312 9        57.837 9  23312693.902 9  92677260.444 9       267.863 9        60.847 9  23312693.902 9  92677260.444 9       267.863 9        60.847 9
E09  25222217.177 9 132543613.705 9     -2099.601 9        57.363 9  25222217.177 9 132543613.705 9     -2099.601 9        57.363 9  25222220.102 9  98977366.303 9     -1567.885 9        57.223 9  25222220.102 9  98977366.303 9     -1567.885 9        57.223 9  25222219.827 9 101559385.663 9     -1608.786 9        57.223 9  25222219.827 9 101559385.663 9     -1608.786 9        57.223 9  25222219.962 9 100268375.986 9     -1588.336 9        60.234 9  25222219.962 9 100268375.986 9     -1588.336 9        60.234 9
E13  28146925.114 9 147913043.193 9       315.426 9        56.288 9  28146925.114 9 147913043.193 9       315.426 9        56.288 9  28146928.798 9 110454532.087 9       235.546 9        56.148 9  28146928.798 9 110454532.087 9       235.546 9        56.148 9  28146928.399 9 113335956.271 9       241.690 9        56.148 9  28146928.399 9 113335956.271 9       241.690 9        56.148 9  28146928.595 9 111895244.184 9       238.618 9        59.159 9  28146928.595 9 111895244.184 9       238.618 9        59.159 9
E25  27066272.366 9 142234170.779 9      3127.897 9        56.726 9  27066272.366 9 142234170.779 9      3127.897 9        56.726 9  27066277.231 9 106213817.996 9      2335.769 9        56.586 9  27066277.231 9 106213817.996 9      2335.769 9        56.586 9  27066276.798 9 108984614.991 9      2396.702 9        56.586 9  27066276.798 9 108984614.991 9      2396.702 9        56.586 9  27066277.010 9 107599216.499 9      2366.236 9        59.596 9  27066277.010 9 107599216.499 9      2366.236 9        59.596 9
E31  24972289.683 9 131230239.069 9     -1546.747 9        57.421 9  24972289.683 9 131230239.069 9     -1546.747 9        57.421 9  24972292.865 9  97996602.433 9     -1155.039 9        57.281 9  24972292.865 9  97996602.433 9     -1155.039 9        57.281 9  24972292.617 9 100553036.539 9     -1185.171 9        57.281 9  24972292.617 9 100553036.539 9     -1185.171 9        57.281 9  24972292.739 9  99274819.489 9     -1170.105 9        60.291 9  24972292.739 9  99274819.489 9     -1170.105 9        60.291 9
E15  27835190.125 9 146274864.695 9     -1866.806 9        56.360 9  27835190.125 9 146274864.695 9     -1866.806 9        56.360 9  27835195.255 9 109231222.602 9     -1394.044 9        56.220 9  27835195.255 9 109231222.602 9     -1394.044 9        56.220 9  27835194.855 9 112080734.367 9     -1430.411 9        56.220 9  27835194.855 9 112080734.367 9     -1430.411 9        56.220 9  27835195.051 9 110655978.490 9     -1412.227 9        59.230 9  27835195.051 9 110655978.490 9     -1412.227 9        59.230 9
E03  26317341.864 9 138298530.310 9      2461.708 9        56.975 9  26317341.864 9 138298530.310 9      2461.708 9        56.975 9  26317345.364 9 103274869.751 9      1838.289 9        56.835 9  26317345.364 9 103274869.751 9      1838.289 9        56.835 9  26317345.067 9 105968997.983 9      1886.245 9        56.835 9  26317345.067 9 105968997.983 9      1886.245 9        56.835 9  26317345.213 9 104621933.871 9      1862.267 9        59.846 9  26317345.213 9 104621933.871 9      1862.267 9        59.846 9
E24  24079846.747 9 126540424.976 9      1235.591 9        57.797 9  24079846.747 9 126540424.976 9      1235.591 9        57.797 9  24079847.765 9  94494463.117 9       922.681 9        57.658 9  24079847.765 9  94494463.117 9       922.681 9        57.658 9  24079847.562 9  96959536.888 9       946.751 9        57.658 9  24079847.562 9  96959536.888 9       946.751 9        57.658 9  24079847.662 9  95727000.005 9       934.716 9        60.668 9  24079847.662 9  95727000.005 9       934.716 9        60.668 9
> 2023 01 08 10 00 36.0000000  0 20       0.000000000000
G08  25074555.685 9 131767628.904 9     -1498.636 9        54.230 9  25074559.792 8 102676065.789 8     -1167.768 8        49.730 8  25074559.503 9  98397889.720 9     -1119.111 9        56.330 9
G13  20025203.202 9 105233132.078 9       569.118 9        56.113 9  20025202.238 8  81999828.635 8       443.468 8        51.613 8  20025204.788 9  78583176.821 9       424.990 9        58.213 9
G17  24957116.996 9 131150452.318 9      2931.461 9        54.188 9  24957119.919 8 102195127.932 8      2284.258 8        49.688 8  24957123.238 9  97937001.590 9      2189.082 9        56.288 9
G24  24517209.762 9 128838754.864 9      3529.993 9        54.417 9  24517213.506 8 100393824.064 8      2750.645 8        49.917 8  24517213.689 9  96210743.092 9      2636.035 9        56.517 9
G07  24608477.536 9 129318361.430 9     -2973.089 9        54.354 9  24608479.113 8 100767530.148 8     -2316.695 8        49.854 8  24608482.128 9  96568888.240 9     -2220.167 9        56.454 9
G18  24774080.729 9 130188627.342 9     -1378.708 9        54.334 9  24774081.909 8 101445665.496 8     -1074.319 8        49.834 8  24774084.169 9  97218766.655 9     -1029.556 9        56.434 9
G20  23530647.665 9 123654336.643 9     -3651.985 9        54.721 9  23530649.206 8  96354008.931 8     -2845.706 8        50.221 8  23530651.548 9  92339262.129 9     -2727.135 9        56.821 9
G14  20962131.723 9 110156721.199 9       113.838 9        55.782 9  20962131.696 8  85836393.667 8        88.705 8        51.282 8  20962133.572 9  82259881.950 9        85.009 9        57.882 9
G23  24857112.351 9 130624963.311 9      3222.378 9        54.295 9  24857113.417 8 101785668.015 8      2510.945 8        49.795 8  24857115.652 9  97544602.504 9      2406.323 9        56.395 9
G05  21753301.379 9 114314341.145 9     -2440.654 9        55.466 9  21753301.007 8  89076093.757 8     -1901.809 8        50.966 8  21753303.580 9  85364596.763 9     -1822.567 9        57.566 9
G30  21864842.537 9 114900494.092 9     -2267.187 9        55.473 9  21864845.042 8  89532848.199 8     -1766.640 8        50.973 8  21864844.723 9  85802308.440 9     -1693.030 9        57.573 9
G15  21110303.676 9 110935368.895 9      2286.742 9        55.714 9  21110303.179 8  86443129.616 8      1781.877 8        51.214 8  21110305.613 9  82841339.298 9      1707.633 9        57.814 9
E05  23312624.118 9 122508645.610 9       353.768 9        57.977 9  23312624.118 9 122508645.610 9       353.768 9        57.977 9  23312626.644 9  91483726.340 9       264.177 9        57.837 9  23312626.644 9  91483726.340 9       264.177 9        57.837 9  23312626.464 9  93870259.056 9       271.069 9        57.837 9  23312626.464 9  93870259.056 9       271.069 9        57.837 9  23312626.552 9  92676992.700 9       267.623 9        60.847 9  23312626.552 9  92676992.700 9       267.623 9        60.847 9
E09  25222616.740 9 132545713.418 9     -2099.836 9        57.363 9  25222616.740 9 132545713.418 9     -2099.836 9        57.363 9  25222619.665 9  98978934.269 9     -1568.061 9        57.223 9  25222619.665 9  98978934.269 9     -1568.061 9        57.223 9  25222619.390 9 101560994.533 9     -1608.966 9        57.223 9  25222619.390 9 101560994.533 9     -1608.966 9        57.223 9  25222619.525 9 100269964.404 9     -1588.514 9        60.233 9  25222619.525 9 100269964.404 9     -1588.514 9        60.233 9
E13  28146865.138 9 147912728.014 9       314.931 9        56.288 9  28146865.138 9 147912728.014 9       314.931 9        56.288 9  28146868.822 9 110454296.726 9       235.176 9        56.148 9  28146868.822 9 110454296.726 9       235.176 9        56.148 9  28146868.423 9 113335714.770 9       241.311 9        56.148 9  28146868.423 9 113335714.770 9       241.311 9        56.148 9  28146868.618 9 111895005.754 9       238.244 9        59.159 9  28146868.618 9 111895005.754 9       238.244 9        59.159 9
E25  27065677.159 9 142231042.946 9      3127.778 9        56.726 9  27065677.159 9 142231042.946 9      3127.778 9        56.726 9  27065682.022 9 106211482.279 9      2335.680 9        56.586 9  27065682.022 9 106211482.279 9      2335.680 9        56.586 9  27065681.590 9 108982218.341 9      2396.611 9        56.586 9  27065681.590 9 108982218.341 9      2396.611 9        56.586 9  27065681.802 9 107596850.316 9      2366.145 9        59.596 9  27065681.802 9 107596850.316 9      2366.145 9        59.596 9
E31  24972584.055 9 131231785.999 9     -1547.121 9        57.421 9  24972584.055 9 131231785.999 9     -1547.121 9        57.421 9  24972587.237 9  97997757.608 9     -1155.318 9        57.281 9  24972587.237 9  97997757.608 9     -1155.318 9        57.281 9  24972586.989 9 100554221.849 9     -1185.457 9        57.281 9  24972586.989 9 100554221.849 9     -1185.457 9        57.281 9  24972587.111 9  99275989.732 9     -1170.388 9        60.291 9  24972587.111 9  99275989.732 9     -1170.388 9        60.291 9
E15  27835545.400 9 146276731.672 9     -1867.152 9        56.360 9  27835545.400 9 146276731.672 9     -1867.152 9        56.360 9  27835550.530 9 109232616.773 9     -1394.303 9        56.220 9  27835550.530 9 109232616.773 9     -1394.303 9        56.220 9  27835550.130 9 112082164.908 9     -1430.676 9        56.220 9  27835550.130 9 112082164.908 9     -1430.676 9        56.220 9  27835550.326 9 110657390.845 9     -1412.490 9        59.230 9  27835550.326 9 110657390.845 9     -1412.490 9        59.230 9
E03  26316873.426 9 138296068.652 9      2461.609 9        56.975 9  26316873.426 9 138296068.652 9      2461.609 9        56.975 9  26316876.925 9 103273031.501 9      1838.215 9        56.835 9  26316876.925 9 103273031.501 9      1838.215 9        56.835 9  26316876.629 9 105967111.778 9      1886.169 9        56.835 9  26316876.629 9 105967111.778 9      1886.169 9        56.835 9  26316876.774 9 104620071.643 9      1862.192 9        59.846 9  26316876.774 9 104620071.643 9      1862.192 9        59.846 9
E24  24079611.664 9 126539189.603 9      1235.157 9        57.797 9  24079611.664 9 126539189.603 9      1235.157 9        57.797 9  24079612.682 9  94493540.599 9       922.357 9        57.658 9  24079612.682 9  94493540.599 9       922.357 9        57.658 9  24079612.478 9  96958590.304 9       946.419 9        57.658 9  24079612.478 9  96958590.304 9       946.419 9        57.658 9  24079612.578 9  95726065.454 9       934.388 9        60.668 9  24079612.578 9  95726065.454 9       934.388 9        60.668 9
> 2023 01 08 10 00 37.0000000  0 20       0.000000000000
G08  25074840.921 9 131769127.828 9     -1499.212 9        54.230 9  25074845.028 8 102677233.782 8     -1168.217 8        49.730 8  25074844.738 9  98399009.046 9     -1119.542 9        56.330 9
G13  20025094.948 9 105232563.197 9       568.643 9        56.113 9  20025093.984 8  81999385.351 8       443.098 8        51.613 8  20025096.534 9  78582752.007 9       424.636 9        58.213 9
G17  24956559.163 9 131147520.897 9      2931.413 9        54.188 9  24956562.085 8 102192843.711 8      2284.221 8        49.688 8  24956565.403 9  97934812.546 9      2189.046 9        56.288 9
G24  24516538.036 9 128835224.924 9      3529.888 9        54.417 9  24516541.780 8 100391073.463 8      2750.563 8        49.917 8  24516541.962 9  96208107.100 9      2635.957 9        56.517 9
G07  24609043.300 9 129321334.530 9     -2973.138 9        54.354 9  24609044.878 8 100769846.847 8     -2316.734 8        49.854 8  24609047.893 9  96571108.409 9     -2220.204 9        56.454 9
G18  24774343.138 9 130190006.311 9     -1379.234 9        54.334 9  24774344.319 8 101446740.017 8     -1074.728 8        49.834 8  24774346.579 9  97219796.404 9     -1029.948 9        56.434 9
G20  23531342.629 9 123657988.691 9     -3652.131 9        54.721 9  23531344.170 8  96356854.680 8     -2845.819 8        50.221 8  23531346.512 9  92341989.304 9     -2727.244 9        56.821 9
G14  20962110.123 9 110156607.690 9       113.179 9        55.782 9  20962110.096 8  85836305.218 8        88.191 8        51.282 8  20962111.972 9  82259797.187 9        84.517 9        57.882 9
G23  24856499.182 9 130621741.091 9      3222.068 9        54.295 9  24856500.248 8 101783157.196 8      2510.704 8        49.795 8  24856502.483 9  97542196.303 9      2406.091 9        56.395 9
G05  21753765.870 9 114316782.054 9     -2441.171 9        55.466 9  21753765.497 8  89077995.763 8     -1902.212 8        50.966 8  21753768.071 9  85366419.519 9     -1822.953 9        57.566 9
G30  21865273.994 9 114902761.407 9     -2267.455 9        55.473 9  21865276.499 8  89534614.937 8     -1766.849 8        50.973 8  21865276.179 9  85804001.564 9     -1693.230 9        57.573 9
G15  21109868.564 9 110933082.369 9      2286.310 9        55.714 9  21109868.067 8  86441347.908 8      1781.541 8        51.214 8  21109870.502 9  82839631.827 9      1707.310 9        57.814 9
E05  23312556.828 9 122508292.000 9       353.451 9        57.977 9  23312556.828 9 122508292.000 9       353.451 9        57.977 9  23312559.354 9  91483462.280 9       263.940 9        57.837 9  23312559.354 9  91483462.280 9       263.940 9        57.837 9  23312559.174 9  93869988.107 9       270.826 9        57.837 9  23312559.174 9  93869988.107 9       270.826 9        57.837 9  23312559.262 9  92676725.196 9       267.383 9        60.847 9  23312559.262 9  92676725.196 9       267.383 9        60.847 9
E09  25223016.347 9 132547813.366 9     -2100.071 9        57.363 9  25223016.347 9 132547813.366 9     -2100.071 9        57.363 9  25223019.273 9  98980502.410 9     -1568.236 9        57.223 9  25223019.273 9  98980502.410 9     -1568.236 9        57.223 9  25223018.998 9 101562603.583 9     -1609.146 9        57.223 9  25223018.998 9 101562603.583 9     -1609.146 9        57.223 9  25223019.133 9 100271553.000 9     -1588.691 9        60.233 9  25223019.133 9 100271553.000 9     -1588.691 9        60.233 9
E13  28146805.255 9 147912413.331 9       314.437 9        56.288 9  28146805.255 9 147912413.331 9       314.437 9        56.288 9  28146808.939 9 110454061.736 9       234.807 9        56.148 9  28146808.939 9 110454061.736 9       234.807 9        56.148 9  28146808.540 9 113335473.650 9       240.932 9        56.148 9  28146808.540 9 113335473.650 9       240.932 9        56.148 9  28146808.736 9 111894767.698 9       237.869 9        59.159 9  28146808.736 9 111894767.698 9       237.869 9        59.159 9
E25  27065081.973 9 142227915.233 9      3127.658 9        56.726 9  27065081.973 9 142227915.233 9      3127.658 9        56.726 9  27065086.837 9 106209146.651 9      2335.591 9        56.586 9  27065086.837 9 106209146.651 9      2335.591 9        56.586 9  27065086.404 9 108979821.784 9      2396.519 9        56.586 9  27065086.404 9 108979821.784 9      2396.519 9        56.586 9  27065086.616 9 107594484.223 9      2366.055 9        59.596 9  27065086.616 9 107594484.223 9      2366.055 9        59.596 9
E31  24972878.498 9 131233333.303 9     -1547.494 9        57.421 9  24972878.498 9 131233333.303 9     -1547.494 9        57.421 9  24972881.680 9  97998913.062 9     -1155.597 9        57.281 9  24972881.680 9  97998913.062 9     -1155.597 9        57.281 9  24972881.432 9 100555407.445 9     -1185.743 9        57.281 9  24972881.432 9 100555407.445 9     -1185.743 9        57.281 9  24972881.553 9  99277160.256 9     -1170.670 9        60.291 9  24972881.553 9  99277160.256 9     -1170.670 9        60.291 9
E15  27835900.740 9 146278598.997 9     -1867.499 9        56.360 9  27835900.740 9 146278598.997 9     -1867.499 9        56.360 9  27835905.871 9 109234011.202 9     -1394.562 9        56.220 9  27835905.871 9 109234011.202 9     -1394.562 9        56.220 9  27835905.471 9 112083595.714 9     -1430.942 9        56.220 9  27835905.471 9 112083595.714 9     -1430.942 9        56.220 9  27835905.667 9 110658803.463 9     -1412.752 9        59.230 9  27835905.667 9 110658803.463 9     -1412.752 9        59.230 9
E03  26316405.006 9 138293607.093 9      2461.510 9        56.975 9  26316405.006 9 138293607.093 9      2461.510 9        56.975 9  26316408.505 9 103271193.324 9      1838.141 9        56.836 9  26316408.505 9 103271193.324 9      1838.141 9        56.836 9  26316408.209 9 105965225.648 9      1886.093 9        56.836 9  26316408.209 9 105965225.648 9      1886.093 9        56.836 9  26316408.354 9 104618209.490 9      1862.117 9        59.846 9  26316408.354 9 104618209.490 9      1862.117 9        59.846 9
E24  24079376.662 9 126537954.665 9      1234.723 9        57.798 9  24079376.662 9 126537954.665 9      1234.723 9        57.798 9  24079377.680 9  94492618.405 9       922.033 9        57.658 9  24079377.680 9  94492618.405 9       922.033 9        57.658 9  24079377.477 9  96957644.052 9       946.087 9        57.658 9  24079377.477 9  96957644.052 9       946.087 9        57.658 9  24079377.577 9  95725131.231 9       934.060 9        60.668 9  24079377.577 9  95725131.231 9       934.060 9        60.668 9
> 2023 01 08 10 00 38.0000000  0 20       0.000000000000
G08  25075126.266 9 131770627.328 9     -1499.789 9        54.230 9  25075130.373 8 102678402.225 8     -1168.667 8        49.730 8  25075130.084 9  98400128.803 9     -1119.972 9        56.330 9
G13  20024986.784 9 105231994.791 9       568.168 9        56.113 9  20024985.820 8  81998942.437 8       442.729 8        51.613 8  20024988.370 9  78582327.548 9       424.282 9        58.213 9
G17  24956001.339 9 131144589.524 9      2931.366 9        54.189 9  24956004.259 8 102190559.528 8      2284.184 8        49.689 8  24956007.578 9  97932623.537 9      2189.011 9        56.289 9
G24  24515866.330 9 128831695.089 9      3529.783 9        54.417 9  24515870.074 8 100388322.943 8      2750.482 8        49.917 8  24515870.256 9  96205471.186 9      2635.878 9        56.517 9
G07  24609609.073 9 129324307.679 9     -2973.188 9        54.354 9  24609610.653 8 100772163.583 8     -2316.772 8        49.854 8  24609613.667 9  96573328.614 9     -2220.241 9        56.454 9
G18  24774605.648 9 130191385.807 9     -1379.759 9        54.333 9  24774606.829 8 101447814.947 8     -1075.138 8        49.833 8  24774609.089 9  97220826.546 9     -1030.341 9        56.433 9
G20  23532037.621 9 123661640.885 9     -3652.276 9        54.720 9  23532039.162 8  96359700.543 8     -2845.932 8        50.220 8  23532041.504 9  92344716.588 9     -2727.352 9        56.820 9
G14  20962088.648 9 110156494.840 9       112.520 9        55.782 9  20962088.621 8  85836217.283 8        87.678 8        51.282 8  20962090.498 9  82259712.916 9        84.025 9        57.882 9
G23  24855886.072 9 130618519.182 9      3221.758 9        54.295 9  24855887.138 8 101780646.619 8      2510.462 8        49.795 8  24855889.372 9  97539790.334 9      2405.860 9        56.395 9
G05  21754230.458 9 114319223.480 9     -2441.687 9        55.466 9  21754230.086 8  89079898.172 8     -1902.615 8        50.966 8  21754232.660 9  85368242.660 9     -1823.339 9        57.566 9
G30  21865705.501 9 114905028.990 9     -2267.723 9        55.472 9  21865708.007 8  89536381.884 8     -1767.058 8        50.972 8  21865707.687 9  85805694.888 9     -1693.430 9        57.572 9
G15  21109433.534 9 110930796.275 9      2285.878 9        55.714 9  21109433.037 8  86439566.537 8      1781.204 8        51.214 8  21109435.472 9  82837924.680 9      1706.987 9        57.814 9
E05  23312489.599 9 122507938.707 9       353.133 9        57.977 9  23312489.599 9 122507938.707 9       353.133 9        57.977 9  23312492.125 9  91483198.458 9       263.703 9        57.837 9  23312492.125 9  91483198.458 9       263.703 9        57.837 9  23312491.945 9  93869717.403 9       270.582 9        57.837 9  23312491.945 9  93869717.403 9       270.582 9        57.837 9  23312492.033 9  92676457.933 9       267.143 9        60.847 9  23312492.033 9  92676457.933 9       267.143 9        60.847 9
E09  25223416.000 9 132549913.549 9     -2100.306 9        57.363 9  25223416.000 9 132549913.549 9     -2100.306 9        57.363 9  25223418.926 9  98982070.728 9     -1568.412 9        57.223 9  25223418.926 9  98982070.728 9     -1568.412 9        57.223 9  25223418.650 9 101564212.812 9     -1609.326 9        57.223 9  25223418.650 9 101564212.812 9     -1609.326 9        57.223 9  25223418.785 9 100273141.774 9     -1588.869 9        60.233 9  25223418.785 9 100273141.774 9     -1588.869 9        60.233 9
E13  28146745.467 9 147912099.142 9       313.942 9        56.288 9  28146745.467 9 147912099.142 9       313.942 9        56.288 9  28146749.151 9 110453827.114 9       234.437 9        56.148 9  28146749.151 9 110453827.114 9       234.437 9        56.148 9  28146748.752 9 113335232.908 9       240.553 9        56.148 9  28146748.752 9 113335232.908 9       240.553 9        56.148 9  28146748.948 9 111894530.016 9       237.495 9        59.159 9  28146748.948 9 111894530.016 9       237.495 9        59.159 9
E25  27064486.811 9 142224787.640 9      3127.539 9        56.726 9  27064486.811 9 142224787.640 9      3127.539 9        56.726 9  27064491.674 9 106206811.112 9      2335.501 9        56.586 9  27064491.674 9 106206811.112 9      2335.501 9        56.586 9  27064491.241 9 108977425.318 9      2396.427 9        56.586 9  27064491.241 9 108977425.318 9      2396.427 9        56.586 9  27064491.454 9 107592118.221 9      2365.964 9        59.597 9  27064491.454 9 107592118.221 9      2365.964 9        59.597 9
E31  24973173.011 9 131234880.981 9     -1547.868 9        57.421 9  24973173.011 9 131234880.981 9     -1547.868 9        57.421 9  24973176.194 9  98000068.794 9     -1155.876 9        57.281 9  24973176.194 9  98000068.794 9     -1155.876 9        57.281 9  24973175.946 9 100556593.327 9     -1186.029 9        57.281 9  24973175.946 9 100556593.327 9     -1186.029 9        57.281 9  24973176.067 9  99278331.064 9     -1170.953 9        60.291 9  24973176.067 9  99278331.064 9     -1170.953 9        60.291 9
E15  27836256.147 9 146280466.667 9     -1867.845 9        56.359 9  27836256.147 9 146280466.667 9     -1867.845 9        56.359 9  27836261.277 9 109235405.891 9     -1394.820 9        56.220 9  27836261.277 9 109235405.891 9     -1394.820 9        56.220 9  27836260.877 9 112085026.785 9     -1431.207 9        56.220 9  27836260.877 9 112085026.785 9     -1431.207 9        56.220 9  27836261.073 9 110660216.343 9     -1413.014 9        59.230 9  27836261.073 9 110660216.343 9     -1413.014 9        59.230 9
E03  26315936.606 9 138291145.633 9      2461.411 9        56.976 9  26315936.606 9 138291145.633 9      2461.411 9        56.976 9  26315940.105 9 103269355.222 9      1838.067 9        56.836 9  26315940.105 9 103269355.222 9      1838.067 9        56.836 9  26315939.808 9 105963339.595 9      1886.017 9        56.836 9  26315939.808 9 105963339.595 9      1886.017 9        56.836 9  26315939.953 9 104616347.412 9      1862.042 9        59.846 9  26315939.953 9 104616347.412 9      1862.042 9        59.846 9
E24  24079141.744 9 126536720.160 9      1234.289 9        57.798 9  24079141.744 9 126536720.160 9      1234.289 9        57.798 9  24079142.762 9  94491696.534 9       921.710 9        57.658 9  24079142.762 9  94491696.534 9       921.710 9        57.658 9  24079142.558 9  96956698.133 9       945.754 9        57.658 9  24079142.558 9  96956698.133 9       945.754 9        57.658 9  24079142.658 9  95724197.336 9       933.732 9        60.668 9  24079142.658 9  95724197.336 9       933.732 9        60.668 9
> 2023 01 08 10 00 39.0000000  0 20       0.000000000000
G08  25075411.721 9 131772127.406 9     -1500.366 9        54.230 9  25075415.828 8 102679571.116 8     -1169.116 8        49.730 8  25075415.539 9  98401248.991 9     -1120.403 9        56.330 9
G13  20024878.710 9 105231426.860 9       567.694 9        56.113 9  20024877.746 8  81998499.893 8       442.359 8        51.613 8  20024880.296 9  78581903.443 9       423.927 9        58.213 9
G17  24955443.523 9 131141658.198 9      2931.318 9        54.189 9  24955446.443 8 102188275.381 8      2284.147 8        49.689 8  24955449.761 9  97930434.564 9      2188.975 9        56.289 9
G24  24515194.644 9 128828165.360 9      3529.678 9        54.417 9  24515198.387 8 100385572.506 8      2750.400 8        49.917 8  24515198.570 9  96202835.350 9      2635.800 9        56.517 9
G07  24610174.856 9 129327280.877 9     -2973.237 9        54.354 9  24610176.436 8 100774480.358 8     -2316.811 8        49.854 8  24610179.451 9  96575548.857 9     -2220.278 9        56.454 9
G18  24774868.258 9 130192765.827 9     -1380.285 9        54.333 9  24774869.439 8 101448890.287 8     -1075.547 8        49.833 8  24774871.699 9  97221857.080 9     -1030.733 9        56.433 9
G20  23532732.640 9 123665293.224 9     -3652.422 9        54.720 9  23532734.182 8  96362546.518 8     -2846.046 8        50.220 8  23532736.524 9  92347443.981 9     -2727.461 9        56.820 9
G14  20962067.299 9 110156382.649 9       111.862 9        55.782 9  20962067.272 8  85836129.861 8        87.165 8        51.282 8  20962069.148 9  82259629.137 9        83.533 9        57.882 9
G23  24855273.021 9 130615297.583 9      3221.448 9        54.295 9  24855274.086 8 101778136.284 8      2510.220 8        49.795 8  24855276.321 9  97537384.596 9      2405.628 9        56.395 9
G05  21754695.145 9 114321665.422 9     -2442.204 9        55.466 9  21754694.773 8  89081800.983 8     -1903.017 8        50.966 8  21754697.347 9  85370066.187 9     -1823.725 9        57.566 9
G30  21866137.060 9 114907296.841 9     -2267.990 9        55.472 9  21866139.565 8  89538149.040 8     -1767.266 8        50.972 8  21866139.246 9  85807388.412 9     -1693.630 9        57.572 9
G15  21108998.587 9 110928510.613 9      2285.446 9        55.714 9  21108998.090 8  86437785.502 8      1780.867 8        51.214 8  21109000.525 9  82836217.855 9      1706.665 9        57.814 9
E05  23312422.430 9 122507585.732 9       352.816 9        57.977 9  23312422.430 9 122507585.732 9       352.816 9        57.977 9  23312424.956 9  91482934.873 9       263.466 9        57.837 9  23312424.956 9  91482934.873 9       263.466 9        57.837 9  23312424.776 9  93869446.941 9       270.339 9        57.837 9  23312424.776 9  93869446.941 9       270.339 9        57.837 9  23312424.864 9  92676190.909 9       266.903 9        60.847 9  23312424.864 9  92676190.909 9       266.903 9        60.847 9
E09  25223815.697 9 132552013.967 9     -2100.541 9        57.363 9  25223815.697 9 132552013.967 9     -2100.541 9        57.363 9  25223818.623 9  98983639.220 9     -1568.587 9        57.223 9  25223818.623 9  98983639.220 9     -1568.587 9        57.223 9  25223818.348 9 101565822.222 9     -1609.506 9        57.223 9  25223818.348 9 101565822.222 9     -1609.506 9        57.223 9  25223818.483 9 100274730.725 9     -1589.047 9        60.233 9  25223818.483 9 100274730.725 9     -1589.047 9        60.233 9
E13  28146685.773 9 147911785.448 9       313.447 9        56.288 9  28146685.773 9 147911785.448 9       313.447 9        56.288 9  28146689.457 9 110453592.862 9       234.068 9        56.148 9  28146689.457 9 110453592.862 9       234.068 9        56.148 9  28146689.058 9 113334992.545 9       240.174 9        56.148 9  28146689.058 9 113334992.545 9       240.174 9        56.148 9  28146689.254 9 111894292.709 9       237.121 9        59.159 9  28146689.254 9 111894292.709 9       237.121 9        59.159 9
E25  27063891.671 9 142221660.166 9      3127.419 9        56.726 9  27063891.671 9 142221660.166 9      3127.419 9        56.726 9  27063896.534 9 106204475.663 9      2335.412 9        56.586 9  27063896.534 9 106204475.663 9      2335.412 9        56.586 9  27063896.101 9 108975028.943 9      2396.336 9        56.586 9  27063896.101 9 108975028.943 9      2396.336 9        56.586 9  27063896.313 9 107589752.309 9      2365.874 9        59.597 9  27063896.313 9 107589752.309 9      2365.874 9        59.597 9
E31  24973467.596 9 131236429.032 9     -1548.241 9        57.421 9  24973467.596 9 131236429.032 9     -1548.241 9        57.421 9  24973470.779 9  98001224.806 9     -1156.155 9        57.281 9  24973470.779 9  98001224.806 9     -1156.155 9        57.281 9  24973470.531 9 100557779.495 9     -1186.315 9        57.281 9  24973470.531 9 100557779.495 9     -1186.315 9        57.281 9  24973470.652 9  99279502.154 9     -1171.235 9        60.291 9  24973470.652 9  99279502.154 9     -1171.235 9        60.291 9
E15  27836611.619 9 146282334.684 9     -1868.192 9        56.359 9  27836611.619 9 146282334.684 9     -1868.192 9        56.359 9  27836616.750 9 109236800.837 9     -1395.079 9        56.219 9  27836616.750 9 109236800.837 9     -1395.079 9        56.219 9  27836616.350 9 112086458.122 9     -1431.472 9        56.219 9  27836616.350 9 112086458.122 9     -1431.472 9        56.219 9  27836616.546 9 110661629.485 9     -1413.276 9        59.230 9  27836616.546 9 110661629.485 9     -1413.276 9        59.230 9
E03  26315468.224 9 138288684.272 9      2461.311 9        56.976 9  26315468.224 9 138288684.272 9      2461.311 9        56.976 9  26315471.723 9 103267517.193 9      1837.993 9        56.836 9  26315471.723 9 103267517.193 9      1837.993 9        56.836 9  26315471.426 9 105961453.618 9      1885.941 9        56.836 9  26315471.426 9 105961453.618 9      1885.941 9        56.836 9  26315471.571 9 104614485.410 9      1861.967 9        59.846 9  26315471.571 9 104614485.410 9      1861.967 9        59.846 9
E24  24078906.908 9 126535486.089 9      1233.855 9        57.798 9  24078906.908 9 126535486.089 9      1233.855 9        57.798 9  24078907.926 9  94490774.988 9       921.386 9        57.658 9  24078907.926 9  94490774.988 9       921.386 9        57.658 9  24078907.722 9  96955752.546 9       945.422 9        57.658 9  24078907.722 9  96955752.546 9       945.422 9        57.658 9  24078907.822 9  95723263.770 9       933.404 9        60.668 9  24078907.822 9  95723263.770 9       933.404 9        60.668 9
> 2023 01 08 10 00 40.0000000  0 20       0.000000000000
G08  25075697.286 9 131773628.059 9     -1500.942 9        54.229 9  25075701.393 8 102680740.457 8     -1169.565 8        49.729 8  25075701.104 9  98402369.609 9     -1120.833 9        56.329 9
G13  20024770.727 9 105230859.403 9       567.219 9        56.114 9  20024769.763 8  81998057.719 8       441.989 8        51.614 8  20024772.313 9  78581479.693 9       423.573 9        58.214 9
G17  24954885.717 9 131138726.920 9      2931.270 9        54.189 9  24954888.636 8 102185991.272 8      2284.110 8        49.689 8  24954891.954 9  97928245.626 9      2188.939 9        56.289 9
G24  24514522.978 9 128824635.735 9      3529.573 9        54.418 9  24514526.721 8 100382822.150 8      2750.318 8        49.918 8  24514526.903 9  96200199.593 9      2635.721 9        56.518 9
G07  24610740.649 9 129330254.125 9     -2973.286 9        54.353 9  24610742.229 8 100776797.172 8     -2316.849 8        49.853 8  24610745.244 9  96577769.136 9     -2220.314 9        56.453 9
G18  24775130.967 9 130194146.373 9     -1380.810 9        54.333 9  24775132.149 8 101449966.037 8     -1075.957 8        49.833 8  24775134.409 9  97222888.007 9     -1031.125 9        56.433 9
G20  23533427.686 9 123668945.708 9     -3652.567 9        54.720 9  23533429.229 8  96365392.607 8     -2846.159 8        50.220 8  23533431.572 9  92350171.482 9     -2727.569 9        56.820 9
G14  20962046.075 9 110156271.117 9       111.203 9        55.782 9  20962046.048 8  85836042.953 8        86.651 8        51.282 8  20962047.925 9  82259545.849 9        83.041 9        57.882 9
G23  24854660.029 9 130612076.295 9      3221.137 9        54.296 9  24854661.094 8 101775626.190 8      2509.978 8        49.796 8  24854663.329 9  97534979.090 9      2405.396 9        56.396 9
G05  21755159.931 9 114324107.882 9     -2442.721 9        55.466 9  21755159.559 8  89083704.197 8     -1903.420 8        50.966 8  21755162.133 9  85371890.100 9     -1824.111 9        57.566 9
G30  21866568.669 9 114909564.960 9     -2268.258 9        55.472 9  21866571.175 8  89539916.404 8     -1767.475 8        50.972 8  21866570.856 9  85809082.136 9     -1693.830 9        57.572 9
G15  21108563.722 9 110926225.384 9      2285.014 9        55.714 9  21108563.225 8  86436004.804 8      1780.530 8        51.214 8  21108565.659 9  82834511.353 9      1706.342 9        57.814 9
E05  23312355.322 9 122507233.075 9       352.498 9        57.977 9  23312355.322 9 122507233.075 9       352.498 9        57.977 9  23312357.848 9  91482671.524 9       263.229 9        57.837 9  23312357.848 9  91482671.524 9       263.229 9        57.837 9  23312357.668 9  93869176.723 9       270.096 9        57.837 9  23312357.668 9  93869176.723 9       270.096 9        57.837 9  23312357.756 9  92675924.126 9       266.662 9        60.847 9  23312357.756 9  92675924.126 9       266.662 9        60.847 9
E09  25224215.438 9 132554114.619 9     -2100.776 9        57.362 9  25224215.438 9 132554114.619 9     -2100.776 9        57.362 9  25224218.365 9  98985207.888 9     -1568.762 9        57.223 9  25224218.365 9  98985207.888 9     -1568.762 9        57.223 9  25224218.090 9 101567431.812 9     -1609.687 9        57.223 9  25224218.090 9 101567431.812 9     -1609.687 9        57.223 9  25224218.225 9 100276319.854 9     -1589.224 9        60.233 9  25224218.225 9 100276319.854 9     -1589.224 9        60.233 9
E13  28146626.173 9 147911472.249 9       312.952 9        56.288 9  28146626.173 9 147911472.249 9       312.952 9        56.288 9  28146629.857 9 110453358.980 9       233.698 9        56.148 9  28146629.857 9 110453358.980 9       233.698 9        56.148 9  28146629.458 9 113334752.561 9       239.795 9        56.148 9  28146629.458 9 113334752.561 9       239.795 9        56.148 9  28146629.654 9 111894055.776 9       236.747 9        59.159 9  28146629.654 9 111894055.776 9       236.747 9        59.159 9
E25  27063296.555 9 142218532.812 9      3127.299 9        56.727 9  27063296.555 9 142218532.812 9      3127.299 9        56.727 9  27063301.417 9 106202140.303 9      2335.323 9        56.587 9  27063301.417 9 106202140.303 9      2335.323 9        56.587 9  27063300.984 9 108972632.661 9      2396.244 9        56.587 9  27063300.984 9 108972632.661 9      2396.244 9        56.587 9  27063301.196 9 107587386.487 9      2365.783 9        59.597 9  27063301.196 9 107587386.487 9      2365.783 9        59.597 9
E31  24973762.252 9 131237977.457 9     -1548.615 9        57.420 9  24973762.252 9 131237977.457 9     -1548.615 9        57.420 9  24973765.435 9  98002381.096 9     -1156.434 9        57.281 9  24973765.435 9  98002381.096 9     -1156.434 9        57.281 9  24973765.187 9 100558965.950 9     -1186.601 9        57.281 9  24973765.187 9 100558965.950 9     -1186.601 9        57.281 9  24973765.308 9  99280673.526 9     -1171.518 9        60.291 9  24973765.308 9  99280673.526 9     -1171.518 9        60.291 9
E15  27836967.158 9 146284203.048 9     -1868.538 9        56.359 9  27836967.158 9 146284203.048 9     -1868.538 9        56.359 9  27836972.289 9 109238196.043 9     -1395.338 9        56.219 9  27836972.289 9 109238196.043 9     -1395.338 9        56.219 9  27836971.888 9 112087889.724 9     -1431.738 9        56.219 9  27836971.888 9 112087889.724 9     -1431.738 9        56.219 9  27836972.085 9 110663042.889 9     -1413.538 9        59.230 9  27836972.085 9 110663042.889 9     -1413.538 9        59.230 9
E03  26314999.861 9 138286223.011 9      2461.212 9        56.976 9  26314999.861 9 138286223.011 9      2461.212 9        56.976 9  26315003.359 9 103265679.239 9      1837.919 9        56.836 9  26315003.359 9 103265679.239 9      1837.919 9        56.836 9  26315003.063 9 105959567.717 9      1885.864 9        56.836 9  26315003.063 9 105959567.717 9      1885.864 9        56.836 9  26315003.208 9 104612623.482 9      1861.892 9        59.846 9  26315003.208 9 104612623.482 9      1861.892 9        59.846 9
E24  24078672.154 9 126534252.451 9      1233.421 9        57.798 9  24078672.154 9 126534252.451 9      1233.421 9        57.798 9  24078673.172 9  94489853.765 9       921.061 9        57.658 9  24078673.172 9  94489853.765 9       921.061 9        57.658 9  24078672.969 9  96954807.292 9       945.089 9        57.658 9  24078672.969 9  96954807.292 9       945.089 9        57.658 9  24078673.068 9  95722330.531 9       933.075 9        60.668 9  24078673.068 9  95722330.531 9       933.075 9        60.668 9
> 2023 01 08 10 00 41.0000000  0 20       0.000000000000
G08  25075982.961 9 131775129.290 9     -1501.518 9        54.229 9  25075987.067 8 102681910.247 8     -1170.014 8        49.729 8  25075986.778 9  98403490.658 9     -1121.264 9        56.329 9
G13  20024662.834 9 105230292.421 9       566.744 9        56.114 9  20024661.869 8  81997615.915 8       441.619 8        51.614 8  20024664.420 9  78581056.297 9       423.218 9        58.214 9
G17  24954327.920 9 131135795.690 9      2931.222 9        54.189 9  24954330.838 8 102183707.200 8      2284.073 8        49.689 8  24954334.156 9  97926056.725 9      2188.904 9        56.289 9
G24  24513851.332 9 128821106.216 9      3529.468 9        54.418 9  24513855.075 8 100380071.877 8      2750.236 8        49.918 8  24513855.257 9  96197563.914 9      2635.643 9        56.518 9
G07  24611306.450 9 129333227.421 9     -2973.335 9        54.353 9  24611308.031 8 100779114.024 8     -2316.888 8        49.853 8  24611311.047 9  96579989.451 9     -2220.351 9        56.453 9
G18  24775393.777 9 130195527.445 9     -1381.336 9        54.333 9  24775394.958 8 101451042.196 8     -1076.366 8        49.833 8  24775397.219 9  97223919.326 9     -1031.518 9        56.433 9
G20  23534122.761 9 123672598.337 9     -3652.712 9        54.720 9  23534124.304 8  96368238.809 8     -2846.272 8        50.220 8  23534126.647 9  92352899.092 9     -2727.678 9        56.820 9
G14  20962024.977 9 110156160.243 9       110.544 9        55.782 9  20962024.950 8  85835956.558 8        86.138 8        51.282 8  20962026.826 9  82259463.054 9        82.549 9        57.882 9
G23  24854047.096 9 130608855.316 9      3220.827 9        54.296 9  24854048.161 8 101773116.338 8      2509.737 8        49.796 8  24854050.395 9  97532573.815 9      2405.164 9        56.396 9
G05  21755624.814 9 114326550.857 9     -2443.237 9        55.466 9  21755624.443 8  89085607.813 8     -1903.822 8        50.966 8  21755627.017 9  85373714.399 9     -1824.496 9        57.566 9
G30  21867000.329 9 114911833.346 9     -2268.526 9        55.472 9  21867002.835 8  89541683.977 8     -1767.683 8        50.972 8  21867002.516 9  85810776.059 9     -1694.030 9        57.572 9
G15  21108128.939 9 110923940.587 9      2284.581 9        55.715 9  21108128.442 8  86434224.443 8      1780.194 8        51.215 8  21108130.877 9  82832805.174 9      1706.019 9        57.815 9
E05  23312288.274 9 122506880.735 9       352.180 9        57.977 9  23312288.274 9 122506880.735 9       352.180 9        57.977 9  23312290.800 9  91482408.413 9       262.992 9        57.837 9  23312290.800 9  91482408.413 9       262.992 9        57.837 9  23312290.620 9  93868906.748 9       269.852 9        57.837 9  23312290.620 9  93868906.748 9       269.852 9        57.837 9  23312290.708 9  92675657.583 9       266.422 9        60.847 9  23312290.708 9  92675657.583 9       266.422 9        60.847 9
E09  25224615.225 9 132556215.507 9     -2101.011 9        57.362 9  25224615.225 9 132556215.507 9     -2101.011 9        57.362 9  25224618.152 9  98986776.731 9     -1568.938 9        57.222 9  25224618.152 9  98986776.731 9     -1568.938 9        57.222 9  25224617.876 9 101569041.582 9     -1609.867 9        57.222 9  25224617.876 9 101569041.582 9     -1609.867 9        57.222 9  25224618.011 9 100277909.160 9     -1589.402 9        60.233 9  25224618.011 9 100277909.160 9     -1589.402 9        60.233 9
E13  28146566.667 9 147911159.544 9       312.458 9        56.288 9  28146566.667 9 147911159.544 9       312.458 9        56.288 9  28146570.351 9 110453125.467 9       233.329 9        56.148 9  28146570.351 9 110453125.467 9       233.329 9        56.148 9  28146569.952 9 113334512.956 9       239.416 9        56.148 9  28146569.952 9 113334512.956 9       239.416 9        56.148 9  28146570.148 9 111893819.217 9       236.372 9        59.159 9  28146570.148 9 111893819.217 9       236.372 9        59.159 9
E25  27062701.460 9 142215405.578 9      3127.180 9        56.727 9  27062701.460 9 142215405.578 9      3127.180 9        56.727 9  27062706.322 9 106199805.032 9      2335.233 9        56.587 9  27062706.322 9 106199805.032 9      2335.233 9        56.587 9  27062705.890 9 108970236.470 9      2396.152 9        56.587 9  27062705.890 9 108970236.470 9      2396.152 9        56.587 9  27062706.102 9 107585020.757 9      2365.693 9        59.597 9  27062706.102 9 107585020.757 9      2365.693 9        59.597 9
E31  24974056.979 9 131239526.254 9     -1548.988 9        57.420 9  24974056.979 9 131239526.254 9     -1548.988 9        57.420 9  24974060.162 9  98003537.665 9     -1156.712 9        57.281 9  24974060.162 9  98003537.665 9     -1156.712 9        57.281 9  24974059.914 9 100560152.690 9     -1186.887 9        57.281 9  24974059.914 9 100560152.690 9     -1186.887 9        57.281 9  24974060.035 9  99281845.181 9     -1171.800 9        60.291 9  24974060.035 9  99281845.181 9     -1171.800 9        60.291 9
E15  27837322.762 9 146286071.757 9     -1868.884 9        56.359 9  27837322.762 9 146286071.757 9     -1868.884 9        56.359 9  27837327.893 9 109239591.507 9     -1395.596 9        56.219 9  27837327.893 9 109239591.507 9     -1395.596 9        56.219 9  27837327.493 9 112089321.592 9     -1432.003 9        56.219 9  27837327.493 9 112089321.592 9     -1432.003 9        56.219 9  27837327.689 9 110664456.554 9     -1413.800 9        59.230 9  27837327.689 9 110664456.554 9     -1413.800 9        59.230 9
E03  26314531.517 9 138283761.849 9      2461.113 9        56.976 9  26314531.517 9 138283761.849 9      2461.113 9        56.976 9  26314535.015 9 103263841.359 9      1837.845 9        56.836 9  26314535.015 9 103263841.359 9      1837.845 9        56.836 9  26314534.719 9 105957681.892 9      1885.788 9        56.836 9  26314534.719 9 105957681.892 9      1885.788 9        56.836 9  26314534.864 9 104610761.629 9      1861.816 9        59.846 9  26314534.864 9 104610761.629 9      1861.816 9        59.846 9
E24  24078437.483 9 126533019.248 9      1232.987 9        57.798 9  24078437.483 9 126533019.248 9      1232.987 9        57.798 9  24078438.501 9  94488932.867 9       920.737 9        57.658 9  24078438.501 9  94488932.867 9       920.737 9        57.658 9  24078438.298 9  96953862.370 9       944.757 9        57.658 9  24078438.298 9  96953862.370 9       944.757 9        57.658 9  24078438.397 9  95721397.621 9       932.747 9        60.668 9  24078438.397 9  95721397.621 9       932.747 9        60.668 9
> 2023 01 08 10 00 42.0000000  0 20       0.000000000000
G08  25076268.745 9 131776631.096 9     -1502.095 9        54.229 9  25076272.851 8 102683080.486 8     -1170.463 8        49.729 8  25076272.562 9  98404612.137 9     -1121.694 9        56.329 9
G13  20024555.031 9 105229725.913 9       566.270 9        56.114 9  20024554.067 8  81997174.480 8       441.249 8        51.614 8  20024556.617 9  78580633.256 9       422.864 9        58.214 9
G17  24953770.132 9 131132864.507 9      2931.174 9        54.189 9  24953773.049 8 102181423.165 8      2284.035 8        49.689 8  24953776.367 9  97923867.859 9      2188.868 9        56.289 9
G24  24513179.706 9 128817576.802 9      3529.363 9        54.418 9  24513183.448 8 100377321.685 8      2750.154 8        49.918 8  24513183.630 9  96194928.314 9      2635.564 9        56.518 9
G07  24611872.261 9 129336200.768 9     -2973.385 9        54.353 9  24611873.843 8 100781430.914 8     -2316.926 8        49.853 8  24611876.859 9  96582209.804 9     -2220.388 9        56.453 9
G18  24775656.687 9 130196909.042 9     -1381.861 9        54.333 9  24775657.868 8 101452118.764 8     -1076.776 8        49.833 8  24775660.129 9  97224951.037 9     -1031.910 9        56.433 9
G20  23534817.863 9 123676251.112 9     -3652.857 9        54.719 9  23534819.407 8  96371085.124 8     -2846.385 8        50.219 8  23534821.750 9  92355626.810 9     -2727.786 9        56.819 9
G14  20962004.004 9 110156050.029 9       109.885 9        55.782 9  20962003.977 8  85835870.676 8        85.625 8        51.282 8  20962005.853 9  82259380.751 9        82.057 9        57.882 9
G23  24853434.222 9 130605634.649 9      3220.516 9        54.296 9  24853435.287 8 101770606.728 8      2509.495 8        49.796 8  24853437.521 9  97530168.773 9      2404.933 9        56.396 9
G05  21756089.796 9 114328994.349 9     -2443.753 9        55.465 9  21756089.425 8  89087511.832 8     -1904.224 8        50.965 8  21756091.999 9  85375539.084 9     -1824.882 9        57.565 9
G30  21867432.041 9 114914102.000 9     -2268.793 9        55.472 9  21867434.547 8  89543451.758 8     -1767.892 8        50.972 8  21867434.228 9  85812470.183 9     -1694.230 9        57.572 9
G15  21107694.239 9 110921656.222 9      2284.149 9        55.715 9  21107693.741 8  86432444.419 8      1779.857 8        51.215 8  21107696.176 9  82831099.318 9      1705.696 9        57.815 9
E05  23312221.286 9 122506528.713 9       351.863 9        57.977 9  23312221.286 9 122506528.713 9       351.863 9        57.977 9  23312223.812 9  91482145.540 9       262.755 9        57.837 9  23312223.812 9  91482145.540 9       262.755 9        57.837 9  23312223.632 9  93868637.017 9       269.609 9        57.837 9  23312223.632 9  93868637.017 9       269.609 9        57.837 9  23312223.721 9  92675391.281 9       266.182 9        60.847 9  23312223.721 9  92675391.281 9       266.182 9        60.847 9
E09  25225015.056 9 132558316.630 9     -2101.246 9        57.362 9  25225015.056 9 132558316.630 9     -2101.246 9        57.362 9  25225017.983 9  98988345.750 9     -1569.113 9        57.222 9  25225017.983 9  98988345.750 9     -1569.113 9        57.222 9  25225017.708 9 101570651.532 9     -1610.046 9        57.222 9  25225017.708 9 101570651.532 9     -1610.046 9        57.222 9  25225017.843 9 100279498.645 9     -1589.580 9        60.233 9  25225017.843 9 100279498.645 9     -1589.580 9        60.233 9
E13  28146507.255 9 147910847.334 9       311.963 9        56.288 9  28146507.255 9 147910847.334 9       311.963 9        56.288 9  28146510.939 9 110452892.324 9       232.959 9        56.148 9  28146510.939 9 110452892.324 9       232.959 9        56.148 9  28146510.540 9 113334273.731 9       239.037 9        56.148 9  28146510.540 9 113334273.731 9       239.037 9        56.148 9  28146510.736 9 111893583.032 9       235.998 9        59.159 9  28146510.736 9 111893583.032 9       235.998 9        59.159 9
E25  27062106.389 9 142212278.463 9      3127.060 9        56.727 9  27062106.389 9 142212278.463 9      3127.060 9        56.727 9  27062111.250 9 106197469.851 9      2335.144 9        56.587 9  27062111.250 9 106197469.851 9      2335.144 9        56.587 9  27062110.818 9 108967840.370 9      2396.060 9        56.587 9  27062110.818 9 108967840.370 9      2396.060 9        56.587 9  27062111.030 9 107582655.116 9      2365.602 9        59.597 9  27062111.030 9 107582655.116 9      2365.602 9        59.597 9
E31  24974351.777 9 131241075.425 9     -1549.361 9        57.420 9  24974351.777 9 131241075.425 9     -1549.361 9        57.420 9  24974354.960 9  98004694.513 9     -1156.991 9        57.280 9  24974354.960 9  98004694.513 9     -1156.991 9        57.280 9  24974354.712 9 100561339.717 9     -1187.173 9        57.280 9  24974354.712 9 100561339.717 9     -1187.173 9        57.280 9  24974354.833 9  99283017.118 9     -1172.082 9        60.291 9  24974354.833 9  99283017.118 9     -1172.082 9        60.291 9
E15  27837678.432 9 146287940.813 9     -1869.230 9        56.359 9  27837678.432 9 146287940.813 9     -1869.230 9        56.359 9  27837683.563 9 109240987.229 9     -1395.855 9        56.219 9  27837683.563 9 109240987.229 9     -1395.855 9        56.219 9  27837683.163 9 112090753.724 9     -1432.268 9        56.219 9  27837683.163 9 112090753.724 9     -1432.268 9        56.219 9  27837683.359 9 110665870.482 9     -1414.061 9        59.229 9  27837683.359 9 110665870.482 9     -1414.061 9        59.229 9
E03  26314063.192 9 138281300.786 9      2461.013 9        56.976 9  26314063.192 9 138281300.786 9      2461.013 9        56.976 9  26314066.690 9 103262003.553 9      1837.770 9        56.836 9  26314066.690 9 103262003.553 9      1837.770 9        56.836 9  26314066.394 9 105955796.144 9      1885.712 9        56.836 9  26314066.394 9 105955796.144 9      1885.712 9        56.836 9  26314066.539 9 104608899.852 9      1861.741 9        59.847 9  26314066.539 9 104608899.852 9      1861.741 9        59.847 9
E24  24078202.895 9 126531786.479 9      1232.553 9        57.798 9  24078202.895 9 126531786.479 9      1232.553 9        57.798 9  24078203.913 9  94488012.293 9       920.413 9        57.658 9  24078203.913 9  94488012.293 9       920.413 9        57.658 9  24078203.709 9  96952917.781 9       944.424 9        57.658 9  24078203.709 9  96952917.781 9       944.424 9        57.658 9  24078203.809 9  95720465.039 9       932.419 9        60.668 9  24078203.809 9  95720465.039 9       932.419 9        60.668 9
> 2023 01 08 10 00 43.0000000  0 20       0.000000000000
G08  25076554.639 9 131778133.479 9     -1502.671 9        54.229 9  25076558.745 8 102684251.174 8     -1170.912 8        49.729 8  25076558.456 9  98405734.047 9     -1122.124 9        56.329 9
G13  20024447.319 9 105229159.881 9       565.795 9        56.114 9  20024446.354 8  81996733.416 8       440.879 8        51.614 8  20024448.905 9  78580210.569 9       422.509 9        58.214 9
G17  24953212.353 9 131129933.373 9      2931.126 9        54.190 9  24953215.270 8 102179139.167 8      2283.998 8        49.690 8  24953218.587 9  97921679.029 9      2188.832 9        56.290 9
G24  24512508.100 9 128814047.493 9      3529.257 9        54.418 9  24512511.842 8 100374571.575 8      2750.072 8        49.918 8  24512512.024 9  96192292.792 9      2635.486 9        56.518 9
G07  24612438.082 9 129339174.163 9     -2973.434 9        54.353 9  24612439.664 8 100783747.843 8     -2316.964 8        49.853 8  24612442.680 9  96584430.193 9     -2220.425 9        56.453 9
G18  24775919.696 9 130198291.164 9     -1382.386 9        54.333 9  24775920.878 8 101453195.742 8     -1077.185 8        49.833 8  24775923.139 9  97225983.140 9     -1032.302 9        56.433 9
G20  23535512.992 9 123679904.032 9     -3653.002 9        54.719 9  23535514.537 8  96373931.552 8     -2846.498 8        50.219 8  23535516.880 9  92358354.636 9     -2727.894 9        56.819 9
G14  20961983.156 9 110155940.473 9       109.226 9        55.782 9  20961983.129 8  85835785.308 8        85.111 8        51.282 8  20961985.005 9  82259298.939 9        81.565 9        57.882 9
G23  24852821.408 9 130602414.291 9      3220.206 9        54.296 9  24852822.472 8 101768097.361 8      2509.252 8        49.796 8  24852824.706 9  97527763.962 9      2404.701 9        56.396 9
G05  21756554.876 9 114331438.358 9     -2444.270 9        55.465 9  21756554.505 8  89089416.253 8     -1904.627 8        50.965 8  21756557.079 9  85377364.154 9     -1825.268 9        57.565 9
G30  21867863.803 9 114916370.922 9     -2269.061 9        55.472 9  21867866.309 8  89545219.748 8     -1768.101 8        50.972 8  21867865.990 9  85814164.507 9     -1694.430 9        57.572 9
G15  21107259.621 9 110919372.290 9      2283.716 9        55.715 9  21107259.123 8  86430664.732 8      1779.520 8        51.215 8  21107261.558 9  82829393.785 9      1705.373 9        57.815 9
E05  23312154.359 9 122506177.008 9       351.545 9        57.977 9  23312154.359 9 122506177.008 9       351.545 9        57.977 9  23312156.885 9  91481882.903 9       262.517 9        57.837 9  23312156.885 9  91481882.903 9       262.517 9        57.837 9  23312156.705 9  93868367.529 9       269.366 9        57.837 9  23312156.705 9  93868367.529 9       269.366 9        57.837 9  23312156.794 9  92675125.218 9       265.942 9        60.847 9  23312156.794 9  92675125.218 9       265.942 9        60.847 9
E09  25225414.932 9 132560417.987 9     -2101.480 9        57.362 9  25225414.932 9 132560417.987 9     -2101.480 9        57.362 9  25225417.860 9  98989914.944 9     -1569.289 9        57.222 9  25225417.860 9  98989914.944 9     -1569.289 9        57.222 9  25225417.584 9 101572261.662 9     -1610.226 9        57.222 9  25225417.584 9 101572261.662 9     -1610.226 9        57.222 9  25225417.719 9 100281088.307 9     -1589.758 9        60.232 9  25225417.719 9 100281088.307 9     -1589.758 9        60.232 9
E13  28146447.938 9 147910535.619 9       311.468 9        56.288 9  28146447.938 9 147910535.619 9       311.468 9        56.288 9  28146451.622 9 110452659.549 9       232.590 9        56.148 9  28146451.622 9 110452659.549 9       232.590 9        56.148 9  28146451.223 9 113334034.884 9       238.658 9        56.148 9  28146451.223 9 113334034.884 9       238.658 9        56.148 9  28146451.418 9 111893347.222 9       235.624 9        59.159 9  28146451.418 9 111893347.222 9       235.624 9        59.159 9
E25  27061511.341 9 142209151.468 9      3126.940 9        56.727 9  27061511.341 9 142209151.468 9      3126.940 9        56.727 9  27061516.201 9 106195134.759 9      2335.054 9        56.587 9  27061516.201 9 106195134.759 9      2335.054 9        56.587 9  27061515.769 9 108965444.363 9      2395.969 9        56.587 9  27061515.769 9 108965444.363 9      2395.969 9        56.587 9  27061515.981 9 107580289.567 9      2365.511 9        59.598 9  27061515.981 9 107580289.567 9      2365.511 9        59.598 9
E31  24974646.646 9 131242624.970 9     -1549.734 9        57.420 9  24974646.646 9 131242624.970 9     -1549.734 9        57.420 9  24974649.829 9  98005851.639 9     -1157.270 9        57.280 9  24974649.829 9  98005851.639 9     -1157.270 9        57.280 9  24974649.581 9 100562527.029 9     -1187.459 9        57.280 9  24974649.581 9 100562527.029 9     -1187.459 9        57.280 9  24974649.702 9  99284189.337 9     -1172.365 9        60.291 9  24974649.702 9  99284189.337 9     -1172.365 9        60.291 9
E15  27838034.168 9 146289810.214 9     -1869.576 9        56.359 9  27838034.168 9 146289810.214 9     -1869.576 9        56.359 9  27838039.299 9 109242383.210 9     -1396.113 9        56.219 9  27838039.299 9 109242383.210 9     -1396.113 9        56.219 9  27838038.899 9 112092186.122 9     -1432.533 9        56.219 9  27838038.899 9 112092186.122 9     -1432.533 9        56.219 9  27838039.096 9 110667284.671 9     -1414.323 9        59.229 9  27838039.096 9 110667284.671 9     -1414.323 9        59.229 9
E03  26313594.886 9 138278839.823 9      2460.914 9        56.976 9  26313594.886 9 138278839.823 9      2460.914 9        56.976 9  26313598.384 9 103260165.821 9      1837.696 9        56.836 9  26313598.384 9 103260165.821 9      1837.696 9        56.836 9  26313598.087 9 105953910.471 9      1885.636 9        56.836 9  26313598.087 9 105953910.471 9      1885.636 9        56.836 9  26313598.233 9 104607038.150 9      1861.666 9        59.847 9  26313598.233 9 104607038.150 9      1861.666 9        59.847 9
E24  24077968.389 9 126530554.143 9      1232.119 9        57.798 9  24077968.389 9 126530554.143 9      1232.119 9        57.798 9  24077969.407 9  94487092.043 9       920.089 9        57.658 9  24077969.407 9  94487092.043 9       920.089 9        57.658 9  24077969.203 9  96951973.524 9       944.092 9        57.658 9  24077969.203 9  96951973.524 9       944.092 9        57.658 9  24077969.303 9  95719532.786 9       932.091 9        60.669 9  24077969.303 9  95719532.786 9       932.091 9        60.669 9
> 2023 01 08 10 00 44.0000000  0 20       0.000000000000
G08  25076840.642 9 131779636.438 9     -1503.247 9        54.229 9  25076844.749 8 102685422.311 8     -1171.361 8        49.729 8  25076844.459 9  98406856.386 9     -1122.555 9        56.329 9
G13  20024339.697 9 105228594.323 9       565.320 9        56.114 9  20024338.732 8  81996292.721 8       440.509 8        51.614 8  20024341.283 9  78579788.237 9       422.155 9        58.214 9
G17  24952654.583 9 131127002.287 9      2931.078 9        54.190 9  24952657.499 8 102176855.207 8      2283.960 8        49.690 8  24952660.816 9  97919490.235 9      2188.796 9        56.290 9
G24  24511836.514 9 128810518.289 9      3529.152 9        54.419 9  24511840.256 8 100371821.548 8      2749.990 8        49.919 8  24511840.438 9  96189657.349 9      2635.407 9        56.519 9
G07  24613003.911 9 129342147.607 9     -2973.483 9        54.353 9  24613005.495 8 100786064.810 8     -2317.002 8        49.853 8  24613008.511 9  96586650.619 9     -2220.461 9        56.453 9
G18  24776182.806 9 130199673.812 9     -1382.912 9        54.333 9  24776183.988 8 101454273.129 8     -1077.594 8        49.833 8  24776186.249 9  97227015.636 9     -1032.694 9        56.433 9
G20  23536208.149 9 123683557.096 9     -3653.147 9        54.719 9  23536209.695 8  96376778.093 8     -2846.611 8        50.219 8  23536212.038 9  92361082.571 9     -2728.003 9        56.819 9
G14  20961962.434 9 110155831.575 9       108.567 9        55.782 9  20961962.407 8  85835700.453 8        84.598 8        51.282 8  20961964.283 9  82259217.620 9        81.073 9        57.882 9
G23  24852208.652 9 130599194.245 9      3219.895 9        54.296 9  24852209.716 8 101765588.235 8      2509.010 8        49.796 8  24852211.950 9  97525359.384 9      2404.469 9        56.396 9
G05  21757020.055 9 114333882.882 9     -2444.786 9        55.465 9  21757019.684 8  89091321.076 8     -1905.029 8        50.965 8  21757022.258 9  85379189.609 9     -1825.653 9        57.565 9
G30  21868295.616 9 114918640.112 9     -2269.329 9        55.471 9  21868298.123 8  89546987.947 8     -1768.309 8        50.971 8  21868297.804 9  85815859.030 9     -1694.630 9        57.571 9
G15  21106825.085 9 110917088.790 9      2283.284 9        55.715 9  21106824.587 8  86428885.382 8      1779.183 8        51.215 8  21106827.022 9  82827688.574 9      1705.050 9        57.815 9
E05  23312087.492 9 122505825.621 9       351.228 9        57.977 9  23312087.492 9 122505825.621 9       351.228 9        57.977 9  23312090.019 9  91481620.503 9       262.280 9        57.837 9  23312090.019 9  91481620.503 9       262.280 9        57.837 9  23312089.839 9  93868098.284 9       269.122 9        57.837 9  23312089.839 9  93868098.284 9       269.122 9        57.837 9  23312089.927 9  92674859.396 9       265.701 9        60.847 9  23312089.927 9  92674859.396 9       265.701 9        60.847 9
E09  25225814.852 9 132562519.579 9     -2101.715 9        57.362 9  25225814.852 9 132562519.579 9     -2101.715 9        57.362 9  25225817.780 9  98991484.314 9     -1569.464 9        57.222 9  25225817.780 9  98991484.314 9     -1569.464 9        57.222 9  25225817.505 9 101573871.972 9     -1610.406 9        57.222 9  25225817.505 9 101573871.972 9     -1610.406 9        57.222 9  25225817.640 9 100282678.146 9     -1589.935 9        60.232 9  25225817.640 9 100282678.146 9     -1589.935 9        60.232 9
E13  28146388.715 9 147910224.399 9       310.973 9        56.288 9  28146388.715 9 147910224.399 9       310.973 9        56.288 9  28146392.399 9 110452427.145 9       232.221 9        56.149 9  28146392.399 9 110452427.145 9       232.221 9        56.149 9  28146391.999 9 113333796.417 9       238.278 9        56.149 9  28146391.999 9 113333796.417 9       238.278 9        56.149 9  28146392.195 9 111893111.786 9       235.249 9        59.159 9  28146392.195 9 111893111.786 9       235.249 9        59.159 9
E25  27060916.315 9 142206024.593 9      3126.820 9        56.727 9  27060916.315 9 142206024.593 9      3126.820 9        56.727 9  27060921.175 9 106192799.757 9      2334.965 9        56.587 9  27060921.175 9 106192799.757 9      2334.965 9        56.587 9  27060920.743 9 108963048.448 9      2395.877 9        56.587 9  27060920.743 9 108963048.448 9      2395.877 9        56.587 9  27060920.955 9 107577924.108 9      2365.421 9        59.598 9  27060920.955 9 107577924.108 9      2365.421 9        59.598 9
E31  24974941.586 9 131244174.887 9     -1550.107 9        57.420 9  24974941.586 9 131244174.887 9     -1550.107 9        57.420 9  24974944.769 9  98007009.045 9     -1157.548 9        57.280 9  24974944.769 9  98007009.045 9     -1157.548 9        57.280 9  24974944.521 9 100563714.628 9     -1187.745 9        57.280 9  24974944.521 9 100563714.628 9     -1187.745 9        57.280 9  24974944.643 9  99285361.839 9     -1172.647 9        60.291 9  24974944.643 9  99285361.839 9     -1172.647 9        60.291 9
E15  27838389.970 9 146291679.962 9     -1869.922 9        56.359 9  27838389.970 9 146291679.962 9     -1869.922 9        56.359 9  27838395.101 9 109243779.449 9     -1396.371 9        56.219 9  27838395.101 9 109243779.449 9     -1396.371 9        56.219 9  27838394.701 9 112093618.785 9     -1432.798 9        56.219 9  27838394.701 9 112093618.785 9     -1432.798 9        56.219 9  27838394.898 9 110668699.122 9     -1414.585 9        59.229 9  27838394.898 9 110668699.122 9     -1414.585 9        59.229 9
E03  26313126.598 9 138276378.959 9      2460.815 9        56.977 9  26313126.598 9 138276378.959 9      2460.815 9        56.977 9  26313130.096 9 103258328.164 9      1837.622 9        56.837 9  26313130.096 9 103258328.164 9      1837.622 9        56.837 9  26313129.800 9 105952024.874 9      1885.560 9        56.837 9  26313129.800 9 105952024.874 9      1885.560 9        56.837 9  26313129.945 9 104605176.523 9      1861.591 9        59.847 9  26313129.945 9 104605176.523 9      1861.591 9        59.847 9
E24  24077733.966 9 126529322.242 9      1231.685 9        57.798 9  24077733.966 9 126529322.242 9      1231.685 9        57.798 9  24077734.984 9  94486172.116 9       919.765 9        57.658 9  24077734.984 9  94486172.116 9       919.765 9        57.658 9  24077734.780 9  96951029.599 9       943.759 9        57.658 9  24077734.780 9  96951029.599 9       943.759 9        57.658 9  24077734.880 9  95718600.860 9       931.762 9        60.669 9  24077734.880 9  95718600.860 9       931.762 9        60.669 9
