     3.04           OBSERVATION DATA    M: MIXED            RINEX VERSION / TYPE
PosApp V8.01.00     Spirent             20230108 100018 UTC PGM / RUN BY / DATE 
                                                            MARKER NAME         
AIRBORNE                                                    MARKER TYPE         
gpssim              Spirent                                 OBSERVER / AGENCY   
rec_num             rec_type            rec_vers            REC # / TYPE / VERS 
1                   ant_type                                ANT # / TYPE        
     1.000                                                  INTERVAL            
  2023     1     8    10     0    0.0000000     GPS         TIME OF FIRST OBS   
  4157161.1260   671329.1980  4774767.0310                  APPROX POSITION XYZ 
        0.0000        0.0000        0.0000                  ANTENNA: DELTA X/Y/Z
G   12 C1C L1C D1C S1C C2X L2X D2X S2X C5I L5I D5I S5I      SYS / # / OBS TYPES 
E   32 C1B L1B D1B S1B C1C L1C D1C S1C C5I L5I D5I S5I C5Q  SYS / # / OBS TYPES 
       L5Q D5Q S5Q C7I L7I D7I S7I C7Q L7Q D7Q S7Q C8I L8I  SYS / # / OBS TYPES 
       D8I S8I C8Q L8Q D8Q S8Q                              SYS / # / OBS TYPES 
GNSS SIMULATOR OUTPUTS ALIGNED CARRIER PHASES.              COMMENT             
NO FURTHER PHASE SHIFTS APPLIED IN THE RINEX ENCODER.       COMMENT             
G L1C                                                       SYS / PHASE SHIFT   
G L2X  0.00000                                              SYS / PHASE SHIFT   
G L5I                                                       SYS / PHASE SHIFT   
E L1B                                                       SYS / PHASE SHIFT   
E L1C  0.00000                                              SYS / PHASE SHIFT   
E L5I                                                       SYS / PHASE SHIFT   
E L5Q  0.00000                                              SYS / PHASE SHIFT   
E L7I                                                       SYS / PHASE SHIFT   
E L7Q  0.00000                                              SYS / PHASE SHIFT   
E L8I                                                       SYS / PHASE SHIFT   
E L8Q  0.00000                                              SYS / PHASE SHIFT   
DBHZ                                                        SIGNAL STRENGTH UNIT
                                                            END OF HEADER       
> 2023 01 08 10 00  0.0000000  0 20       0.000000000000
G08  25065181.448 9 131718366.945 9     -1452.267 9        54.233 9  25065185.555 8 102637679.846 8     -1131.637 8        49.733 8  25065185.266 9  98361103.190 9     -1084.485 9        56.333 9
G13  20028887.206 9 105252491.665 9       588.650 9        56.112 9  20028886.241 8  82014914.031 8       458.688 8        51.612 8  20028888.791 9  78597633.660 9       439.576 9        58.212 9
G17  24978764.822 9 131264211.903 9      2916.927 9        54.181 9  24978767.776 8 102283771.637 8      2272.930 8        49.681 8  24978771.102 9  98021951.779 9      2178.225 9        56.281 9
G24  24539572.604 9 128956272.253 9      3527.501 9        54.409 9  24539576.357 8 100485396.021 8      2748.702 8        49.909 8  24539576.542 9  96298499.543 9      2634.172 9        56.509 9
G07  24589874.054 9 129220599.862 9     -2962.277 9        54.361 9  24589875.608 8 100691352.401 8     -2308.268 8        49.861 8  24589878.617 9  96495884.587 9     -2212.090 9        56.461 9
G18  24763062.886 9 130130728.301 9     -1345.786 9        54.338 9  24763064.060 8 101400549.388 8     -1048.665 8        49.838 8  24763066.318 9  97175530.391 9     -1004.970 9        56.438 9
G20  23505267.556 9 123520963.673 9     -3672.328 9        54.730 9  23505269.072 8  96250082.043 8     -2861.554 8        50.230 8  23505271.408 9  92239665.549 9     -2742.323 9        56.830 9
G14  20963959.178 9 110166324.550 9       134.774 9        55.781 9  20963959.150 8  85843876.800 8       105.019 8        51.281 8  20963961.026 9  82267053.287 9       100.643 9        57.881 9
G23  24878207.198 9 130735817.293 9      3256.611 9        54.287 9  24878208.277 8 101872047.694 8      2537.619 8        49.787 8  24878210.514 9  97627383.020 9      2431.885 9        56.387 9
G05  21735792.100 9 114222329.421 9     -2437.386 9        55.473 9  21735791.717 8  89004396.351 8     -1899.262 8        50.973 8  21735794.289 9  85295886.758 9     -1820.126 9        57.573 9
G30  21850588.428 9 114825588.384 9     -2251.117 9        55.478 9  21850590.924 8  89474480.151 8     -1754.117 8        50.978 8  21850590.603 9  85746372.401 9     -1681.029 9        57.578 9
G15  21124893.294 9 111012037.805 9      2310.140 9        55.708 9  21124892.800 8  86502871.612 8      1800.109 8        51.208 8  21124895.236 9  82898592.041 9      1725.105 9        57.808 9
E05  23314833.405 9 122520255.512 9       365.746 9        57.976 9  23314833.405 9 122520255.512 9       365.746 9        57.976 9  23314835.929 9  91492396.079 9       273.122 9        57.836 9  23314835.929 9  91492396.079 9       273.122 9        57.836 9  23314835.749 9  93879154.961 9       280.247 9        57.836 9  23314835.749 9  93879154.961 9       280.247 9        57.836 9  23314835.837 9  92685775.522 9       276.684 9        60.846 9  23314835.837 9  92685775.522 9       276.684 9        60.846 9
E09  25209436.954 9 132476453.327 9     -2103.057 9        57.368 9  25209436.954 9 132476453.327 9     -2103.057 9        57.368 9  25209439.868 9  98927214.116 9     -1570.465 9        57.228 9  25209439.868 9  98927214.116 9     -1570.465 9        57.228 9  25209439.594 9 101507925.153 9     -1611.433 9        57.228 9  25209439.594 9 101507925.153 9     -1611.433 9        57.228 9  25209439.728 9 100217569.638 9     -1590.949 9        60.238 9  25209439.728 9 100217569.638 9     -1590.949 9        60.238 9
E13  28148543.581 9 147921548.278 9       359.795 9        56.288 9  28148543.581 9 147921548.278 9       359.795 9        56.288 9  28148547.266 9 110460883.282 9       268.678 9        56.148 9  28148547.266 9 110460883.282 9       268.678 9        56.148 9  28148546.867 9 113342473.150 9       275.687 9        56.148 9  28148546.867 9 113342473.150 9       275.687 9        56.148 9  28148547.063 9 111901678.221 9       272.183 9        59.158 9  28148547.063 9 111901678.221 9       272.183 9        59.158 9
E25  27086519.767 9 142340571.392 9      3107.582 9        56.719 9  27086519.767 9 142340571.392 9      3107.582 9        56.719 9  27086524.646 9 106293272.942 9      2320.597 9        56.579 9  27086524.646 9 106293272.942 9      2320.597 9        56.579 9  27086524.212 9 109066142.681 9      2381.134 9        56.579 9  27086524.212 9 109066142.681 9      2381.134 9        56.579 9  27086524.424 9 107679707.817 9      2350.865 9        59.589 9  27086524.424 9 107679707.817 9      2350.865 9        59.589 9
E31  24963188.888 9 131182414.149 9     -1523.339 9        57.424 9  24963188.888 9 131182414.149 9     -1523.339 9        57.424 9  24963192.063 9  97960889.044 9     -1137.558 9        57.284 9  24963192.063 9  97960889.044 9     -1137.558 9        57.284 9  24963191.816 9 100516391.493 9     -1167.234 9        57.284 9  24963191.816 9 100516391.493 9     -1167.234 9        57.284 9  24963191.937 9  99238640.272 9     -1152.396 9        60.295 9  24963191.937 9  99238640.272 9     -1152.396 9        60.295 9
E15  27821091.170 9 146200774.311 9     -1842.606 9        56.364 9  27821091.170 9 146200774.311 9     -1842.606 9        56.364 9  27821096.290 9 109175895.405 9     -1375.972 9        56.224 9  27821096.290 9 109175895.405 9     -1375.972 9        56.224 9  27821095.891 9 112023963.848 9     -1411.867 9        56.224 9  27821095.891 9 112023963.848 9     -1411.867 9        56.224 9  27821096.087 9 110599929.632 9     -1393.919 9        59.235 9  27821096.087 9 110599929.632 9     -1393.919 9        59.235 9
E03  26332302.647 9 138377149.689 9      2477.354 9        56.970 9  26332302.647 9 138377149.689 9      2477.354 9        56.970 9  26332306.151 9 103333579.009 9      1849.972 9        56.830 9  26332306.151 9 103333579.009 9      1849.972 9        56.830 9  26332305.854 9 106029238.789 9      1898.232 9        56.830 9  26332305.854 9 106029238.789 9      1898.232 9        56.830 9  26332305.999 9 104681408.903 9      1874.102 9        59.841 9  26332305.999 9 104681408.903 9      1874.102 9        59.841 9
E24  24088555.086 9 126586187.584 9      1239.601 9        57.794 9  24088555.086 9 126586187.584 9      1239.601 9        57.794 9  24088556.106 9  94528636.487 9       925.676 9        57.654 9  24088556.106 9  94528636.487 9       925.676 9        57.654 9  24088555.902 9  96994601.737 9       949.824 9        57.654 9  24088555.902 9  96994601.737 9       949.824 9        57.654 9  24088556.002 9  95761619.115 9       937.750 9        60.665 9  24088556.002 9  95761619.115 9       937.750 9        60.665 9
> 2023 01 08 10 00  1.0000000  0 20       0.000000000000
G08  25065457.938 9 131719819.914 9     -1453.651 9        54.233 9  25065462.046 8 102638812.029 8     -1132.715 8        49.733 8  25065461.757 9  98362188.199 9     -1085.518 9        56.333 9
G13  20028775.212 9 105251903.131 9       588.407 9        56.112 9  20028774.247 8  82014455.434 8       458.499 8        51.612 8  20028776.797 9  78597194.171 9       439.395 9        58.212 9
G17  24978209.855 9 131261295.542 9      2915.692 9        54.181 9  24978212.807 8 102281499.151 8      2271.971 8        49.681 8  24978216.133 9  98019773.981 9      2177.307 9        56.281 9
G24  24538901.187 9 128952743.937 9      3529.081 9        54.409 9  24538904.940 8 100482646.685 8      2749.934 8        49.909 8  24538905.124 9  96295864.763 9      2635.354 9        56.509 9
G07  24590437.918 9 129223562.977 9     -2963.941 9        54.361 9  24590439.472 8 100693661.319 8     -2309.567 8        49.861 8  24590442.482 9  96498097.300 9     -2213.336 9        56.461 9
G18  24763318.900 9 130132073.658 9     -1344.924 9        54.337 9  24763320.073 8 101401597.718 8     -1047.994 8        49.837 8  24763322.332 9  97176535.041 9     -1004.327 9        56.437 9
G20  23505966.359 9 123524635.895 9     -3672.108 9        54.730 9  23505967.875 8  96252943.512 8     -2861.385 8        50.230 8  23505970.211 9  92242407.790 9     -2742.162 9        56.830 9
G14  20963933.673 9 110166190.523 9       133.277 9        55.781 9  20963933.645 8  85843772.363 8       103.852 8        51.281 8  20963935.522 9  82266953.202 9        99.525 9        57.881 9
G23  24877587.423 9 130732560.359 9      3257.200 9        54.288 9  24877588.501 8 101869509.825 8      2538.080 8        49.788 8  24877590.739 9  97624950.895 9      2432.327 9        56.388 9
G05  21736255.895 9 114224766.679 9     -2437.130 9        55.473 9  21736255.513 8  89006295.512 8     -1899.064 8        50.973 8  21736258.084 9  85297706.787 9     -1819.936 9        57.573 9
G30  21851016.933 9 114827840.188 9     -2252.503 9        55.478 9  21851019.429 8  89476234.802 8     -1755.198 8        50.978 8  21851019.108 9  85748053.942 9     -1682.065 9        57.578 9
G15  21124453.635 9 111009727.384 9      2310.688 9        55.708 9  21124453.141 8  86501071.284 8      1800.537 8        51.208 8  21124455.576 9  82896866.726 9      1725.514 9        57.808 9
E05  23314763.814 9 122519889.812 9       365.646 9        57.976 9  23314763.814 9 122519889.812 9       365.646 9        57.976 9  23314766.338 9  91492122.991 9       273.048 9        57.836 9  23314766.338 9  91492122.991 9       273.048 9        57.836 9  23314766.159 9  93878874.749 9       280.171 9        57.836 9  23314766.159 9  93878874.749 9       280.171 9        57.836 9  23314766.247 9  92685498.872 9       276.609 9        60.846 9  23314766.247 9  92685498.872 9       276.609 9        60.846 9
E09  25209837.272 9 132478557.011 9     -2104.312 9        57.367 9  25209837.272 9 132478557.011 9     -2104.312 9        57.367 9  25209840.187 9  98928785.047 9     -1571.403 9        57.228 9  25209840.187 9  98928785.047 9     -1571.403 9        57.228 9  25209839.912 9 101509537.065 9     -1612.396 9        57.228 9  25209839.912 9 101509537.065 9     -1612.396 9        57.228 9  25209840.047 9 100219161.060 9     -1591.900 9        60.238 9  25209840.047 9 100219161.060 9     -1591.900 9        60.238 9
E13  28148475.118 9 147921188.503 9       359.729 9        56.288 9  28148475.118 9 147921188.503 9       359.729 9        56.288 9  28148478.804 9 110460614.620 9       268.629 9        56.148 9  28148478.804 9 110460614.620 9       268.629 9        56.148 9  28148478.404 9 113342197.479 9       275.636 9        56.148 9  28148478.404 9 113342197.479 9       275.636 9        56.148 9  28148478.600 9 111901406.054 9       272.133 9        59.158 9  28148478.600 9 111901406.054 9       272.133 9        59.158 9
E25  27085928.367 9 142337463.571 9      3108.063 9        56.719 9  27085928.367 9 142337463.571 9      3108.063 9        56.719 9  27085933.246 9 106290952.169 9      2320.958 9        56.579 9  27085933.246 9 106290952.169 9      2320.958 9        56.579 9  27085932.811 9 109063761.366 9      2381.505 9        56.579 9  27085932.811 9 109063761.366 9      2381.505 9        56.579 9  27085933.024 9 107677356.773 9      2351.231 9        59.590 9  27085933.024 9 107677356.773 9      2351.231 9        59.590 9
E31  24963478.904 9 131183938.191 9     -1524.755 9        57.424 9  24963478.904 9 131183938.191 9     -1524.755 9        57.424 9  24963482.079 9  97962027.126 9     -1138.616 9        57.284 9  24963482.079 9  97962027.126 9     -1138.616 9        57.284 9  24963481.832 9 100517559.265 9     -1168.319 9        57.284 9  24963481.832 9 100517559.265 9     -1168.319 9        57.284 9  24963481.953 9  99239793.199 9     -1153.468 9        60.295 9  24963481.953 9  99239793.199 9     -1153.468 9        60.295 9
E15  27821441.704 9 146202616.379 9     -1841.511 9        56.364 9  27821441.704 9 146202616.379 9     -1841.511 9        56.364 9  27821446.825 9 109177270.974 9     -1375.155 9        56.224 9  27821446.825 9 109177270.974 9     -1375.155 9        56.224 9  27821446.426 9 112025375.301 9     -1411.029 9        56.224 9  27821446.426 9 112025375.301 9     -1411.029 9        56.224 9  27821446.621 9 110601323.143 9     -1393.092 9        59.234 9  27821446.621 9 110601323.143 9     -1393.092 9        59.234 9
E03  26331831.110 9 138374671.748 9      2478.510 9        56.970 9  26331831.110 9 138374671.748 9      2478.510 9        56.970 9  26331834.614 9 103331728.599 9      1850.836 9        56.830 9  26331834.614 9 103331728.599 9      1850.836 9        56.830 9  26331834.316 9 106027340.107 9      1899.119 9        56.830 9  26331834.316 9 106027340.107 9      1899.119 9        56.830 9  26331834.462 9 104679534.357 9      1874.977 9        59.841 9  26331834.462 9 104679534.357 9      1874.977 9        59.841 9
E24  24088319.272 9 126584948.373 9      1238.822 9        57.794 9  24088319.272 9 126584948.373 9      1238.822 9        57.794 9  24088320.292 9  94527711.103 9       925.095 9        57.654 9  24088320.292 9  94527711.103 9       925.095 9        57.654 9  24088320.088 9  96993652.212 9       949.228 9        57.654 9  24088320.088 9  96993652.212 9       949.228 9        57.654 9  24088320.188 9  95760681.660 9       937.161 9        60.665 9  24088320.188 9  95760681.660 9       937.161 9        60.665 9
> 2023 01 08 10 00  2.0000000  0 20       0.000000000000
G08  25065734.694 9 131721274.276 9     -1455.091 9        54.233 9  25065738.802 8 102639945.299 8     -1133.837 8        49.733 8  25065738.513 9  98363274.249 9     -1086.594 9        56.333 9
G13  20028663.266 9 105251314.852 9       588.148 9        56.112 9  20028662.301 8  82013997.034 8       458.297 8        51.612 8  20028664.851 9  78596754.871 9       439.202 9        58.212 9
G17  24977655.142 9 131258380.523 9      2914.390 9        54.181 9  24977658.094 8 102279227.711 8      2270.957 8        49.681 8  24977661.420 9  98017597.185 9      2176.334 9        56.281 9
G24  24538229.479 9 128949214.092 9      3530.614 9        54.409 9  24538233.232 8 100479896.157 8      2751.129 8        49.909 8  24538233.416 9  96293228.841 9      2636.499 9        56.509 9
G07  24591002.092 9 129226527.721 9     -2965.581 9        54.360 9  24591003.647 8 100695971.507 8     -2310.845 8        49.860 8  24591006.657 9  96500311.229 9     -2214.560 9        56.460 9
G18  24763574.752 9 130133418.170 9     -1344.113 9        54.337 9  24763575.926 8 101402645.389 8     -1047.361 8        49.837 8  24763578.185 9  97177539.059 9     -1003.721 9        56.437 9
G20  23506665.108 9 123528307.833 9     -3671.772 9        54.730 9  23506666.625 8  96255804.760 8     -2861.124 8        50.230 8  23506668.961 9  92245149.819 9     -2741.911 9        56.830 9
G14  20963908.452 9 110166057.983 9       131.804 9        55.781 9  20963908.424 8  85843669.085 8       102.704 8        51.281 8  20963910.300 9  82266854.227 9        98.425 9        57.881 9
G23  24876967.555 9 130729302.935 9      3257.639 9        54.288 9  24876968.633 8 101866971.573 8      2538.422 8        49.788 8  24876970.870 9  97622518.405 9      2432.654 9        56.388 9
G05  21736719.637 9 114227203.655 9     -2436.818 9        55.473 9  21736719.255 8  89008194.453 8     -1898.820 8        50.973 8  21736721.827 9  85299526.605 9     -1819.703 9        57.573 9
G30  21851445.702 9 114830093.380 9     -2253.898 9        55.478 9  21851448.199 8  89477990.535 8     -1756.285 8        50.978 8  21851447.877 9  85749736.520 9     -1683.107 9        57.578 9
G15  21124013.877 9 111007416.442 9      2311.188 9        55.708 9  21124013.383 8  86499270.551 8      1800.926 8        51.208 8  21124015.818 9  82895141.024 9      1725.888 9        57.808 9
E05  23314694.244 9 122519524.216 9       365.542 9        57.976 9  23314694.244 9 122519524.216 9       365.542 9        57.976 9  23314696.768 9  91491849.981 9       272.970 9        57.836 9  23314696.768 9  91491849.981 9       272.970 9        57.836 9  23314696.588 9  93878594.617 9       280.090 9        57.836 9  23314696.588 9  93878594.617 9       280.090 9        57.836 9  23314696.676 9  92685222.301 9       276.530 9        60.846 9  23314696.676 9  92685222.301 9       276.530 9        60.846 9
E09  25210237.823 9 132480661.917 9     -2105.504 9        57.367 9  25210237.823 9 132480661.917 9     -2105.504 9        57.367 9  25210240.738 9  98930356.891 9     -1572.293 9        57.227 9  25210240.738 9  98930356.891 9     -1572.293 9        57.227 9  25210240.464 9 101511149.914 9     -1613.309 9        57.227 9  25210240.464 9 101511149.914 9     -1613.309 9        57.227 9  25210240.598 9 100220753.406 9     -1592.801 9        60.238 9  25210240.598 9 100220753.406 9     -1592.801 9        60.238 9
E13  28148406.680 9 147920828.859 9       359.544 9        56.288 9  28148406.680 9 147920828.859 9       359.544 9        56.288 9  28148410.365 9 110460346.054 9       268.490 9        56.148 9  28148410.365 9 110460346.054 9       268.490 9        56.148 9  28148409.966 9 113341921.907 9       275.495 9        56.148 9  28148409.966 9 113341921.907 9       275.495 9        56.148 9  28148410.162 9 111901133.986 9       271.993 9        59.158 9  28148410.162 9 111901133.986 9       271.993 9        59.158 9
E25  27085336.871 9 142334355.243 9      3108.621 9        56.719 9  27085336.871 9 142334355.243 9      3108.621 9        56.719 9  27085341.749 9 106288631.016 9      2321.375 9        56.580 9  27085341.749 9 106288631.016 9      2321.375 9        56.580 9  27085341.315 9 109061379.661 9      2381.932 9        56.580 9  27085341.315 9 109061379.661 9      2381.932 9        56.580 9  27085341.527 9 107675005.344 9      2351.653 9        59.590 9  27085341.527 9 107675005.344 9      2351.653 9        59.590 9
E31  24963769.191 9 131185463.658 9     -1526.194 9        57.424 9  24963769.191 9 131185463.658 9     -1526.194 9        57.424 9  24963772.367 9  97963166.273 9     -1139.691 9        57.284 9  24963772.367 9  97963166.273 9     -1139.691 9        57.284 9  24963772.120 9 100518728.128 9     -1169.422 9        57.284 9  24963772.120 9 100518728.128 9     -1169.422 9        57.284 9  24963772.241 9  99240947.204 9     -1154.557 9        60.294 9  24963772.241 9  99240947.204 9     -1154.557 9        60.294 9
E15  27821792.031 9 146204457.352 9     -1840.448 9        56.364 9  27821792.031 9 146204457.352 9     -1840.448 9        56.364 9  27821797.151 9 109178645.726 9     -1374.362 9        56.224 9  27821797.151 9 109178645.726 9     -1374.362 9        56.224 9  27821796.752 9 112026785.917 9     -1410.215 9        56.224 9  27821796.752 9 112026785.917 9     -1410.215 9        56.224 9  27821796.948 9 110602715.827 9     -1392.288 9        59.234 9  27821796.948 9 110602715.827 9     -1392.288 9        59.234 9
E03  26331359.360 9 138372192.691 9      2479.595 9        56.970 9  26331359.360 9 138372192.691 9      2479.595 9        56.970 9  26331362.864 9 103329877.356 9      1851.646 9        56.831 9  26331362.864 9 103329877.356 9      1851.646 9        56.831 9  26331362.567 9 106025440.570 9      1899.950 9        56.831 9  26331362.567 9 106025440.570 9      1899.950 9        56.831 9  26331362.713 9 104677658.967 9      1875.798 9        59.841 9  26331362.713 9 104677658.967 9      1875.798 9        59.841 9
E24  24088083.602 9 126583709.920 9      1238.093 9        57.794 9  24088083.602 9 126583709.920 9      1238.093 9        57.794 9  24088084.622 9  94526786.284 9       924.550 9        57.655 9  24088084.622 9  94526786.284 9       924.550 9        57.655 9  24088084.418 9  96992703.268 9       948.669 9        57.655 9  24088084.418 9  96992703.268 9       948.669 9        57.655 9  24088084.518 9  95759744.779 9       936.610 9        60.665 9  24088084.518 9  95759744.779 9       936.610 9        60.665 9
> 2023 01 08 10 00  3.0000000  0 20       0.000000000000
G08  25066011.733 9 131722730.126 9     -1456.621 9        54.233 9  25066015.840 8 102641079.727 8     -1135.029 8        49.733 8  25066015.551 9  98364361.409 9     -1087.736 9        56.333 9
G13  20028551.372 9 105250726.842 9       587.869 9        56.112 9  20028550.406 8  82013538.845 8       458.080 8        51.612 8  20028552.957 9  78596315.773 9       438.993 9        58.212 9
G17  24977100.672 9 131255466.774 9      2913.153 9        54.181 9  24977103.623 8 102276957.260 8      2269.993 8        49.681 8  24977106.948 9  98015421.337 9      2175.411 9        56.281 9
G24  24537557.478 9 128945682.705 9      3532.163 9        54.409 9  24537561.230 8 100477144.428 8      2752.336 8        49.909 8  24537561.414 9  96290591.768 9      2637.655 9        56.509 9
G07  24591566.581 9 129229494.122 9     -2967.249 9        54.360 9  24591568.137 8 100698282.985 8     -2312.145 8        49.860 8  24591571.147 9  96502526.395 9     -2215.806 9        56.460 9
G18  24763830.456 9 130134761.899 9     -1343.359 9        54.337 9  24763831.630 8 101403692.449 8     -1046.774 8        49.837 8  24763833.889 9  97178542.492 9     -1003.158 9        56.437 9
G20  23507363.783 9 123531979.389 9     -3671.344 9        54.729 9  23507365.301 8  96258665.710 8     -2860.790 8        50.229 8  23507367.638 9  92247891.562 9     -2741.591 9        56.829 9
G14  20963883.510 9 110165926.914 9       130.340 9        55.781 9  20963883.482 8  85843566.953 8       101.563 8        51.281 8  20963885.359 9  82266756.350 9        97.331 9        57.881 9
G23  24876347.612 9 130726045.118 9      3257.986 9        54.288 9  24876348.689 8 101864433.016 8      2538.692 8        49.788 8  24876350.926 9  97620085.621 9      2432.914 9        56.388 9
G05  21737183.315 9 114229640.293 9     -2436.454 9        55.473 9  21737182.933 8  89010093.130 8     -1898.537 8        50.973 8  21737185.504 9  85301346.171 9     -1819.431 9        57.573 9
G30  21851874.739 9 114832347.984 9     -2255.320 9        55.478 9  21851877.236 8  89479747.368 8     -1757.393 8        50.978 8  21851876.915 9  85751420.151 9     -1684.168 9        57.578 9
G15  21123574.028 9 111005105.023 9      2311.645 9        55.708 9  21123573.534 8  86497469.445 8      1801.283 8        51.208 8  21123575.970 9  82893414.965 9      1726.229 9        57.808 9
E05  23314624.694 9 122519158.732 9       365.426 9        57.976 9  23314624.694 9 122519158.732 9       365.426 9        57.976 9  23314627.219 9  91491577.054 9       272.883 9        57.836 9  23314627.219 9  91491577.054 9       272.883 9        57.836 9  23314627.039 9  93878314.570 9       280.001 9        57.836 9  23314627.039 9  93878314.570 9       280.001 9        57.836 9  23314627.127 9  92684945.815 9       276.442 9        60.846 9  23314627.127 9  92684945.815 9       276.442 9        60.846 9
E09  25210638.597 9 132482767.993 9     -2106.650 9        57.367 9  25210638.597 9 132482767.993 9     -2106.650 9        57.367 9  25210641.512 9  98931929.610 9     -1573.149 9        57.227 9  25210641.512 9  98931929.610 9     -1573.149 9        57.227 9  25210641.238 9 101512763.660 9     -1614.187 9        57.227 9  25210641.238 9 101512763.660 9     -1614.187 9        57.227 9  25210641.372 9 100222346.638 9     -1593.668 9        60.238 9  25210641.372 9 100222346.638 9     -1593.668 9        60.238 9
E13  28148338.287 9 147920469.451 9       359.257 9        56.288 9  28148338.287 9 147920469.451 9       359.257 9        56.288 9  28148341.972 9 110460077.665 9       268.276 9        56.148 9  28148341.972 9 110460077.665 9       268.276 9        56.148 9  28148341.573 9 113341646.517 9       275.275 9        56.148 9  28148341.573 9 113341646.517 9       275.275 9        56.148 9  28148341.768 9 111900862.096 9       271.775 9        59.158 9  28148341.768 9 111900862.096 9       271.775 9        59.158 9
E25  27084745.259 9 142331246.310 9      3109.268 9        56.720 9  27084745.259 9 142331246.310 9      3109.268 9        56.720 9  27084750.137 9 106286309.413 9      2321.858 9        56.580 9  27084750.137 9 106286309.413 9      2321.858 9        56.580 9  27084749.703 9 109058997.493 9      2382.428 9        56.580 9  27084749.703 9 109058997.493 9      2382.428 9        56.580 9  27084749.916 9 107672653.459 9      2352.143 9        59.590 9  27084749.916 9 107672653.459 9      2352.143 9        59.590 9
E31  24964059.756 9 131186990.586 9     -1527.671 9        57.424 9  24964059.756 9 131186990.586 9     -1527.671 9        57.424 9  24964062.932 9  97964306.511 9     -1140.794 9        57.284 9  24964062.932 9  97964306.511 9     -1140.794 9        57.284 9  24964062.685 9 100519898.112 9     -1170.554 9        57.284 9  24964062.685 9 100519898.112 9     -1170.554 9        57.284 9  24964062.806 9  99242102.315 9     -1155.674 9        60.294 9  24964062.806 9  99242102.315 9     -1155.674 9        60.294 9
E15  27822142.159 9 146206297.289 9     -1839.438 9        56.364 9  27822142.159 9 146206297.289 9     -1839.438 9        56.364 9  27822147.280 9 109180019.704 9     -1373.607 9        56.224 9  27822147.280 9 109180019.704 9     -1373.607 9        56.224 9  27822146.881 9 112028195.737 9     -1409.440 9        56.224 9  27822146.881 9 112028195.737 9     -1409.440 9        56.224 9  27822147.077 9 110604107.726 9     -1391.524 9        59.234 9  27822147.077 9 110604107.726 9     -1391.524 9        59.234 9
E03  26330887.410 9 138369712.577 9      2480.623 9        56.971 9  26330887.410 9 138369712.577 9      2480.623 9        56.971 9  26330890.913 9 103328025.324 9      1852.414 9        56.831 9  26330890.913 9 103328025.324 9      1852.414 9        56.831 9  26330890.616 9 106023540.224 9      1900.738 9        56.831 9  26330890.616 9 106023540.224 9      1900.738 9        56.831 9  26330890.762 9 104675782.778 9      1876.576 9        59.841 9  26330890.762 9 104675782.778 9      1876.576 9        59.841 9
E24  24087848.067 9 126582472.178 9      1237.403 9        57.794 9  24087848.067 9 126582472.178 9      1237.403 9        57.794 9  24087849.087 9  94525861.996 9       924.035 9        57.655 9  24087849.087 9  94525861.996 9       924.035 9        57.655 9  24087848.883 9  96991754.868 9       948.140 9        57.655 9  24087848.883 9  96991754.868 9       948.140 9        57.655 9  24087848.983 9  95758808.435 9       936.087 9        60.665 9  24087848.983 9  95758808.435 9       936.087 9        60.665 9
> 2023 01 08 10 00  4.0000000  0 20       0.000000000000
G08  25066289.072 9 131724187.553 9     -1458.246 9        54.233 9  25066293.179 8 102642215.384 8     -1136.295 8        49.733 8  25066292.890 9  98365449.748 9     -1088.949 9        56.333 9
G13  20028439.532 9 105250139.122 9       587.565 9        56.112 9  20028438.567 8  82013080.881 8       457.843 8        51.612 8  20028441.117 9  78595876.891 9       438.766 9        58.212 9
G17  24976546.428 9 131252554.216 9      2912.013 9        54.182 9  24976549.378 8 102274687.738 8      2269.104 8        49.682 8  24976552.703 9  98013246.379 9      2174.559 9        56.282 9
G24  24536885.182 9 128942149.770 9      3533.705 9        54.410 9  24536888.934 8 100474391.493 8      2753.538 8        49.910 8  24536889.118 9  96287953.538 9      2638.807 9        56.510 9
G07  24592131.389 9 129232462.197 9     -2968.928 9        54.360 9  24592132.946 8 100700595.768 8     -2313.453 8        49.860 8  24592135.956 9  96504742.812 9     -2217.060 9        56.460 9
G18  24764086.024 9 130136104.915 9     -1342.693 9        54.337 9  24764087.198 8 101404738.955 8     -1046.255 8        49.837 8  24764089.457 9  97179545.393 9     -1002.661 9        56.437 9
G20  23508062.368 9 123535650.464 9     -3670.811 9        54.729 9  23508063.886 8  96261526.285 8     -2860.375 8        50.229 8  23508066.223 9  92250632.946 9     -2741.193 9        56.829 9
G14  20963858.845 9 110165797.295 9       128.902 9        55.781 9  20963858.817 8  85843465.952 8       100.443 8        51.281 8  20963860.693 9  82266659.557 9        96.258 9        57.881 9
G23  24875727.614 9 130722787.011 9      3258.214 9        54.288 9  24875728.691 8 101861894.233 8      2538.869 8        49.788 8  24875730.928 9  97617652.621 9      2433.083 9        56.388 9
G05  21737646.918 9 114232076.540 9     -2436.041 9        55.473 9  21737646.536 8  89011991.504 8     -1898.215 8        50.973 8  21737649.108 9  85303165.445 9     -1819.122 9        57.573 9
G30  21852304.049 9 114834604.015 9     -2256.754 9        55.478 9  21852306.546 8  89481505.313 8     -1758.510 8        50.978 8  21852306.225 9  85753104.848 9     -1685.239 9        57.578 9
G15  21123134.098 9 111002793.174 9      2312.042 9        55.708 9  21123133.603 8  86495668.005 8      1801.591 8        51.208 8  21123136.039 9  82891688.584 9      1726.525 9        57.808 9
E05  23314555.168 9 122518793.369 9       365.296 9        57.976 9  23314555.168 9 122518793.369 9       365.296 9        57.976 9  23314557.693 9  91491304.218 9       272.786 9        57.836 9  23314557.693 9  91491304.218 9       272.786 9        57.836 9  23314557.513 9  93878034.617 9       279.902 9        57.836 9  23314557.513 9  93878034.617 9       279.902 9        57.836 9  23314557.601 9  92684669.420 9       276.344 9        60.846 9  23314557.601 9  92684669.420 9       276.344 9        60.846 9
E09  25211039.583 9 132484875.182 9     -2107.725 9        57.367 9  25211039.583 9 132484875.182 9     -2107.725 9        57.367 9  25211042.498 9  98933503.158 9     -1573.952 9        57.227 9  25211042.498 9  98933503.158 9     -1573.952 9        57.227 9  25211042.224 9 101514378.258 9     -1615.012 9        57.227 9  25211042.224 9 101514378.258 9     -1615.012 9        57.227 9  25211042.358 9 100223940.711 9     -1594.482 9        60.237 9  25211042.358 9 100223940.711 9     -1594.482 9        60.237 9
E13  28148269.960 9 147920110.391 9       358.844 9        56.288 9  28148269.960 9 147920110.391 9       358.844 9        56.288 9  28148273.645 9 110459809.536 9       267.968 9        56.148 9  28148273.645 9 110459809.536 9       267.968 9        56.148 9  28148273.246 9 113341371.393 9       274.958 9        56.148 9  28148273.246 9 113341371.393 9       274.958 9        56.148 9  28148273.441 9 111900590.470 9       271.463 9        59.158 9  28148273.441 9 111900590.470 9       271.463 9        59.158 9
E25  27084153.516 9 142328136.683 9      3110.011 9        56.720 9  27084153.516 9 142328136.683 9      3110.011 9        56.720 9  27084158.393 9 106283987.290 9      2322.413 9        56.580 9  27084158.393 9 106283987.290 9      2322.413 9        56.580 9  27084157.959 9 109056614.794 9      2382.997 9        56.580 9  27084157.959 9 109056614.794 9      2382.997 9        56.580 9  27084158.172 9 107670301.047 9      2352.705 9        59.590 9  27084158.172 9 107670301.047 9      2352.705 9        59.590 9
E31  24964350.605 9 131188519.005 9     -1529.176 9        57.424 9  24964350.605 9 131188519.005 9     -1529.176 9        57.424 9  24964353.781 9  97965447.862 9     -1141.918 9        57.284 9  24964353.781 9  97965447.862 9     -1141.918 9        57.284 9  24964353.534 9 100521069.237 9     -1171.707 9        57.284 9  24964353.534 9 100521069.237 9     -1171.707 9        57.284 9  24964353.655 9  99243258.553 9     -1156.812 9        60.294 9  24964353.655 9  99243258.553 9     -1156.812 9        60.294 9
E15  27822492.103 9 146208136.253 9     -1838.509 9        56.364 9  27822492.103 9 146208136.253 9     -1838.509 9        56.364 9  27822497.224 9 109181392.955 9     -1372.913 9        56.224 9  27822497.224 9 109181392.955 9     -1372.913 9        56.224 9  27822496.825 9 112029604.813 9     -1408.728 9        56.224 9  27822496.825 9 112029604.813 9     -1408.728 9        56.224 9  27822497.021 9 110605498.889 9     -1390.821 9        59.234 9  27822497.021 9 110605498.889 9     -1390.821 9        59.234 9
E03  26330415.271 9 138367231.475 9      2481.567 9        56.971 9  26330415.271 9 138367231.475 9      2481.567 9        56.971 9  26330418.775 9 103326172.553 9      1853.119 9        56.831 9  26330418.775 9 103326172.553 9      1853.119 9        56.831 9  26330418.478 9 106021639.120 9      1901.461 9        56.831 9  26330418.478 9 106021639.120 9      1901.461 9        56.831 9  26330418.623 9 104673905.840 9      1877.290 9        59.841 9  26330418.623 9 104673905.840 9      1877.290 9        59.841 9
E24  24087612.659 9 126581235.099 9      1236.767 9        57.795 9  24087612.659 9 126581235.099 9      1236.767 9        57.795 9  24087613.678 9  94524938.203 9       923.560 9        57.655 9  24087613.678 9  94524938.203 9       923.560 9        57.655 9  24087613.475 9  96990806.977 9       947.653 9        57.655 9  24087613.475 9  96990806.977 9       947.653 9        57.655 9  24087613.575 9  95757872.593 9       935.606 9        60.665 9  24087613.575 9  95757872.593 9       935.606 9        60.665 9
> 2023 01 08 10 00  5.0000000  0 20       0.000000000000
G08  25066566.727 9 131725646.641 9     -1459.949 9        54.233 9  25066570.834 8 102643352.336 8     -1137.622 8        49.733 8  25066570.545 9  98366539.327 9     -1090.221 9        56.333 9
G13  20028327.751 9 105249551.709 9       587.252 9        56.112 9  20028326.786 8  82012623.157 8       457.599 8        51.612 8  20028329.336 9  78595438.238 9       438.532 9        58.212 9
G17  24975992.395 9 131249642.766 9      2910.942 9        54.182 9  24975995.344 8 102272419.079 8      2268.270 8        49.682 8  24975998.669 9  98011072.248 9      2173.759 9        56.282 9
G24  24536212.591 9 128938615.289 9      3535.254 9        54.410 9  24536216.343 8 100471637.353 8      2754.744 8        49.910 8  24536216.527 9  96285314.154 9      2639.964 9        56.510 9
G07  24592696.518 9 129235431.960 9     -2970.623 9        54.360 9  24592698.076 8 100702909.866 8     -2314.774 8        49.860 8  24592701.086 9  96506960.488 9     -2218.326 9        56.460 9
G18  24764341.470 9 130137447.293 9     -1342.088 9        54.337 9  24764342.645 8 101405784.963 8     -1045.783 8        49.837 8  24764344.904 9  97180547.817 9     -1002.209 9        56.437 9
G20  23508760.843 9 123539320.965 9     -3670.189 9        54.729 9  23508762.362 8  96264386.413 8     -2859.890 8        50.229 8  23508764.699 9  92253373.901 9     -2740.729 9        56.829 9
G14  20963834.451 9 110165669.104 9       127.486 9        55.781 9  20963834.423 8  85843366.062 8        99.340 8        51.281 8  20963836.299 9  82266563.830 9        95.201 9        57.881 9
G23  24875107.580 9 130719528.718 9      3258.352 9        54.288 9  24875108.657 8 101859355.305 8      2538.977 8        49.788 8  24875110.894 9  97615219.481 9      2433.187 9        56.388 9
G05  21738110.438 9 114234512.349 9     -2435.576 9        55.473 9  21738110.057 8  89013889.536 8     -1897.852 8        50.973 8  21738112.628 9  85304984.392 9     -1818.775 9        57.573 9
G30  21852733.632 9 114836861.484 9     -2258.198 9        55.478 9  21852736.129 8  89483264.380 8     -1759.636 8        50.978 8  21852735.808 9  85754790.620 9     -1686.318 9        57.578 9
G15  21122694.095 9 111000480.944 9      2312.401 9        55.709 9  21122693.600 8  86493866.267 8      1801.872 8        51.209 8  21122696.036 9  82889961.920 9      1726.794 9        57.809 9
E05  23314485.667 9 122518428.135 9       365.166 9        57.976 9  23314485.667 9 122518428.135 9       365.166 9        57.976 9  23314488.191 9  91491031.478 9       272.689 9        57.836 9  23314488.191 9  91491031.478 9       272.689 9        57.836 9  23314488.011 9  93877754.762 9       279.802 9        57.836 9  23314488.011 9  93877754.762 9       279.802 9        57.836 9  23314488.099 9  92684393.122 9       276.245 9        60.846 9  23314488.099 9  92684393.122 9       276.245 9        60.846 9
E09  25211440.768 9 132486983.420 9     -2108.746 9        57.367 9  25211440.768 9 132486983.420 9     -2108.746 9        57.367 9  25211443.684 9  98935077.491 9     -1574.714 9        57.227 9  25211443.684 9  98935077.491 9     -1574.714 9        57.227 9  25211443.409 9 101515993.660 9     -1615.794 9        57.227 9  25211443.409 9 101515993.660 9     -1615.794 9        57.227 9  25211443.544 9 100225535.579 9     -1595.254 9        60.237 9  25211443.544 9 100225535.579 9     -1595.254 9        60.237 9
E13  28148201.720 9 147919751.788 9       358.335 9        56.288 9  28148201.720 9 147919751.788 9       358.335 9        56.288 9  28148205.405 9 110459541.748 9       267.588 9        56.148 9  28148205.405 9 110459541.748 9       267.588 9        56.148 9  28148205.006 9 113341096.620 9       274.568 9        56.148 9  28148205.006 9 113341096.620 9       274.568 9        56.148 9  28148205.201 9 111900319.189 9       271.078 9        59.158 9  28148205.201 9 111900319.189 9       271.078 9        59.158 9
E25  27083561.623 9 142325026.272 9      3110.839 9        56.720 9  27083561.623 9 142325026.272 9      3110.839 9        56.720 9  27083566.500 9 106281664.583 9      2323.031 9        56.580 9  27083566.500 9 106281664.583 9      2323.031 9        56.580 9  27083566.066 9 109054231.494 9      2383.631 9        56.580 9  27083566.066 9 109054231.494 9      2383.631 9        56.580 9  27083566.279 9 107667948.044 9      2353.331 9        59.590 9  27083566.279 9 107667948.044 9      2353.331 9        59.590 9
E31  24964641.742 9 131190048.939 9     -1530.703 9        57.424 9  24964641.742 9 131190048.939 9     -1530.703 9        57.424 9  24964644.919 9  97966590.345 9     -1143.058 9        57.284 9  24964644.919 9  97966590.345 9     -1143.058 9        57.284 9  24964644.671 9 100522241.524 9     -1172.877 9        57.284 9  24964644.671 9 100522241.524 9     -1172.877 9        57.284 9  24964644.793 9  99244415.937 9     -1157.967 9        60.294 9  24964644.793 9  99244415.937 9     -1157.967 9        60.294 9
E15  27822841.875 9 146209974.312 9     -1837.635 9        56.364 9  27822841.875 9 146209974.312 9     -1837.635 9        56.364 9  27822846.996 9 109182765.531 9     -1372.261 9        56.224 9  27822846.996 9 109182765.531 9     -1372.261 9        56.224 9  27822846.597 9 112031013.195 9     -1408.059 9        56.224 9  27822846.597 9 112031013.195 9     -1408.059 9        56.224 9  27822846.793 9 110606889.368 9     -1390.160 9        59.234 9  27822846.793 9 110606889.368 9     -1390.160 9        59.234 9
E03  26329942.958 9 138364749.452 9      2482.456 9        56.971 9  26329942.958 9 138364749.452 9      2482.456 9        56.971 9  26329946.461 9 103324319.095 9      1853.783 9        56.831 9  26329946.461 9 103324319.095 9      1853.783 9        56.831 9  26329946.164 9 106019737.311 9      1902.142 9        56.831 9  26329946.164 9 106019737.311 9      1902.142 9        56.831 9  26329946.310 9 104672028.207 9      1877.963 9        59.841 9  26329946.310 9 104672028.207 9      1877.963 9        59.841 9
E24  24087377.367 9 126579998.632 9      1236.178 9        57.795 9  24087377.367 9 126579998.632 9      1236.178 9        57.795 9  24087378.387 9  94524014.868 9       923.120 9        57.655 9  24087378.387 9  94524014.868 9       923.120 9        57.655 9  24087378.183 9  96989859.555 9       947.202 9        57.655 9  24087378.183 9  96989859.555 9       947.202 9        57.655 9  24087378.283 9  95756937.214 9       935.161 9        60.665 9  24087378.283 9  95756937.214 9       935.161 9        60.665 9
> 2023 01 08 10 00  6.0000000  0 20       0.000000000000
G08  25066844.714 9 131727107.470 9     -1461.738 9        54.233 9  25066848.821 8 102644490.645 8     -1139.016 8        49.733 8  25066848.532 9  98367630.206 9     -1091.557 9        56.333 9
G13  20028216.033 9 105248964.623 9       586.911 9        56.112 9  20028215.067 8  82012165.687 8       457.333 8        51.612 8  20028217.618 9  78594999.830 9       438.277 9        58.212 9
G17  24975438.556 9 131246732.337 9      2909.971 9        54.182 9  24975441.505 8 102270151.216 8      2267.513 8        49.682 8  24975444.829 9  98008898.880 9      2173.034 9        56.282 9
G24  24535539.709 9 128935079.271 9      3536.787 9        54.410 9  24535543.460 8 100468882.015 8      2755.939 8        49.910 8  24535543.644 9  96282673.623 9      2641.108 9        56.510 9
G07  24593261.969 9 129238403.414 9     -2972.320 9        54.360 9  24593263.527 8 100705225.282 8     -2316.096 8        49.860 8  24593266.538 9  96509179.428 9     -2219.593 9        56.460 9
G18  24764596.810 9 130138789.112 9     -1341.575 9        54.337 9  24764597.985 8 101406830.535 8     -1045.384 8        49.837 8  24764600.244 9  97181549.824 9     -1001.826 9        56.437 9
G20  23509459.191 9 123542990.799 9     -3669.471 9        54.729 9  23509460.711 8  96267246.021 8     -2859.330 8        50.229 8  23509463.048 9  92256114.358 9     -2740.192 9        56.829 9
G14  20963810.323 9 110165542.313 9       126.098 9        55.781 9  20963810.295 8  85843267.264 8        98.258 8        51.281 8  20963812.172 9  82266469.148 9        94.164 9        57.881 9
G23  24874487.531 9 130716270.345 9      3258.371 9        54.289 9  24874488.608 8 101856816.314 8      2538.992 8        49.789 8  24874490.845 9  97612786.282 9      2433.201 9        56.389 9
G05  21738573.866 9 114236947.676 9     -2435.070 9        55.472 9  21738573.485 8  89015787.192 8     -1897.458 8        50.972 8  21738576.056 9  85306802.979 9     -1818.397 9        57.572 9
G30  21853163.490 9 114839120.399 9     -2259.651 9        55.477 9  21853165.987 8  89485024.572 8     -1760.768 8        50.977 8  21853165.666 9  85756477.471 9     -1687.403 9        57.577 9
G15  21122254.030 9 110998168.388 9      2312.695 9        55.709 9  21122253.535 8  86492064.276 8      1802.100 8        51.209 8  21122255.970 9  82888235.012 9      1727.013 9        57.809 9
E05  23314416.191 9 122518063.039 9       365.018 9        57.976 9  23314416.191 9 122518063.039 9       365.018 9        57.976 9  23314418.716 9  91490758.842 9       272.578 9        57.836 9  23314418.716 9  91490758.842 9       272.578 9        57.836 9  23314418.536 9  93877475.013 9       279.689 9        57.836 9  23314418.536 9  93877475.013 9       279.689 9        57.836 9  23314418.624 9  92684116.930 9       276.134 9        60.847 9  23314418.624 9  92684116.930 9       276.134 9        60.847 9
E09  25211842.140 9 132489092.643 9     -2109.696 9        57.367 9  25211842.140 9 132489092.643 9     -2109.696 9        57.367 9  25211845.056 9  98936652.558 9     -1575.424 9        57.227 9  25211845.056 9  98936652.558 9     -1575.424 9        57.227 9  25211844.782 9 101517609.817 9     -1616.521 9        57.227 9  25211844.782 9 101517609.817 9     -1616.521 9        57.227 9  25211844.917 9 100227131.191 9     -1595.972 9        60.237 9  25211844.917 9 100227131.191 9     -1595.972 9        60.237 9
E13  28148133.588 9 147919393.753 9       357.703 9        56.288 9  28148133.588 9 147919393.753 9       357.703 9        56.288 9  28148137.273 9 110459274.385 9       267.116 9        56.148 9  28148137.273 9 110459274.385 9       267.116 9        56.148 9  28148136.874 9 113340822.281 9       274.084 9        56.148 9  28148136.874 9 113340822.281 9       274.084 9        56.148 9  28148137.069 9 111900048.338 9       270.600 9        59.158 9  28148137.069 9 111900048.338 9       270.600 9        59.158 9
E25  27082969.566 9 142321914.995 9      3111.754 9        56.720 9  27082969.566 9 142321914.995 9      3111.754 9        56.720 9  27082974.442 9 106279341.228 9      2323.714 9        56.580 9  27082974.442 9 106279341.228 9      2323.714 9        56.580 9  27082974.008 9 109051847.529 9      2384.333 9        56.580 9  27082974.008 9 109051847.529 9      2384.333 9        56.580 9  27082974.221 9 107665594.384 9      2354.023 9        59.591 9  27082974.221 9 107665594.384 9      2354.023 9        59.591 9
E31  24964933.172 9 131191580.407 9     -1532.252 9        57.424 9  24964933.172 9 131191580.407 9     -1532.252 9        57.424 9  24964936.348 9  97967733.973 9     -1144.215 9        57.284 9  24964936.348 9  97967733.973 9     -1144.215 9        57.284 9  24964936.101 9 100523414.986 9     -1174.064 9        57.284 9  24964936.101 9 100523414.986 9     -1174.064 9        57.284 9  24964936.222 9  99245574.482 9     -1159.139 9        60.294 9  24964936.222 9  99245574.482 9     -1159.139 9        60.294 9
E15  27823191.489 9 146211811.543 9     -1836.848 9        56.364 9  27823191.489 9 146211811.543 9     -1836.848 9        56.364 9  27823196.610 9 109184137.488 9     -1371.673 9        56.224 9  27823196.610 9 109184137.488 9     -1371.673 9        56.224 9  27823196.211 9 112032420.942 9     -1407.456 9        56.224 9  27823196.211 9 112032420.942 9     -1407.456 9        56.224 9  27823196.407 9 110608279.220 9     -1389.564 9        59.234 9  27823196.407 9 110608279.220 9     -1389.564 9        59.234 9
E03  26329470.484 9 138362266.586 9      2483.256 9        56.971 9  26329470.484 9 138362266.586 9      2483.256 9        56.971 9  26329473.987 9 103322465.008 9      1854.380 9        56.831 9  26329473.987 9 103322465.008 9      1854.380 9        56.831 9  26329473.690 9 106017834.856 9      1902.756 9        56.831 9  26329473.690 9 106017834.856 9      1902.756 9        56.831 9  26329473.835 9 104670149.936 9      1878.568 9        59.841 9  26329473.835 9 104670149.936 9      1878.568 9        59.841 9
E24  24087142.183 9 126578762.730 9      1235.641 9        57.795 9  24087142.183 9 126578762.730 9      1235.641 9        57.795 9  24087143.202 9  94523091.954 9       922.719 9        57.655 9  24087143.202 9  94523091.954 9       922.719 9        57.655 9  24087142.998 9  96988912.564 9       946.790 9        57.655 9  24087142.998 9  96988912.564 9       946.790 9        57.655 9  24087143.098 9  95756002.262 9       934.754 9        60.665 9  24087143.098 9  95756002.262 9       934.754 9        60.665 9
> 2023 01 08 10 00  7.0000000  0 20       0.000000000000
G08  25067123.045 9 131728570.114 9     -1463.576 9        54.232 9  25067127.153 8 102645630.368 8     -1140.448 8        49.732 8  25067126.863 9  98368722.440 9     -1092.930 9        56.332 9
G13  20028104.380 9 105248377.885 9       586.559 9        56.112 9  20028103.415 8  82011708.488 8       457.059 8        51.612 8  20028105.965 9  78594561.681 9       438.015 9        58.212 9
G17  24974884.894 9 131243822.835 9      2909.086 9        54.182 9  24974887.841 8 102267884.075 8      2266.824 8        49.682 8  24974891.166 9  98006726.204 9      2172.373 9        56.282 9
G24  24534866.537 9 128931541.734 9      3538.291 9        54.410 9  24534870.288 8 100466125.494 8      2757.111 8        49.910 8  24534870.472 9  96280031.957 9      2642.231 9        56.510 9
G07  24593827.742 9 129241376.555 9     -2973.996 9        54.359 9  24593829.300 8 100707542.013 8     -2317.403 8        49.859 8  24593832.311 9  96511399.628 9     -2220.845 9        56.459 9
G18  24764852.061 9 130140130.460 9     -1341.143 9        54.337 9  24764853.236 8 101407875.741 8     -1045.047 8        49.837 8  24764855.495 9  97182551.479 9     -1001.503 9        56.437 9
G20  23510157.396 9 123546659.879 9     -3668.685 9        54.728 9  23510158.916 8  96270105.042 8     -2858.718 8        50.228 8  23510161.254 9  92258854.253 9     -2739.606 9        56.828 9
G14  20963786.456 9 110165416.891 9       124.749 9        55.781 9  20963786.428 8  85843169.532 8        97.207 8        51.281 8  20963788.305 9  82266375.489 9        93.157 9        57.881 9
G23  24873867.488 9 130713012.001 9      3258.297 9        54.289 9  24873868.564 8 101854277.346 8      2538.934 8        49.789 8  24873870.801 9  97610353.105 9      2433.146 9        56.389 9
G05  21739037.195 9 114239382.482 9     -2434.535 9        55.472 9  21739036.814 8  89017684.443 8     -1897.042 8        50.972 8  21739039.386 9  85308621.177 9     -1817.998 9        57.572 9
G30  21853593.622 9 114841380.760 9     -2261.087 9        55.477 9  21853596.120 8  89486785.891 8     -1761.887 8        50.977 8  21853595.799 9  85758165.401 9     -1688.475 9        57.577 9
G15  21121813.914 9 110995855.565 9      2312.939 9        55.709 9  21121813.419 8  86490262.077 8      1802.290 8        51.209 8  21121815.854 9  82886507.904 9      1727.195 9        57.809 9
E05  23314346.745 9 122517698.094 9       364.868 9        57.976 9  23314346.745 9 122517698.094 9       364.868 9        57.976 9  23314349.269 9  91490486.318 9       272.466 9        57.836 9  23314349.269 9  91490486.318 9       272.466 9        57.836 9  23314349.089 9  93877195.380 9       279.574 9        57.836 9  23314349.089 9  93877195.380 9       279.574 9        57.836 9  23314349.177 9  92683840.851 9       276.020 9        60.847 9  23314349.177 9  92683840.851 9       276.020 9        60.847 9
E09  25212243.687 9 132491202.780 9     -2110.576 9        57.367 9  25212243.687 9 132491202.780 9     -2110.576 9        57.367 9  25212246.603 9  98938228.309 9     -1576.081 9        57.227 9  25212246.603 9  98938228.309 9     -1576.081 9        57.227 9  25212246.329 9 101519226.674 9     -1617.196 9        57.227 9  25212246.329 9 101519226.674 9     -1617.196 9        57.227 9  25212246.463 9 100228727.495 9     -1596.638 9        60.237 9  25212246.463 9 100228727.495 9     -1596.638 9        60.237 9
E13  28148065.585 9 147919036.396 9       356.982 9        56.288 9  28148065.585 9 147919036.396 9       356.982 9        56.288 9  28148069.270 9 110459007.528 9       266.577 9        56.148 9  28148069.270 9 110459007.528 9       266.577 9        56.148 9  28148068.871 9 113340548.463 9       273.532 9        56.148 9  28148068.871 9 113340548.463 9       273.532 9        56.148 9  28148069.067 9 111899778.000 9       270.054 9        59.158 9  28148069.067 9 111899778.000 9       270.054 9        59.158 9
E25  27082377.328 9 142318802.771 9      3112.728 9        56.720 9  27082377.328 9 142318802.771 9      3112.728 9        56.720 9  27082382.204 9 106277017.166 9      2324.441 9        56.581 9  27082382.204 9 106277017.166 9      2324.441 9        56.581 9  27082381.770 9 109049462.840 9      2385.079 9        56.581 9  27082381.770 9 109049462.840 9      2385.079 9        56.581 9  27082381.983 9 107663240.009 9      2354.760 9        59.591 9  27082381.983 9 107663240.009 9      2354.760 9        59.591 9
E31  24965224.895 9 131193113.423 9     -1533.796 9        57.423 9  24965224.895 9 131193113.423 9     -1533.796 9        57.423 9  24965228.072 9  97968878.757 9     -1145.368 9        57.284 9  24965228.072 9  97968878.757 9     -1145.368 9        57.284 9  24965227.824 9 100524589.634 9     -1175.247 9        57.284 9  24965227.824 9 100524589.634 9     -1175.247 9        57.284 9  24965227.946 9  99246734.198 9     -1160.308 9        60.294 9  24965227.946 9  99246734.198 9     -1160.308 9        60.294 9
E15  27823540.961 9 146213648.026 9     -1836.138 9        56.363 9  27823540.961 9 146213648.026 9     -1836.138 9        56.363 9  27823546.082 9 109185508.887 9     -1371.143 9        56.224 9  27823546.082 9 109185508.887 9     -1371.143 9        56.224 9  27823545.683 9 112033828.116 9     -1406.912 9        56.224 9  27823545.683 9 112033828.116 9     -1406.912 9        56.224 9  27823545.879 9 110609668.507 9     -1389.027 9        59.234 9  27823545.879 9 110609668.507 9     -1389.027 9        59.234 9
E03  26328997.864 9 138359782.956 9      2483.985 9        56.971 9  26328997.864 9 138359782.956 9      2483.985 9        56.971 9  26329001.367 9 103320610.350 9      1854.925 9        56.831 9  26329001.367 9 103320610.350 9      1854.925 9        56.831 9  26329001.070 9 106015931.816 9      1903.314 9        56.831 9  26329001.070 9 106015931.816 9      1903.314 9        56.831 9  26329001.216 9 104668271.087 9      1879.119 9        59.842 9  26329001.216 9 104668271.087 9      1879.119 9        59.842 9
E24  24086907.095 9 126577527.339 9      1235.153 9        57.795 9  24086907.095 9 126577527.339 9      1235.153 9        57.795 9  24086908.115 9  94522169.423 9       922.355 9        57.655 9  24086908.115 9  94522169.423 9       922.355 9        57.655 9  24086907.911 9  96987965.967 9       946.416 9        57.655 9  24086907.911 9  96987965.967 9       946.416 9        57.655 9  24086908.011 9  95755067.697 9       934.386 9        60.665 9  24086908.011 9  95755067.697 9       934.386 9        60.665 9
> 2023 01 08 10 00  8.0000000  0 20       0.000000000000
G08  25067401.736 9 131730034.641 9     -1465.491 9        54.232 9  25067405.843 8 102646771.558 8     -1141.941 8        49.732 8  25067405.553 9  98369816.081 9     -1094.360 9        56.332 9
G13  20027992.798 9 105247791.514 9       586.183 9        56.112 9  20027991.832 8  82011251.576 8       456.766 8        51.612 8  20027994.383 9  78594123.806 9       437.734 9        58.212 9
G17  24974331.389 9 131240914.164 9      2908.299 9        54.182 9  24974334.336 8 102265617.582 8      2266.210 8        49.682 8  24974337.661 9  98004554.149 9      2171.785 9        56.282 9
G24  24534193.081 9 128928002.703 9      3539.775 9        54.411 9  24534196.832 8 100463367.809 8      2758.267 8        49.911 8  24534197.016 9  96277389.176 9      2643.340 9        56.511 9
G07  24594393.833 9 129244351.373 9     -2975.669 9        54.359 9  24594395.392 8 100709860.050 8     -2318.706 8        49.859 8  24594398.402 9  96513621.079 9     -2222.094 9        56.459 9
G18  24765107.239 9 130141471.426 9     -1340.801 9        54.337 9  24765108.414 8 101408920.649 8     -1044.780 8        49.837 8  24765110.673 9  97183552.849 9     -1001.248 9        56.437 9
G20  23510855.442 9 123550328.125 9     -3667.810 9        54.728 9  23510856.963 8  96272963.412 8     -2858.036 8        50.228 8  23510859.300 9  92261593.523 9     -2738.952 9        56.828 9
G14  20963762.843 9 110165292.804 9       123.430 9        55.781 9  20963762.815 8  85843072.841 8        96.179 8        51.281 8  20963764.692 9  82266282.826 9        92.172 9        57.881 9
G23  24873247.471 9 130709753.794 9      3258.110 9        54.289 9  24873248.547 8 101851738.485 8      2538.788 8        49.789 8  24873250.783 9  97607920.030 9      2433.006 9        56.389 9
G05  21739500.418 9 114241816.733 9     -2433.963 9        55.472 9  21739500.038 8  89019581.261 8     -1896.596 8        50.972 8  21739502.609 9  85310438.961 9     -1817.571 9        57.572 9
G30  21854024.029 9 114843642.560 9     -2262.525 9        55.477 9  21854026.528 8  89488548.332 8     -1763.007 8        50.977 8  21854026.207 9  85759854.406 9     -1689.549 9        57.577 9
G15  21121373.758 9 110993542.535 9      2313.119 9        55.709 9  21121373.264 8  86488459.716 8      1802.431 8        51.209 8  21121375.699 9  82884780.641 9      1727.330 9        57.809 9
E05  23314277.329 9 122517333.310 9       364.703 9        57.976 9  23314277.329 9 122517333.310 9       364.703 9        57.976 9  23314279.853 9  91490213.914 9       272.343 9        57.836 9  23314279.853 9  91490213.914 9       272.343 9        57.836 9  23314279.673 9  93876915.870 9       279.447 9        57.836 9  23314279.673 9  93876915.870 9       279.447 9        57.836 9  23314279.761 9  92683564.894 9       275.895 9        60.847 9  23314279.761 9  92683564.894 9       275.895 9        60.847 9
E09  25212645.394 9 132493313.761 9     -2111.385 9        57.366 9  25212645.394 9 132493313.761 9     -2111.385 9        57.366 9  25212648.311 9  98939804.689 9     -1576.685 9        57.227 9  25212648.311 9  98939804.689 9     -1576.685 9        57.227 9  25212648.036 9 101520844.178 9     -1617.816 9        57.227 9  25212648.036 9 101520844.178 9     -1617.816 9        57.227 9  25212648.171 9 100230324.437 9     -1597.251 9        60.237 9  25212648.171 9 100230324.437 9     -1597.251 9        60.237 9
E13  28147997.732 9 147918679.826 9       356.145 9        56.288 9  28147997.732 9 147918679.826 9       356.145 9        56.288 9  28148001.417 9 110458741.258 9       265.952 9        56.148 9  28148001.417 9 110458741.258 9       265.952 9        56.148 9  28148001.017 9 113340275.246 9       272.890 9        56.148 9  28148001.017 9 113340275.246 9       272.890 9        56.148 9  28148001.213 9 111899508.257 9       269.421 9        59.158 9  28148001.213 9 111899508.257 9       269.421 9        59.158 9
E25  27081784.896 9 142315689.528 9      3113.783 9        56.721 9  27081784.896 9 142315689.528 9      3113.783 9        56.721 9  27081789.772 9 106274692.344 9      2325.229 9        56.581 9  27081789.772 9 106274692.344 9      2325.229 9        56.581 9  27081789.338 9 109047077.370 9      2385.887 9        56.581 9  27081789.338 9 109047077.370 9      2385.887 9        56.581 9  27081789.551 9 107660884.862 9      2355.558 9        59.591 9  27081789.551 9 107660884.862 9      2355.558 9        59.591 9
E31  24965516.915 9 131194647.995 9     -1535.356 9        57.423 9  24965516.915 9 131194647.995 9     -1535.356 9        57.423 9  24965520.092 9  97970024.703 9     -1146.533 9        57.284 9  24965520.092 9  97970024.703 9     -1146.533 9        57.284 9  24965519.844 9 100525765.474 9     -1176.443 9        57.284 9  24965519.844 9 100525765.474 9     -1176.443 9        57.284 9  24965519.966 9  99247895.091 9     -1161.488 9        60.294 9  24965519.966 9  99247895.091 9     -1161.488 9        60.294 9
E15  27823890.306 9 146215483.846 9     -1835.513 9        56.363 9  27823890.306 9 146215483.846 9     -1835.513 9        56.363 9  27823895.428 9 109186879.790 9     -1370.676 9        56.223 9  27823895.428 9 109186879.790 9     -1370.676 9        56.223 9  27823895.029 9 112035234.783 9     -1406.433 9        56.223 9  27823895.029 9 112035234.783 9     -1406.433 9        56.223 9  27823895.225 9 110611057.292 9     -1388.555 9        59.234 9  27823895.225 9 110611057.292 9     -1388.555 9        59.234 9
E03  26328525.115 9 138357298.646 9      2484.628 9        56.971 9  26328525.115 9 138357298.646 9      2484.628 9        56.971 9  26328528.618 9 103318755.184 9      1855.405 9        56.832 9  26328528.618 9 103318755.184 9      1855.405 9        56.832 9  26328528.321 9 106014028.254 9      1903.806 9        56.832 9  26328528.321 9 106014028.254 9      1903.806 9        56.832 9  26328528.467 9 104666391.723 9      1879.606 9        59.842 9  26328528.467 9 104666391.723 9      1879.606 9        59.842 9
E24  24086672.096 9 126576292.411 9      1234.716 9        57.795 9  24086672.096 9 126576292.411 9      1234.716 9        57.795 9  24086673.115 9  94521247.236 9       922.028 9        57.655 9  24086673.115 9  94521247.236 9       922.028 9        57.655 9  24086672.912 9  96987019.723 9       946.081 9        57.655 9  24086672.912 9  96987019.723 9       946.081 9        57.655 9  24086673.012 9  95754133.482 9       934.055 9        60.665 9  24086673.012 9  95754133.482 9       934.055 9        60.665 9
> 2023 01 08 10 00  9.0000000  0 20       0.000000000000
G08  25067680.796 9 131731501.113 9     -1467.464 9        54.232 9  25067684.903 8 102647914.263 8     -1143.478 8        49.732 8  25067684.614 9  98370911.173 9     -1095.833 9        56.332 9
G13  20027881.289 9 105247205.533 9       585.779 9        56.112 9  20027880.324 8  82010794.967 8       456.451 8        51.612 8  20027882.874 9  78593686.223 9       437.433 9        58.212 9
G17  24973778.024 9 131238006.225 9      2907.626 9        54.183 9  24973780.970 8 102263351.658 8      2265.686 8        49.683 8  24973784.295 9  98002382.639 9      2171.283 9        56.283 9
G24  24533519.347 9 128924462.211 9      3541.211 9        54.411 9  24533523.097 8 100460608.985 8      2759.386 8        49.911 8  24533523.281 9  96274745.303 9      2644.412 9        56.511 9
G07  24594960.239 9 129247327.847 9     -2977.308 9        54.359 9  24594961.799 8 100712179.378 8     -2319.983 8        49.859 8  24594964.810 9  96515843.768 9     -2223.318 9        56.459 9
G18  24765362.362 9 130142812.103 9     -1340.569 9        54.337 9  24765363.537 8 101409965.331 8     -1044.600 8        49.837 8  24765365.796 9  97184554.003 9     -1001.075 9        56.437 9
G20  23511553.314 9 123553995.456 9     -3666.858 9        54.728 9  23511554.836 8  96275821.071 8     -2857.295 8        50.228 8  23511557.173 9  92264332.112 9     -2738.242 9        56.828 9
G14  20963739.477 9 110165170.015 9       122.153 9        55.781 9  20963739.450 8  85842977.162 8        95.184 8        51.281 8  20963741.326 9  82266191.133 9        91.218 9        57.881 9
G23  24872627.501 9 130706495.835 9      3257.801 9        54.289 9  24872628.576 8 101849199.817 8      2538.547 8        49.789 8  24872630.813 9  97605487.140 9      2432.775 9        56.389 9
G05  21739963.531 9 114244250.402 9     -2433.370 9        55.472 9  21739963.150 8  89021477.625 8     -1896.134 8        50.972 8  21739965.722 9  85312256.310 9     -1817.128 9        57.572 9
G30  21854454.708 9 114845905.789 9     -2263.944 9        55.477 9  21854457.207 8  89490311.886 8     -1764.113 8        50.977 8  21854456.886 9  85761544.479 9     -1690.609 9        57.577 9
G15  21120933.576 9 110991229.361 9      2313.223 9        55.709 9  21120933.081 8  86486657.244 8      1802.512 8        51.209 8  21120935.516 9  82883053.272 9      1727.407 9        57.809 9
E05  23314207.945 9 122516968.699 9       364.520 9        57.976 9  23314207.945 9 122516968.699 9       364.520 9        57.976 9  23314210.470 9  91489941.639 9       272.206 9        57.836 9  23314210.470 9  91489941.639 9       272.206 9        57.836 9  23314210.290 9  93876636.492 9       279.307 9        57.836 9  23314210.290 9  93876636.492 9       279.307 9        57.836 9  23314210.378 9  92683289.068 9       275.757 9        60.847 9  23314210.378 9  92683289.068 9       275.757 9        60.847 9
E09  25213047.247 9 132495425.509 9     -2112.110 9        57.366 9  25213047.247 9 132495425.509 9     -2112.110 9        57.366 9  25213050.164 9  98941381.643 9     -1577.227 9        57.226 9  25213050.164 9  98941381.643 9     -1577.227 9        57.226 9  25213049.890 9 101522462.269 9     -1618.372 9        57.226 9  25213049.890 9 101522462.269 9     -1618.372 9        57.226 9  25213050.024 9 100231921.960 9     -1597.799 9        60.237 9  25213050.024 9 100231921.960 9     -1597.799 9        60.237 9
E13  28147930.048 9 147918324.149 9       355.193 9        56.288 9  28147930.048 9 147918324.149 9       355.193 9        56.288 9  28147933.734 9 110458475.655 9       265.242 9        56.148 9  28147933.734 9 110458475.655 9       265.242 9        56.148 9  28147933.334 9 113340002.715 9       272.161 9        56.148 9  28147933.334 9 113340002.715 9       272.161 9        56.148 9  28147933.530 9 111899239.190 9       268.702 9        59.158 9  28147933.530 9 111899239.190 9       268.702 9        59.158 9
E25  27081192.258 9 142312575.197 9      3114.902 9        56.721 9  27081192.258 9 142312575.197 9      3114.902 9        56.721 9  27081197.133 9 106272366.709 9      2326.065 9        56.581 9  27081197.133 9 106272366.709 9      2326.065 9        56.581 9  27081196.699 9 109044691.066 9      2386.745 9        56.581 9  27081196.699 9 109044691.066 9      2386.745 9        56.581 9  27081196.912 9 107658528.893 9      2356.405 9        59.591 9  27081196.912 9 107658528.893 9      2356.405 9        59.591 9
E31  24965809.231 9 131196184.125 9     -1536.912 9        57.423 9  24965809.231 9 131196184.125 9     -1536.912 9        57.423 9  24965812.408 9  97971171.812 9     -1147.695 9        57.283 9  24965812.408 9  97971171.812 9     -1147.695 9        57.283 9  24965812.161 9 100526942.508 9     -1177.635 9        57.283 9  24965812.161 9 100526942.508 9     -1177.635 9        57.283 9  24965812.282 9  99249057.163 9     -1162.665 9        60.294 9  24965812.282 9  99249057.163 9     -1162.665 9        60.294 9
E15  27824239.543 9 146217319.093 9     -1834.996 9        56.363 9  27824239.543 9 146217319.093 9     -1834.996 9        56.363 9  27824244.665 9 109188250.266 9     -1370.290 9        56.223 9  27824244.665 9 109188250.266 9     -1370.290 9        56.223 9  27824244.266 9 112036641.010 9     -1406.036 9        56.223 9  27824244.266 9 112036641.010 9     -1406.036 9        56.223 9  27824244.461 9 110612445.643 9     -1388.163 9        59.234 9  27824244.461 9 110612445.643 9     -1388.163 9        59.234 9
E03  26328052.254 9 138354813.744 9      2485.168 9        56.972 9  26328052.254 9 138354813.744 9      2485.168 9        56.972 9  26328055.756 9 103316899.576 9      1855.808 9        56.832 9  26328055.756 9 103316899.576 9      1855.808 9        56.832 9  26328055.459 9 106012124.238 9      1904.220 9        56.832 9  26328055.459 9 106012124.238 9      1904.220 9        56.832 9  26328055.605 9 104664511.911 9      1880.014 9        59.842 9  26328055.605 9 104664511.911 9      1880.014 9        59.842 9
E24  24086437.175 9 126575057.894 9      1234.331 9        57.795 9  24086437.175 9 126575057.894 9      1234.331 9        57.795 9  24086438.194 9  94520325.357 9       921.741 9        57.655 9  24086438.194 9  94520325.357 9       921.741 9        57.655 9  24086437.991 9  96986073.795 9       945.786 9        57.655 9  24086437.991 9  96986073.795 9       945.786 9        57.655 9  24086438.091 9  95753199.578 9       933.764 9        60.665 9  24086438.091 9  95753199.578 9       933.764 9        60.665 9
> 2023 01 08 10 00 10.0000000  0 20       0.000000000000
G08  25067960.236 9 131732969.584 9     -1469.492 9        54.232 9  25067964.343 8 102649058.527 8     -1145.058 8        49.732 8  25067964.054 9  98372007.759 9     -1097.347 9        56.332 9
G13  20027769.859 9 105246619.962 9       585.349 9        56.112 9  20027768.893 8  82010338.678 8       456.116 8        51.612 8  20027771.444 9  78593248.946 9       437.111 9        58.212 9
G17  24973224.779 9 131235098.914 9      2907.044 9        54.183 9  24973227.724 8 102261086.224 8      2265.232 8        49.683 8  24973231.048 9  98000211.599 9      2170.848 9        56.283 9
G24  24532845.342 9 128920920.296 9      3542.615 9        54.411 9  24532849.092 8 100457849.053 8      2760.480 8        49.911 8  24532849.276 9  96272100.368 9      2645.460 9        56.511 9
G07  24595526.956 9 129250305.952 9     -2978.930 9        54.359 9  24595528.516 8 100714499.976 8     -2321.247 8        49.859 8  24595531.527 9  96518067.674 9     -2224.529 9        56.459 9
G18  24765617.448 9 130144152.589 9     -1340.424 9        54.337 9  24765618.623 8 101411009.866 8     -1044.487 8        49.837 8  24765620.883 9  97185555.015 9     -1000.966 9        56.437 9
G20  23512250.999 9 123557661.802 9     -3665.841 9        54.728 9  23512252.521 8  96278677.961 8     -2856.502 8        50.228 8  23512254.858 9  92267069.965 9     -2737.482 9        56.828 9
G14  20963716.351 9 110165048.485 9       120.904 9        55.781 9  20963716.323 8  85842882.463 8        94.211 8        51.281 8  20963718.200 9  82266100.380 9        90.285 9        57.881 9
G23  24872007.599 9 130703238.232 9      3257.392 9        54.289 9  24872008.673 8 101846661.427 8      2538.229 8        49.789 8  24872010.910 9  97603054.516 9      2432.470 9        56.389 9
G05  21740426.528 9 114246683.463 9     -2432.758 9        55.472 9  21740426.148 8  89023373.516 8     -1895.657 8        50.972 8  21740428.720 9  85314073.205 9     -1816.672 9        57.572 9
G30  21854885.656 9 114848170.432 9     -2265.358 9        55.477 9  21854888.155 8  89492076.542 8     -1765.215 8        50.977 8  21854887.834 9  85763235.607 9     -1691.665 9        57.577 9
G15  21120493.378 9 110988916.110 9      2313.262 9        55.709 9  21120492.883 8  86484854.711 8      1802.543 8        51.209 8  21120495.319 9  82881325.845 9      1727.437 9        57.809 9
E05  23314138.598 9 122516604.273 9       364.319 9        57.976 9  23314138.598 9 122516604.273 9       364.319 9        57.976 9  23314141.122 9  91489669.503 9       272.056 9        57.836 9  23314141.122 9  91489669.503 9       272.056 9        57.836 9  23314140.943 9  93876357.257 9       279.153 9        57.836 9  23314140.943 9  93876357.257 9       279.153 9        57.836 9  23314141.031 9  92683013.382 9       275.605 9        60.847 9  23314141.031 9  92683013.382 9       275.605 9        60.847 9
E09  25213449.232 9 132497537.949 9     -2112.773 9        57.366 9  25213449.232 9 132497537.949 9     -2112.773 9        57.366 9  25213452.149 9  98942959.113 9     -1577.721 9        57.226 9  25213452.149 9  98942959.113 9     -1577.721 9        57.226 9  25213451.875 9 101524080.891 9     -1618.879 9        57.226 9  25213451.875 9 101524080.891 9     -1618.879 9        57.226 9  25213452.009 9 100233520.005 9     -1598.300 9        60.237 9  25213452.009 9 100233520.005 9     -1598.300 9        60.237 9
E13  28147862.555 9 147917969.470 9       354.145 9        56.288 9  28147862.555 9 147917969.470 9       354.145 9        56.288 9  28147866.240 9 110458210.798 9       264.459 9        56.148 9  28147866.240 9 110458210.798 9       264.459 9        56.148 9  28147865.841 9 113339730.948 9       271.358 9        56.148 9  28147865.841 9 113339730.948 9       271.358 9        56.148 9  28147866.037 9 111898970.878 9       267.909 9        59.158 9  28147866.037 9 111898970.878 9       267.909 9        59.158 9
E25  27080599.401 9 142309459.717 9      3116.079 9        56.721 9  27080599.401 9 142309459.717 9      3116.079 9        56.721 9  27080604.275 9 106270040.216 9      2326.944 9        56.581 9  27080604.275 9 106270040.216 9      2326.944 9        56.581 9  27080603.841 9 109042303.881 9      2387.646 9        56.581 9  27080603.841 9 109042303.881 9      2387.646 9        56.581 9  27080604.054 9 107656172.054 9      2357.295 9        59.591 9  27080604.054 9 107656172.054 9      2357.295 9        59.591 9
E31  24966101.844 9 131197721.811 9     -1538.475 9        57.423 9  24966101.844 9 131197721.811 9     -1538.475 9        57.423 9  24966105.021 9  97972320.084 9     -1148.862 9        57.283 9  24966105.021 9  97972320.084 9     -1148.862 9        57.283 9  24966104.773 9 100528120.734 9     -1178.832 9        57.283 9  24966104.773 9 100528120.734 9     -1178.832 9        57.283 9  24966104.895 9  99250220.412 9     -1163.847 9        60.294 9  24966104.895 9  99250220.412 9     -1163.847 9        60.294 9
E15  27824588.688 9 146219153.861 9     -1834.560 9        56.363 9  27824588.688 9 146219153.861 9     -1834.560 9        56.363 9  27824593.810 9 109189620.385 9     -1369.965 9        56.223 9  27824593.810 9 109189620.385 9     -1369.965 9        56.223 9  27824593.411 9 112038046.871 9     -1405.703 9        56.223 9  27824593.411 9 112038046.871 9     -1405.703 9        56.223 9  27824593.607 9 110613833.633 9     -1387.834 9        59.234 9  27824593.607 9 110613833.633 9     -1387.834 9        59.234 9
E03  26327579.296 9 138352328.337 9      2485.626 9        56.972 9  26327579.296 9 138352328.337 9      2485.626 9        56.972 9  26327582.798 9 103315043.591 9      1856.150 9        56.832 9  26327582.798 9 103315043.591 9      1856.150 9        56.832 9  26327582.501 9 106010219.837 9      1904.571 9        56.832 9  26327582.501 9 106010219.837 9      1904.571 9        56.832 9  26327582.647 9 104662631.718 9      1880.361 9        59.842 9  26327582.647 9 104662631.718 9      1880.361 9        59.842 9
E24  24086202.323 9 126573823.737 9      1233.985 9        57.795 9  24086202.323 9 126573823.737 9      1233.985 9        57.795 9  24086203.342 9  94519403.746 9       921.482 9        57.655 9  24086203.342 9  94519403.746 9       921.482 9        57.655 9  24086203.138 9  96985128.142 9       945.521 9        57.655 9  24086203.138 9  96985128.142 9       945.521 9        57.655 9  24086203.238 9  95752265.947 9       933.502 9        60.665 9  24086203.238 9  95752265.947 9       933.502 9        60.665 9
> 2023 01 08 10 00 11.0000000  0 20       0.000000000000
G08  25068240.067 9 131734440.103 9     -1471.560 9        54.232 9  25068244.174 8 102650204.386 8     -1146.670 8        49.732 8  25068243.884 9  98373105.874 9     -1098.892 9        56.332 9
G13  20027658.510 9 105246034.823 9       584.916 9        56.112 9  20027657.545 8  82009882.726 8       455.779 8        51.612 8  20027660.096 9  78592811.992 9       436.788 9        58.212 9
G17  24972671.633 9 131232192.125 9      2906.578 9        54.183 9  24972674.577 8 102258821.198 8      2264.870 8        49.683 8  24972677.901 9  97998040.950 9      2170.501 9        56.283 9
G24  24532171.076 9 128917377.007 9      3543.963 9        54.411 9  24532174.826 8 100455088.050 8      2761.530 8        49.911 8  24532175.009 9  96269454.407 9      2646.467 9        56.511 9
G07  24596093.976 9 129253285.654 9     -2980.503 9        54.359 9  24596095.537 8 100716821.819 8     -2322.472 8        49.859 8  24596098.548 9  96520292.773 9     -2225.703 9        56.459 9
G18  24765872.518 9 130145492.986 9     -1340.386 9        54.337 9  24765873.693 8 101412054.330 8     -1044.458 8        49.837 8  24765875.952 9  97186555.959 9     -1000.939 9        56.437 9
G20  23512948.483 9 123561327.095 9     -3664.753 9        54.727 9  23512950.006 8  96281534.031 8     -2855.655 8        50.227 8  23512952.343 9  92269807.031 9     -2736.670 9        56.827 9
G14  20963693.456 9 110164928.171 9       119.721 9        55.781 9  20963693.428 8  85842788.712 8        93.289 8        51.281 8  20963695.305 9  82266010.536 9        89.402 9        57.881 9
G23  24871387.785 9 130699981.095 9      3256.871 9        54.290 9  24871388.860 8 101844123.400 8      2537.823 8        49.790 8  24871391.096 9  97600622.241 9      2432.081 9        56.390 9
G05  21740889.406 9 114249115.900 9     -2432.120 9        55.471 9  21740889.026 8  89025268.920 8     -1895.160 8        50.971 8  21740891.598 9  85315889.634 9     -1816.195 9        57.571 9
G30  21855316.869 9 114850436.466 9     -2266.728 9        55.477 9  21855319.368 8  89493842.282 8     -1766.283 8        50.977 8  21855319.047 9  85764927.775 9     -1692.688 9        57.577 9
G15  21120053.179 9 110986602.852 9      2313.242 9        55.710 9  21120052.684 8  86483052.172 8      1802.526 8        51.210 8  21120055.120 9  82879598.412 9      1727.421 9        57.810 9
E05  23314069.288 9 122516240.047 9       364.123 9        57.976 9  23314069.288 9 122516240.047 9       364.123 9        57.976 9  23314071.812 9  91489397.516 9       271.910 9        57.836 9  23314071.812 9  91489397.516 9       271.910 9        57.836 9  23314071.633 9  93876078.175 9       279.003 9        57.836 9  23314071.633 9  93876078.175 9       279.003 9        57.836 9  23314071.721 9  92682737.848 9       275.456 9        60.847 9  23314071.721 9  92682737.848 9       275.456 9        60.847 9
E09  25213851.333 9 132499651.000 9     -2113.335 9        57.366 9  25213851.333 9 132499651.000 9     -2113.335 9        57.366 9  25213854.251 9  98944537.039 9     -1578.141 9        57.226 9  25213854.251 9  98944537.039 9     -1578.141 9        57.226 9  25213853.976 9 101525699.980 9     -1619.310 9        57.226 9  25213853.976 9 101525699.980 9     -1619.310 9        57.226 9  25213854.111 9 100235118.513 9     -1598.726 9        60.236 9  25213854.111 9 100235118.513 9     -1598.726 9        60.236 9
E13  28147795.271 9 147917615.892 9       352.994 9        56.288 9  28147795.271 9 147917615.892 9       352.994 9        56.288 9  28147798.956 9 110457946.762 9       263.599 9        56.148 9  28147798.956 9 110457946.762 9       263.599 9        56.148 9  28147798.557 9 113339460.025 9       270.476 9        56.148 9  28147798.557 9 113339460.025 9       270.476 9        56.148 9  28147798.753 9 111898703.399 9       267.038 9        59.158 9  28147798.753 9 111898703.399 9       267.038 9        59.158 9
E25  27080006.314 9 142306343.031 9      3117.314 9        56.721 9  27080006.314 9 142306343.031 9      3117.314 9        56.721 9  27080011.188 9 106267712.822 9      2327.866 9        56.581 9  27080011.188 9 106267712.822 9      2327.866 9        56.581 9  27080010.754 9 109039915.773 9      2388.593 9        56.581 9  27080010.754 9 109039915.773 9      2388.593 9        56.581 9  27080010.967 9 107653814.303 9      2358.229 9        59.592 9  27080010.967 9 107653814.303 9      2358.229 9        59.592 9
E31  24966394.751 9 131199261.044 9     -1540.007 9        57.423 9  24966394.751 9 131199261.044 9     -1540.007 9        57.423 9  24966397.928 9  97973469.510 9     -1150.006 9        57.283 9  24966397.928 9  97973469.510 9     -1150.006 9        57.283 9  24966397.680 9 100529300.146 9     -1180.006 9        57.283 9  24966397.680 9 100529300.146 9     -1180.006 9        57.283 9  24966397.802 9  99251384.831 9     -1165.006 9        60.293 9  24966397.802 9  99251384.831 9     -1165.006 9        60.293 9
E15  27824937.761 9 146220988.250 9     -1834.232 9        56.363 9  27824937.761 9 146220988.250 9     -1834.232 9        56.363 9  27824942.884 9 109190990.219 9     -1369.719 9        56.223 9  27824942.884 9 109190990.219 9     -1369.719 9        56.223 9  27824942.485 9 112039452.441 9     -1405.451 9        56.223 9  27824942.485 9 112039452.441 9     -1405.451 9        56.223 9  27824942.680 9 110615221.335 9     -1387.585 9        59.233 9  27824942.680 9 110615221.335 9     -1387.585 9        59.233 9
E03  26327106.261 9 138349842.522 9      2485.991 9        56.972 9  26327106.261 9 138349842.522 9      2485.991 9        56.972 9  26327109.763 9 103313187.301 9      1856.423 9        56.832 9  26327109.763 9 103313187.301 9      1856.423 9        56.832 9  26327109.466 9 106008315.121 9      1904.851 9        56.832 9  26327109.466 9 106008315.121 9      1904.851 9        56.832 9  26327109.611 9 104660751.215 9      1880.637 9        59.842 9  26327109.611 9 104660751.215 9      1880.637 9        59.842 9
E24  24085967.530 9 126572589.891 9      1233.709 9        57.795 9  24085967.530 9 126572589.891 9      1233.709 9        57.795 9  24085968.549 9  94518482.368 9       921.277 9        57.655 9  24085968.549 9  94518482.368 9       921.277 9        57.655 9  24085968.345 9  96984182.728 9       945.310 9        57.655 9  24085968.345 9  96984182.728 9       945.310 9        57.655 9  24085968.445 9  95751332.551 9       933.293 9        60.666 9  24085968.445 9  95751332.551 9       933.293 9        60.666 9
> 2023 01 08 10 00 12.0000000  0 20       0.000000000000
G08  25068520.294 9 131735912.711 9     -1473.658 9        54.232 9  25068524.401 8 102651351.873 8     -1148.305 8        49.732 8  25068524.112 9  98374205.549 9     -1100.459 9        56.332 9
G13  20027547.249 9 105245450.139 9       584.459 9        56.112 9  20027546.284 8  82009427.127 8       455.423 8        51.612 8  20027548.834 9  78592375.376 9       436.447 9        58.212 9
G17  24972118.566 9 131229285.752 9      2906.217 9        54.183 9  24972121.510 8 102256556.495 8      2264.588 8        49.683 8  24972124.833 9  97995870.610 9      2170.231 9        56.283 9
G24  24531496.558 9 128913832.397 9      3545.251 9        54.412 9  24531500.307 8 100452326.017 8      2762.534 8        49.912 8  24531500.491 9  96266807.459 9      2647.429 9        56.512 9
G07  24596661.292 9 129256266.911 9     -2982.028 9        54.358 9  24596662.854 8 100719144.874 8     -2323.661 8        49.858 8  24596665.866 9  96522519.033 9     -2226.842 9        56.458 9
G18  24766127.590 9 130146833.396 9     -1340.451 9        54.336 9  24766128.765 8 101413098.804 8     -1044.508 8        49.836 8  24766131.025 9  97187556.914 9     -1000.987 9        56.436 9
G20  23513645.755 9 123564991.274 9     -3663.615 9        54.727 9  23513647.278 8  96284389.232 8     -2854.767 8        50.227 8  23513649.616 9  92272543.265 9     -2735.819 9        56.827 9
G14  20963670.784 9 110164809.028 9       118.582 9        55.781 9  20963670.756 8  85842695.873 8        92.401 8        51.281 8  20963672.633 9  82265921.565 9        88.551 9        57.881 9
G23  24870768.081 9 130696724.533 9      3256.248 9        54.290 9  24870769.155 8 101841585.819 8      2537.338 8        49.790 8  24870771.391 9  97598190.393 9      2431.616 9        56.390 9
G05  21741352.163 9 114251547.699 9     -2431.478 9        55.471 9  21741351.783 8  89027163.827 8     -1894.659 8        50.971 8  21741354.355 9  85317705.587 9     -1815.715 9        57.571 9
G30  21855748.342 9 114852703.866 9     -2268.068 9        55.476 9  21855750.841 8  89495609.086 8     -1767.327 8        50.976 8  21855750.520 9  85766620.962 9     -1693.688 9        57.576 9
G15  21119612.992 9 110984289.654 9      2313.150 9        55.710 9  21119612.497 8  86481249.681 8      1802.455 8        51.210 8  21119614.932 9  82877871.025 9      1727.353 9        57.810 9
E05  23314000.019 9 122515876.034 9       363.910 9        57.976 9  23314000.019 9 122515876.034 9       363.910 9        57.976 9  23314002.543 9  91489125.688 9       271.751 9        57.836 9  23314002.543 9  91489125.688 9       271.751 9        57.836 9  23314002.363 9  93875799.255 9       278.840 9        57.836 9  23314002.363 9  93875799.255 9       278.840 9        57.836 9  23314002.452 9  92682462.474 9       275.296 9        60.847 9  23314002.452 9  92682462.474 9       275.296 9        60.847 9
E09  25214253.535 9 132501764.581 9     -2113.820 9        57.366 9  25214253.535 9 132501764.581 9     -2113.820 9        57.366 9  25214256.453 9  98946115.362 9     -1578.503 9        57.226 9  25214256.453 9  98946115.362 9     -1578.503 9        57.226 9  25214256.178 9 101527319.477 9     -1619.682 9        57.226 9  25214256.178 9 101527319.477 9     -1619.682 9        57.226 9  25214256.313 9 100236717.423 9     -1599.092 9        60.236 9  25214256.313 9 100236717.423 9     -1599.092 9        60.236 9
E13  28147728.216 9 147917263.514 9       351.752 9        56.288 9  28147728.216 9 147917263.514 9       351.752 9        56.288 9  28147731.901 9 110457683.623 9       262.672 9        56.148 9  28147731.901 9 110457683.623 9       262.672 9        56.148 9  28147731.502 9 113339190.021 9       269.524 9        56.148 9  28147731.502 9 113339190.021 9       269.524 9        56.148 9  28147731.697 9 111898436.827 9       266.098 9        59.158 9  28147731.697 9 111898436.827 9       266.098 9        59.158 9
E25  27079412.988 9 142303225.089 9      3118.587 9        56.721 9  27079412.988 9 142303225.089 9      3118.587 9        56.721 9  27079417.861 9 106265384.491 9      2328.817 9        56.581 9  27079417.861 9 106265384.491 9      2328.817 9        56.581 9  27079417.428 9 109037526.702 9      2389.569 9        56.581 9  27079417.428 9 109037526.702 9      2389.569 9        56.581 9  27079417.640 9 107651455.602 9      2359.193 9        59.592 9  27079417.640 9 107651455.602 9      2359.193 9        59.592 9
E31  24966687.949 9 131200801.810 9     -1541.520 9        57.423 9  24966687.949 9 131200801.810 9     -1541.520 9        57.423 9  24966691.127 9  97974620.082 9     -1151.136 9        57.283 9  24966691.127 9  97974620.082 9     -1151.136 9        57.283 9  24966690.879 9 100530480.733 9     -1181.166 9        57.283 9  24966690.879 9 100530480.733 9     -1181.166 9        57.283 9  24966691.000 9  99252550.410 9     -1166.151 9        60.293 9  24966691.000 9  99252550.410 9     -1166.151 9        60.293 9
E15  27825286.781 9 146222822.358 9     -1834.003 9        56.363 9  27825286.781 9 146222822.358 9     -1834.003 9        56.363 9  27825291.904 9 109192359.845 9     -1369.549 9        56.223 9  27825291.904 9 109192359.845 9     -1369.549 9        56.223 9  27825291.505 9 112040857.795 9     -1405.276 9        56.223 9  27825291.505 9 112040857.795 9     -1405.276 9        56.223 9  27825291.700 9 110616608.825 9     -1387.412 9        59.233 9  27825291.700 9 110616608.825 9     -1387.412 9        59.233 9
E03  26326633.165 9 138347356.390 9      2486.262 9        56.972 9  26326633.165 9 138347356.390 9      2486.262 9        56.972 9  26326636.667 9 103311330.775 9      1856.625 9        56.832 9  26326636.667 9 103311330.775 9      1856.625 9        56.832 9  26326636.370 9 106006410.164 9      1905.059 9        56.832 9  26326636.370 9 106006410.164 9      1905.059 9        56.832 9  26326636.516 9 104658870.473 9      1880.842 9        59.842 9  26326636.516 9 104658870.473 9      1880.842 9        59.842 9
E24  24085732.786 9 126571356.307 9      1233.478 9        57.795 9  24085732.786 9 126571356.307 9      1233.478 9        57.795 9  24085733.805 9  94517561.185 9       921.104 9        57.655 9  24085733.805 9  94517561.185 9       921.104 9        57.655 9  24085733.602 9  96983237.514 9       945.133 9        57.655 9  24085733.602 9  96983237.514 9       945.133 9        57.655 9  24085733.701 9  95750399.352 9       933.118 9        60.666 9  24085733.701 9  95750399.352 9       933.118 9        60.666 9
> 2023 01 08 10 00 13.0000000  0 20       0.000000000000
G08  25068800.926 9 131737387.441 9     -1475.802 9        54.232 9  25068805.033 8 102652501.013 8     -1149.975 8        49.732 8  25068804.744 9  98375306.809 9     -1102.060 9        56.332 9
G13  20027436.077 9 105244865.929 9       583.964 9        56.112 9  20027435.112 8  82008971.899 8       455.037 8        51.612 8  20027437.663 9  78591939.116 9       436.077 9        58.212 9
G17  24971565.557 9 131226379.687 9      2905.963 9        54.183 9  24971568.500 8 102254292.032 8      2264.390 8        49.683 8  24971571.824 9  97993700.500 9      2170.041 9        56.283 9
G24  24530821.800 9 128910286.526 9      3546.483 9        54.412 9  24530825.549 8 100449563.001 8      2763.494 8        49.912 8  24530825.733 9  96264159.569 9      2648.349 9        56.512 9
G07  24597228.896 9 129259249.675 9     -2983.515 9        54.358 9  24597230.458 8 100721469.103 8     -2324.820 8        49.858 8  24597233.470 9  96524746.418 9     -2227.953 9        56.458 9
G18  24766382.684 9 130148173.923 9     -1340.622 9        54.336 9  24766383.860 8 101414143.371 8     -1044.642 8        49.836 8  24766386.119 9  97188557.957 9     -1001.115 9        56.436 9
G20  23514342.804 9 123568654.284 9     -3662.419 9        54.727 9  23514344.329 8  96287243.523 8     -2853.836 8        50.227 8  23514346.667 9  92275278.626 9     -2734.926 9        56.827 9
G14  20963648.326 9 110164691.009 9       117.473 9        55.781 9  20963648.298 8  85842603.910 8        91.537 8        51.281 8  20963650.174 9  82265833.433 9        87.723 9        57.881 9
G23  24870148.506 9 130693468.649 9      3255.513 9        54.290 9  24870149.579 8 101839048.769 8      2536.765 8        49.790 8  24870151.816 9  97595759.054 9      2431.067 9        56.390 9
G05  21741814.797 9 114253978.854 9     -2430.834 9        55.471 9  21741814.417 8  89029058.233 8     -1894.157 8        50.971 8  21741816.990 9  85319521.058 9     -1815.234 9        57.571 9
G30  21856180.068 9 114854972.598 9     -2269.394 9        55.476 9  21856182.567 8  89497376.928 8     -1768.360 8        50.976 8  21856182.247 9  85768315.144 9     -1694.678 9        57.576 9
G15  21119172.830 9 110981976.590 9      2312.975 9        55.710 9  21119172.335 8  86479447.294 8      1802.318 8        51.210 8  21119174.770 9  82876143.737 9      1727.222 9        57.810 9
E05  23313930.792 9 122515512.248 9       363.668 9        57.976 9  23313930.792 9 122515512.248 9       363.668 9        57.976 9  23313933.317 9  91488854.029 9       271.570 9        57.836 9  23313933.317 9  91488854.029 9       271.570 9        57.836 9  23313933.137 9  93875520.510 9       278.654 9        57.836 9  23313933.137 9  93875520.510 9       278.654 9        57.836 9  23313933.225 9  92682187.272 9       275.112 9        60.847 9  23313933.225 9  92682187.272 9       275.112 9        60.847 9
E09  25214655.822 9 132503878.613 9     -2114.235 9        57.366 9  25214655.822 9 132503878.613 9     -2114.235 9        57.366 9  25214658.741 9  98947694.020 9     -1578.813 9        57.226 9  25214658.741 9  98947694.020 9     -1578.813 9        57.226 9  25214658.466 9 101528939.318 9     -1620.000 9        57.226 9  25214658.466 9 101528939.318 9     -1620.000 9        57.226 9  25214658.601 9 100238316.673 9     -1599.406 9        60.236 9  25214658.601 9 100238316.673 9     -1599.406 9        60.236 9
E13  28147661.407 9 147916912.430 9       350.407 9        56.288 9  28147661.407 9 147916912.430 9       350.407 9        56.288 9  28147665.092 9 110457421.450 9       261.668 9        56.148 9  28147665.092 9 110457421.450 9       261.668 9        56.148 9  28147664.692 9 113338921.009 9       268.494 9        56.148 9  28147664.692 9 113338921.009 9       268.494 9        56.148 9  28147664.888 9 111898171.235 9       265.081 9        59.158 9  28147664.888 9 111898171.235 9       265.081 9        59.158 9
E25  27078819.415 9 142300105.849 9      3119.907 9        56.722 9  27078819.415 9 142300105.849 9      3119.907 9        56.722 9  27078824.288 9 106263055.190 9      2329.802 9        56.582 9  27078824.288 9 106263055.190 9      2329.802 9        56.582 9  27078823.855 9 109035136.637 9      2390.580 9        56.582 9  27078823.855 9 109035136.637 9      2390.580 9        56.582 9  27078824.067 9 107649095.919 9      2360.191 9        59.592 9  27078824.067 9 107649095.919 9      2360.191 9        59.592 9
E31  24966981.435 9 131202344.090 9     -1543.033 9        57.423 9  24966981.435 9 131202344.090 9     -1543.033 9        57.423 9  24966984.613 9  97975771.783 9     -1152.265 9        57.283 9  24966984.613 9  97975771.783 9     -1152.265 9        57.283 9  24966984.366 9 100531662.478 9     -1182.324 9        57.283 9  24966984.366 9 100531662.478 9     -1182.324 9        57.283 9  24966984.487 9  99253717.134 9     -1167.295 9        60.293 9  24966984.487 9  99253717.134 9     -1167.295 9        60.293 9
E15  27825635.767 9 146224656.289 9     -1833.878 9        56.363 9  27825635.767 9 146224656.289 9     -1833.878 9        56.363 9  27825640.890 9 109193729.338 9     -1369.455 9        56.223 9  27825640.890 9 109193729.338 9     -1369.455 9        56.223 9  27825640.491 9 112042263.015 9     -1405.180 9        56.223 9  27825640.491 9 112042263.015 9     -1405.180 9        56.223 9  27825640.687 9 110617996.181 9     -1387.318 9        59.233 9  27825640.687 9 110617996.181 9     -1387.318 9        59.233 9
E03  26326160.028 9 138344870.039 9      2486.430 9        56.972 9  26326160.028 9 138344870.039 9      2486.430 9        56.972 9  26326163.529 9 103309474.084 9      1856.750 9        56.832 9  26326163.529 9 103309474.084 9      1856.750 9        56.832 9  26326163.233 9 106004505.038 9      1905.187 9        56.832 9  26326163.233 9 106004505.038 9      1905.187 9        56.832 9  26326163.378 9 104656989.565 9      1880.969 9        59.843 9  26326163.378 9 104656989.565 9      1880.969 9        59.843 9
E24  24085498.083 9 126570122.935 9      1233.281 9        57.795 9  24085498.083 9 126570122.935 9      1233.281 9        57.795 9  24085499.102 9  94516640.161 9       920.957 9        57.655 9  24085499.102 9  94516640.161 9       920.957 9        57.655 9  24085498.899 9  96982292.463 9       944.982 9        57.655 9  24085498.899 9  96982292.463 9       944.982 9        57.655 9  24085498.998 9  95749466.315 9       932.969 9        60.666 9  24085498.998 9  95749466.315 9       932.969 9        60.666 9
> 2023 01 08 10 00 14.0000000  0 20       0.000000000000
G08  25069081.967 9 131738864.321 9     -1477.960 9        54.232 9  25069086.074 8 102653651.829 8     -1151.657 8        49.732 8  25069085.785 9  98376409.674 9     -1103.671 9        56.332 9
G13  20027325.001 9 105244282.217 9       583.445 9        56.112 9  20027324.036 8  82008517.058 8       454.633 8        51.612 8  20027326.586 9  78591503.227 9       435.690 9        58.212 9
G17  24971012.587 9 131223473.819 9      2905.813 9        54.183 9  24971015.529 8 102252027.723 8      2264.273 8        49.683 8  24971018.852 9  97991530.538 9      2169.929 9        56.283 9
G24  24530146.815 9 128906739.460 9      3547.643 9        54.412 9  24530150.564 8 100446799.055 8      2764.398 8        49.912 8  24530150.747 9  96261510.788 9      2649.215 9        56.512 9
G07  24597796.775 9 129262233.892 9     -2984.942 9        54.358 9  24597798.339 8 100723794.464 8     -2325.932 8        49.858 8  24597801.350 9  96526974.889 9     -2229.018 9        56.458 9
G18  24766637.821 9 130149514.676 9     -1340.897 9        54.336 9  24766638.997 8 101415188.113 8     -1044.856 8        49.836 8  24766641.257 9  97189559.167 9     -1001.320 9        56.436 9
G20  23515039.622 9 123572316.076 9     -3661.188 9        54.727 9  23515041.147 8  96290096.865 8     -2852.876 8        50.227 8  23515043.486 9  92278013.079 9     -2734.007 9        56.827 9
G14  20963626.072 9 110164574.064 9       116.411 9        55.781 9  20963626.044 8  85842512.784 8        90.710 8        51.281 8  20963627.921 9  82265746.104 9        86.930 9        57.881 9
G23  24869529.080 9 130690213.550 9      3254.683 9        54.290 9  24869530.153 8 101836512.329 8      2536.118 8        49.790 8  24869532.389 9  97593328.299 9      2430.446 9        56.390 9
G05  21742277.308 9 114256409.363 9     -2430.199 9        55.471 9  21742276.929 8  89030952.135 8     -1893.662 8        50.971 8  21742279.501 9  85321336.047 9     -1814.760 9        57.571 9
G30  21856612.041 9 114857242.628 9     -2270.680 9        55.476 9  21856614.540 8  89499145.781 8     -1769.362 8        50.976 8  21856614.220 9  85770010.294 9     -1695.639 9        57.576 9
G15  21118732.708 9 110979663.732 9      2312.727 9        55.710 9  21118732.213 8  86477645.067 8      1802.125 8        51.210 8  21118734.648 9  82874416.604 9      1727.037 9        57.810 9
E05  23313861.612 9 122515148.703 9       363.408 9        57.976 9  23313861.612 9 122515148.703 9       363.408 9        57.976 9  23313864.137 9  91488582.551 9       271.376 9        57.836 9  23313864.137 9  91488582.551 9       271.376 9        57.836 9  23313863.957 9  93875241.949 9       278.455 9        57.836 9  23313863.957 9  93875241.949 9       278.455 9        57.836 9  23313864.045 9  92681912.252 9       274.915 9        60.847 9  23313864.045 9  92681912.252 9       274.915 9        60.847 9
E09  25215058.180 9 132505993.011 9     -2114.573 9        57.366 9  25215058.180 9 132505993.011 9     -2114.573 9        57.366 9  25215061.099 9  98949272.953 9     -1579.066 9        57.226 9  25215061.099 9  98949272.953 9     -1579.066 9        57.226 9  25215060.824 9 101530559.440 9     -1620.259 9        57.226 9  25215060.824 9 101530559.440 9     -1620.259 9        57.226 9  25215060.959 9 100239916.200 9     -1599.662 9        60.236 9  25215060.959 9 100239916.200 9     -1599.662 9        60.236 9
E13  28147594.861 9 147916562.732 9       348.982 9        56.288 9  28147594.861 9 147916562.732 9       348.982 9        56.288 9  28147598.546 9 110457160.312 9       260.604 9        56.148 9  28147598.546 9 110457160.312 9       260.604 9        56.148 9  28147598.147 9 113338653.059 9       267.402 9        56.148 9  28147598.147 9 113338653.059 9       267.402 9        56.148 9  28147598.343 9 111897906.691 9       264.003 9        59.158 9  28147598.343 9 111897906.691 9       264.003 9        59.158 9
E25  27078225.588 9 142296985.275 9      3121.250 9        56.722 9  27078225.588 9 142296985.275 9      3121.250 9        56.722 9  27078230.461 9 106260724.893 9      2330.805 9        56.582 9  27078230.461 9 106260724.893 9      2330.805 9        56.582 9  27078230.028 9 109032745.549 9      2391.608 9        56.582 9  27078230.028 9 109032745.549 9      2391.608 9        56.582 9  27078230.240 9 107646735.227 9      2361.207 9        59.592 9  27078230.240 9 107646735.227 9      2361.207 9        59.592 9
E31  24967275.205 9 131203887.858 9     -1544.516 9        57.423 9  24967275.205 9 131203887.858 9     -1544.516 9        57.423 9  24967278.383 9  97976924.596 9     -1153.373 9        57.283 9  24967278.383 9  97976924.596 9     -1153.373 9        57.283 9  24967278.136 9 100532845.365 9     -1183.461 9        57.283 9  24967278.136 9 100532845.365 9     -1183.461 9        57.283 9  24967278.257 9  99254884.984 9     -1168.417 9        60.293 9  24967278.257 9  99254884.984 9     -1168.417 9        60.293 9
E15  27825984.740 9 146226490.150 9     -1833.857 9        56.363 9  27825984.740 9 146226490.150 9     -1833.857 9        56.363 9  27825989.863 9 109195098.778 9     -1369.439 9        56.223 9  27825989.863 9 109195098.778 9     -1369.439 9        56.223 9  27825989.464 9 112043668.180 9     -1405.164 9        56.223 9  27825989.464 9 112043668.180 9     -1405.164 9        56.223 9  27825989.660 9 110619383.484 9     -1387.301 9        59.233 9  27825989.660 9 110619383.484 9     -1387.301 9        59.233 9
E03  26325686.867 9 138342383.566 9      2486.503 9        56.972 9  26325686.867 9 138342383.566 9      2486.503 9        56.972 9  26325690.369 9 103307617.303 9      1856.805 9        56.832 9  26325690.369 9 103307617.303 9      1856.805 9        56.832 9  26325690.072 9 106002599.819 9      1905.243 9        56.832 9  26325690.072 9 106002599.819 9      1905.243 9        56.832 9  26325690.217 9 104655108.565 9      1881.024 9        59.843 9  26325690.217 9 104655108.565 9      1881.024 9        59.843 9
E24  24085263.412 9 126568889.730 9      1233.124 9        57.795 9  24085263.412 9 126568889.730 9      1233.124 9        57.795 9  24085264.431 9  94515719.261 9       920.840 9        57.656 9  24085264.431 9  94515719.261 9       920.840 9        57.656 9  24085264.227 9  96981347.540 9       944.862 9        57.656 9  24085264.227 9  96981347.540 9       944.862 9        57.656 9  24085264.327 9  95748533.403 9       932.851 9        60.666 9  24085264.327 9  95748533.403 9       932.851 9        60.666 9
> 2023 01 08 10 00 15.0000000  0 20       0.000000000000
G08  25069363.420 9 131740343.368 9     -1480.133 9        54.232 9  25069367.527 8 102654804.333 8     -1153.350 8        49.732 8  25069367.238 9  98377514.158 9     -1105.294 9        56.332 9
G13  20027214.023 9 105243699.024 9       582.928 9        56.112 9  20027213.058 8  82008062.622 8       454.230 8        51.612 8  20027215.608 9  78591067.726 9       435.304 9        58.212 9
G17  24970459.633 9 131220568.040 9      2905.787 9        54.184 9  24970462.574 8 102249763.482 8      2264.253 8        49.684 8  24970465.897 9  97989360.642 9      2169.910 9        56.284 9
G24  24529471.616 9 128903191.272 9      3548.724 9        54.412 9  24529475.365 8 100444034.234 8      2765.241 8        49.912 8  24529475.549 9  96258861.168 9      2650.022 9        56.512 9
G07  24598364.920 9 129265219.499 9     -2986.294 9        54.358 9  24598366.484 8 100726120.908 8     -2326.985 8        49.858 8  24598369.495 9  96529204.398 9     -2230.028 9        56.458 9
G18  24766893.022 9 130150855.762 9     -1341.288 9        54.336 9  24766894.198 8 101416233.114 8     -1045.161 8        49.836 8  24766896.458 9  97190560.627 9     -1001.612 9        56.436 9
G20  23515736.201 9 123575976.610 9     -3659.904 9        54.726 9  23515737.727 8  96292949.226 8     -2851.876 8        50.226 8  23515740.065 9  92280746.591 9     -2733.049 9        56.826 9
G14  20963604.013 9 110164458.142 9       115.428 9        55.781 9  20963603.985 8  85842422.455 8        89.944 8        51.281 8  20963605.862 9  82265659.540 9        86.196 9        57.881 9
G23  24868909.822 9 130686959.336 9      3253.744 9        54.291 9  24868910.896 8 101833976.580 8      2535.387 8        49.791 8  24868913.132 9  97590898.206 9      2429.746 9        56.391 9
G05  21742739.697 9 114258839.230 9     -2429.552 9        55.471 9  21742739.318 8  89032845.536 8     -1893.158 8        50.971 8  21742741.890 9  85323150.557 9     -1814.277 9        57.571 9
G30  21857044.253 9 114859513.911 9     -2271.900 9        55.476 9  21857046.752 8  89500915.612 8     -1770.312 8        50.976 8  21857046.432 9  85771706.382 9     -1696.550 9        57.576 9
G15  21118292.639 9 110977351.154 9      2312.416 9        55.710 9  21118292.143 8  86475843.059 8      1801.883 8        51.210 8  21118294.578 9  82872689.679 9      1726.805 9        57.810 9
E05  23313792.481 9 122514785.414 9       363.157 9        57.976 9  23313792.481 9 122514785.414 9       363.157 9        57.976 9  23313795.005 9  91488311.264 9       271.188 9        57.836 9  23313795.005 9  91488311.264 9       271.188 9        57.836 9  23313794.826 9  93874963.585 9       278.263 9        57.836 9  23313794.826 9  93874963.585 9       278.263 9        57.836 9  23313794.914 9  92681637.427 9       274.725 9        60.847 9  23313794.914 9  92681637.427 9       274.725 9        60.847 9
E09  25215460.591 9 132508107.693 9     -2114.802 9        57.365 9  25215460.591 9 132508107.693 9     -2114.802 9        57.365 9  25215463.510 9  98950852.097 9     -1579.237 9        57.226 9  25215463.510 9  98950852.097 9     -1579.237 9        57.226 9  25215463.236 9 101532179.780 9     -1620.434 9        57.226 9  25215463.236 9 101532179.780 9     -1620.434 9        57.226 9  25215463.370 9 100241515.942 9     -1599.835 9        60.236 9  25215463.370 9 100241515.942 9     -1599.835 9        60.236 9
E13  28147528.596 9 147916214.506 9       347.465 9        56.288 9  28147528.596 9 147916214.506 9       347.465 9        56.288 9  28147532.281 9 110456900.274 9       259.471 9        56.148 9  28147532.281 9 110456900.274 9       259.471 9        56.148 9  28147531.882 9 113338386.236 9       266.240 9        56.148 9  28147531.882 9 113338386.236 9       266.240 9        56.148 9  28147532.077 9 111897643.260 9       262.855 9        59.158 9  28147532.077 9 111897643.260 9       262.855 9        59.158 9
E25  27077631.502 9 142293863.338 9      3122.630 9        56.722 9  27077631.502 9 142293863.338 9      3122.630 9        56.722 9  27077636.375 9 106258393.578 9      2331.836 9        56.582 9  27077636.375 9 106258393.578 9      2331.836 9        56.582 9  27077635.941 9 109030353.417 9      2392.666 9        56.582 9  27077635.941 9 109030353.417 9      2392.666 9        56.582 9  27077636.154 9 107644373.503 9      2362.251 9        59.592 9  27077636.154 9 107644373.503 9      2362.251 9        59.592 9
E31  24967569.253 9 131205433.085 9     -1545.946 9        57.423 9  24967569.253 9 131205433.085 9     -1545.946 9        57.423 9  24967572.431 9  97978078.499 9     -1154.441 9        57.283 9  24967572.431 9  97978078.499 9     -1154.441 9        57.283 9  24967572.183 9 100534029.369 9     -1184.556 9        57.283 9  24967572.183 9 100534029.369 9     -1184.556 9        57.283 9  24967572.304 9  99256053.937 9     -1169.499 9        60.293 9  24967572.304 9  99256053.937 9     -1169.499 9        60.293 9
E15  27826333.719 9 146228324.046 9     -1833.951 9        56.363 9  27826333.719 9 146228324.046 9     -1833.951 9        56.363 9  27826338.843 9 109196468.245 9     -1369.510 9        56.223 9  27826338.843 9 109196468.245 9     -1369.510 9        56.223 9  27826338.444 9 112045073.372 9     -1405.236 9        56.223 9  27826338.444 9 112045073.372 9     -1405.236 9        56.223 9  27826338.639 9 110620770.814 9     -1387.373 9        59.233 9  27826338.639 9 110620770.814 9     -1387.373 9        59.233 9
E03  26325213.702 9 138339897.069 9      2486.478 9        56.972 9  26325213.702 9 138339897.069 9      2486.478 9        56.972 9  26325217.204 9 103305760.504 9      1856.786 9        56.833 9  26325217.204 9 103305760.504 9      1856.786 9        56.833 9  26325216.907 9 106000694.582 9      1905.224 9        56.833 9  26325216.907 9 106000694.582 9      1905.224 9        56.833 9  26325217.052 9 104653227.547 9      1881.005 9        59.843 9  26325217.052 9 104653227.547 9      1881.005 9        59.843 9
E24  24085028.764 9 126567656.645 9      1233.040 9        57.796 9  24085028.764 9 126567656.645 9      1233.040 9        57.796 9  24085029.782 9  94514798.451 9       920.777 9        57.656 9  24085029.782 9  94514798.451 9       920.777 9        57.656 9  24085029.579 9  96980402.709 9       944.797 9        57.656 9  24085029.579 9  96980402.709 9       944.797 9        57.656 9  24085029.679 9  95747600.583 9       932.787 9        60.666 9  24085029.679 9  95747600.583 9       932.787 9        60.666 9
> 2023 01 08 10 00 16.0000000  0 20       0.000000000000
G08  25069645.288 9 131741824.595 9     -1482.315 9        54.232 9  25069649.395 8 102655958.536 8     -1155.051 8        49.732 8  25069649.106 9  98378620.269 9     -1106.924 9        56.332 9
G13  20027103.148 9 105243116.371 9       582.374 9        56.113 9  20027102.183 8  82007608.606 8       453.798 8        51.613 8  20027104.733 9  78590632.627 9       434.890 9        58.213 9
G17  24969906.675 9 131217662.239 9      2905.861 9        54.184 9  24969909.615 8 102247499.226 8      2264.311 8        49.684 8  24969912.938 9  97987190.730 9      2169.965 9        56.284 9
G24  24528796.219 9 128899642.039 9      3549.728 9        54.413 9  24528799.967 8 100441268.599 8      2766.023 8        49.913 8  24528800.151 9  96256210.768 9      2650.772 9        56.513 9
G07  24598933.316 9 129268206.432 9     -2987.583 9        54.358 9  24598934.881 8 100728448.385 8     -2327.990 8        49.858 8  24598937.893 9  96531434.896 9     -2230.991 9        56.458 9
G18  24767148.307 9 130152197.288 9     -1341.783 9        54.336 9  24767149.483 8 101417278.458 8     -1045.546 8        49.836 8  24767151.742 9  97191562.415 9     -1001.982 9        56.436 9
G20  23516432.533 9 123579635.850 9     -3658.597 9        54.726 9  23516434.059 8  96295800.579 8     -2850.857 8        50.226 8  23516436.398 9  92283479.137 9     -2732.072 9        56.826 9
G14  20963582.139 9 110164343.192 9       114.480 9        55.781 9  20963582.111 8  85842332.884 8        89.205 8        51.281 8  20963583.987 9  82265573.700 9        85.488 9        57.881 9
G23  24868290.752 9 130683706.105 9      3252.713 9        54.291 9  24868291.825 8 101831441.596 8      2534.583 8        49.791 8  24868294.061 9  97588468.847 9      2428.976 9        56.391 9
G05  21743201.966 9 114261268.463 9     -2428.929 9        55.471 9  21743201.587 8  89034738.445 8     -1892.673 8        50.971 8  21743204.159 9  85324964.594 9     -1813.812 9        57.571 9
G30  21857476.694 9 114861786.405 9     -2273.088 9        55.476 9  21857479.194 8  89502686.385 8     -1771.238 8        50.976 8  21857478.874 9  85773403.372 9     -1697.437 9        57.576 9
G15  21117852.636 9 110975038.929 9      2312.023 9        55.711 9  21117852.141 8  86474041.325 8      1801.577 8        51.211 8  21117854.576 9  82870963.018 9      1726.511 9        57.811 9
E05  23313723.401 9 122514422.397 9       362.874 9        57.976 9  23313723.401 9 122514422.397 9       362.874 9        57.976 9  23313725.926 9  91488040.179 9       270.977 9        57.836 9  23313725.926 9  91488040.179 9       270.977 9        57.836 9  23313725.746 9  93874685.429 9       278.046 9        57.836 9  23313725.746 9  93874685.429 9       278.046 9        57.836 9  23313725.834 9  92681362.806 9       274.511 9        60.847 9  23313725.834 9  92681362.806 9       274.511 9        60.847 9
E09  25215863.041 9 132510222.577 9     -2114.966 9        57.365 9  25215863.041 9 132510222.577 9     -2114.966 9        57.365 9  25215865.961 9  98952431.393 9     -1579.359 9        57.225 9  25215865.961 9  98952431.393 9     -1579.359 9        57.225 9  25215865.686 9 101533800.275 9     -1620.560 9        57.225 9  25215865.686 9 101533800.275 9     -1620.560 9        57.225 9  25215865.821 9 100243115.837 9     -1599.959 9        60.236 9  25215865.821 9 100243115.837 9     -1599.959 9        60.236 9
E13  28147462.626 9 147915867.834 9       345.873 9        56.288 9  28147462.626 9 147915867.834 9       345.873 9        56.288 9  28147466.311 9 110456641.395 9       258.282 9        56.148 9  28147466.311 9 110456641.395 9       258.282 9        56.148 9  28147465.912 9 113338120.605 9       265.020 9        56.148 9  28147465.912 9 113338120.605 9       265.020 9        56.148 9  28147466.108 9 111897381.005 9       261.651 9        59.158 9  28147466.108 9 111897381.005 9       261.651 9        59.158 9
E25  27077037.153 9 142290740.015 9      3124.022 9        56.722 9  27077037.153 9 142290740.015 9      3124.022 9        56.722 9  27077042.024 9 106256061.229 9      2332.875 9        56.582 9  27077042.024 9 106256061.229 9      2332.875 9        56.582 9  27077041.591 9 109027960.223 9      2393.733 9        56.582 9  27077041.591 9 109027960.223 9      2393.733 9        56.582 9  27077041.804 9 107642010.731 9      2363.304 9        59.593 9  27077041.804 9 107642010.731 9      2363.304 9        59.593 9
E31  24967863.571 9 131206979.736 9     -1547.354 9        57.423 9  24967863.571 9 131206979.736 9     -1547.354 9        57.423 9  24967866.749 9  97979233.465 9     -1155.492 9        57.283 9  24967866.749 9  97979233.465 9     -1155.492 9        57.283 9  24967866.502 9 100535214.465 9     -1185.636 9        57.283 9  24967866.502 9 100535214.465 9     -1185.636 9        57.283 9  24967866.623 9  99257223.968 9     -1170.564 9        60.293 9  24967866.623 9  99257223.968 9     -1170.564 9        60.293 9
E15  27826682.726 9 146230158.086 9     -1834.149 9        56.362 9  27826682.726 9 146230158.086 9     -1834.149 9        56.362 9  27826687.850 9 109197837.820 9     -1369.657 9        56.223 9  27826687.850 9 109197837.820 9     -1369.657 9        56.223 9  27826687.451 9 112046478.675 9     -1405.387 9        56.223 9  27826687.451 9 112046478.675 9     -1405.387 9        56.223 9  27826687.646 9 110622158.252 9     -1387.522 9        59.233 9  27826687.646 9 110622158.252 9     -1387.522 9        59.233 9
E03  26324740.551 9 138337410.646 9      2486.354 9        56.973 9  26324740.551 9 138337410.646 9      2486.354 9        56.973 9  26324744.052 9 103303903.761 9      1856.693 9        56.833 9  26324744.052 9 103303903.761 9      1856.693 9        56.833 9  26324743.756 9 105998789.402 9      1905.129 9        56.833 9  26324743.756 9 105998789.402 9      1905.129 9        56.833 9  26324743.901 9 104651346.585 9      1880.911 9        59.843 9  26324743.901 9 104651346.585 9      1880.911 9        59.843 9
E24  24084794.130 9 126566423.638 9      1232.981 9        57.796 9  24084794.130 9 126566423.638 9      1232.981 9        57.796 9  24084795.149 9  94513877.699 9       920.732 9        57.656 9  24084795.149 9  94513877.699 9       920.732 9        57.656 9  24084794.945 9  96979457.937 9       944.752 9        57.656 9  24084794.945 9  96979457.937 9       944.752 9        57.656 9  24084795.045 9  95746667.821 9       932.742 9        60.666 9  24084795.045 9  95746667.821 9       932.742 9        60.666 9
> 2023 01 08 10 00 17.0000000  0 20       0.000000000000
G08  25069927.571 9 131743308.004 9     -1484.499 9        54.231 9  25069931.678 8 102657114.439 8     -1156.753 8        49.731 8  25069931.389 9  98379728.009 9     -1108.554 9        56.331 9
G13  20026992.379 9 105242534.278 9       581.809 9        56.113 9  20026991.414 8  82007155.027 8       453.357 8        51.613 8  20026993.964 9  78590197.947 9       434.467 9        58.213 9
G17  24969353.692 9 131214756.310 9      2906.047 9        54.184 9  24969356.632 8 102245234.868 8      2264.456 8        49.684 8  24969359.954 9  97985020.722 9      2170.104 9        56.284 9
G24  24528120.639 9 128896091.845 9      3550.647 9        54.413 9  24528124.387 8 100438502.215 8      2766.739 8        49.913 8  24528124.570 9  96253559.651 9      2651.459 9        56.513 9
G07  24599501.950 9 129271194.614 9     -2988.795 9        54.357 9  24599503.516 8 100730776.837 8     -2328.934 8        49.857 8  24599506.528 9  96533666.328 9     -2231.896 9        56.457 9
G18  24767403.696 9 130153539.363 9     -1342.387 9        54.336 9  24767404.872 8 101418324.230 8     -1046.017 8        49.836 8  24767407.131 9  97192564.613 9     -1002.433 9        56.436 9
G20  23517128.614 9 123583293.769 9     -3657.259 9        54.726 9  23517130.141 8  96298650.903 8     -2849.815 8        50.226 8  23517132.480 9  92286210.696 9     -2731.073 9        56.826 9
G14  20963560.439 9 110164229.160 9       113.595 9        55.781 9  20963560.411 8  85842244.027 8        88.515 8        51.281 8  20963562.288 9  82265488.546 9        84.827 9        57.881 9
G23  24867671.887 9 130680453.952 9      3251.587 9        54.291 9  24867672.959 8 101828907.452 8      2533.706 8        49.791 8  24867675.195 9  97586040.293 9      2428.135 9        56.391 9
G05  21743664.117 9 114263697.080 9     -2428.315 9        55.470 9  21743663.739 8  89036630.872 8     -1892.194 8        50.970 8  21743666.311 9  85326778.170 9     -1813.353 9        57.570 9
G30  21857909.357 9 114864060.056 9     -2274.217 9        55.476 9  21857911.857 8  89504458.060 8     -1772.118 8        50.976 8  21857911.537 9  85775101.228 9     -1698.280 9        57.576 9
G15  21117412.716 9 110972727.131 9      2311.562 9        55.711 9  21117412.220 8  86472239.925 8      1801.217 8        51.211 8  21117414.655 9  82869236.676 9      1726.167 9        57.811 9
E05  23313654.376 9 122514059.666 9       362.585 9        57.976 9  23313654.376 9 122514059.666 9       362.585 9        57.976 9  23313656.900 9  91487769.309 9       270.761 9        57.836 9  23313656.900 9  91487769.309 9       270.761 9        57.836 9  23313656.721 9  93874407.492 9       277.825 9        57.836 9  23313656.721 9  93874407.492 9       277.825 9        57.836 9  23313656.809 9  92681088.403 9       274.293 9        60.847 9  23313656.809 9  92681088.403 9       274.293 9        60.847 9
E09  25216265.514 9 132512337.581 9     -2115.040 9        57.365 9  25216265.514 9 132512337.581 9     -2115.040 9        57.365 9  25216268.433 9  98954010.777 9     -1579.414 9        57.225 9  25216268.433 9  98954010.777 9     -1579.414 9        57.225 9  25216268.159 9 101535420.861 9     -1620.616 9        57.225 9  25216268.159 9 101535420.861 9     -1620.616 9        57.225 9  25216268.293 9 100244715.822 9     -1600.015 9        60.236 9  25216268.293 9 100244715.822 9     -1600.015 9        60.236 9
E13  28147396.967 9 147915522.791 9       344.204 9        56.288 9  28147396.967 9 147915522.791 9       344.204 9        56.288 9  28147400.652 9 110456383.734 9       257.036 9        56.148 9  28147400.652 9 110456383.734 9       257.036 9        56.148 9  28147400.252 9 113337856.221 9       263.741 9        56.148 9  28147400.252 9 113337856.221 9       263.741 9        56.148 9  28147400.448 9 111897119.983 9       260.389 9        59.158 9  28147400.448 9 111897119.983 9       260.389 9        59.158 9
E25  27076442.537 9 142287615.293 9      3125.431 9        56.722 9  27076442.537 9 142287615.293 9      3125.431 9        56.722 9  27076447.408 9 106253727.834 9      2333.927 9        56.582 9  27076447.408 9 106253727.834 9      2333.927 9        56.582 9  27076446.975 9 109025565.958 9      2394.812 9        56.582 9  27076446.975 9 109025565.958 9      2394.812 9        56.582 9  27076447.187 9 107639646.902 9      2364.370 9        59.593 9  27076447.187 9 107639646.902 9      2364.370 9        59.593 9
E31  24968158.153 9 131208527.771 9     -1548.714 9        57.422 9  24968158.153 9 131208527.771 9     -1548.714 9        57.422 9  24968161.331 9  97980389.464 9     -1156.508 9        57.283 9  24968161.331 9  97980389.464 9     -1156.508 9        57.283 9  24968161.083 9 100536400.621 9     -1186.677 9        57.283 9  24968161.083 9 100536400.621 9     -1186.677 9        57.283 9  24968161.205 9  99258395.046 9     -1171.593 9        60.293 9  24968161.205 9  99258395.046 9     -1171.593 9        60.293 9
E15  27827031.781 9 146231992.379 9     -1834.456 9        56.362 9  27827031.781 9 146231992.379 9     -1834.456 9        56.362 9  27827036.905 9 109199207.583 9     -1369.887 9        56.222 9  27827036.905 9 109199207.583 9     -1369.887 9        56.222 9  27827036.506 9 112047884.171 9     -1405.623 9        56.222 9  27827036.506 9 112047884.171 9     -1405.623 9        56.222 9  27827036.701 9 110623545.882 9     -1387.755 9        59.233 9  27827036.701 9 110623545.882 9     -1387.755 9        59.233 9
E03  26324267.433 9 138334924.395 9      2486.134 9        56.973 9  26324267.433 9 138334924.395 9      2486.134 9        56.973 9  26324270.934 9 103302047.146 9      1856.529 9        56.833 9  26324270.934 9 103302047.146 9      1856.529 9        56.833 9  26324270.637 9 105996884.353 9      1904.960 9        56.833 9  26324270.637 9 105996884.353 9      1904.960 9        56.833 9  26324270.783 9 104649465.753 9      1880.745 9        59.843 9  26324270.783 9 104649465.753 9      1880.745 9        59.843 9
E24  24084559.503 9 126565190.665 9      1232.972 9        57.796 9  24084559.503 9 126565190.665 9      1232.972 9        57.796 9  24084560.522 9  94512956.973 9       920.726 9        57.656 9  24084560.522 9  94512956.973 9       920.726 9        57.656 9  24084560.318 9  96978513.192 9       944.745 9        57.656 9  24084560.318 9  96978513.192 9       944.745 9        57.656 9  24084560.418 9  95745735.086 9       932.735 9        60.666 9  24084560.418 9  95745735.086 9       932.735 9        60.666 9
> 2023 01 08 10 00 18.0000000  0 20       0.000000000000
G08  25070210.269 9 131744793.591 9     -1486.668 9        54.231 9  25070214.376 8 102658272.040 8     -1158.443 8        49.731 8  25070214.086 9  98380837.376 9     -1110.174 9        56.331 9
G13  20026881.721 9 105241952.764 9       581.211 9        56.113 9  20026880.756 8  82006701.900 8       452.891 8        51.613 8  20026883.306 9  78589763.700 9       434.021 9        58.213 9
G17  24968800.664 9 131211850.144 9      2906.333 9        54.184 9  24968803.603 8 102242970.327 8      2264.678 8        49.684 8  24968806.926 9  97982850.537 9      2170.317 9        56.284 9
G24  24527444.892 9 128892540.776 9      3551.472 9        54.413 9  24527448.640 8 100435735.150 8      2767.382 8        49.913 8  24527448.823 9  96250907.880 9      2652.075 9        56.513 9
G07  24600070.808 9 129274183.969 9     -2989.925 9        54.357 9  24600072.374 8 100733106.201 8     -2329.815 8        49.857 8  24600075.386 9  96535898.635 9     -2232.740 9        56.457 9
G18  24767659.209 9 130154882.094 9     -1343.096 9        54.336 9  24767660.386 8 101419370.514 8     -1046.569 8        49.836 8  24767662.645 9  97193567.301 9     -1002.962 9        56.436 9
G20  23517824.439 9 123586950.345 9     -3655.917 9        54.726 9  23517825.967 8  96301500.180 8     -2848.770 8        50.226 8  23517828.306 9  92288941.254 9     -2730.071 9        56.826 9
G14  20963538.903 9 110164115.990 9       112.752 9        55.781 9  20963538.876 8  85842155.842 8        87.859 8        51.281 8  20963540.752 9  82265404.036 9        84.198 9        57.881 9
G23  24867053.244 9 130677202.967 9      3250.379 9        54.291 9  24867054.316 8 101826374.218 8      2532.765 8        49.791 8  24867056.552 9  97583612.611 9      2427.233 9        56.391 9
G05  21744126.154 9 114266125.098 9     -2427.739 9        55.470 9  21744125.776 8  89038522.834 8     -1891.745 8        50.970 8  21744128.348 9  85328591.300 9     -1812.923 9        57.570 9
G30  21858342.229 9 114866334.812 9     -2275.296 9        55.475 9  21858344.730 8  89506230.597 8     -1772.959 8        50.975 8  21858344.409 9  85776799.908 9     -1699.086 9        57.575 9
G15  21116972.890 9 110970415.834 9      2311.019 9        55.711 9  21116972.394 8  86470438.915 8      1800.795 8        51.211 8  21116974.829 9  82867510.708 9      1725.762 9        57.811 9
E05  23313585.408 9 122513697.237 9       362.268 9        57.976 9  23313585.408 9 122513697.237 9       362.268 9        57.976 9  23313587.932 9  91487498.663 9       270.524 9        57.837 9  23313587.932 9  91487498.663 9       270.524 9        57.837 9  23313587.753 9  93874129.786 9       277.582 9        57.837 9  23313587.753 9  93874129.786 9       277.582 9        57.837 9  23313587.841 9  92680814.227 9       274.053 9        60.847 9  23313587.841 9  92680814.227 9       274.053 9        60.847 9
E09  25216667.994 9 132514452.623 9     -2115.046 9        57.365 9  25216667.994 9 132514452.623 9     -2115.046 9        57.365 9  25216670.914 9  98955590.191 9     -1579.419 9        57.225 9  25216670.914 9  98955590.191 9     -1579.419 9        57.225 9  25216670.639 9 101537041.476 9     -1620.621 9        57.225 9  25216670.639 9 101537041.476 9     -1620.621 9        57.225 9  25216670.774 9 100246315.837 9     -1600.020 9        60.235 9  25216670.774 9 100246315.837 9     -1600.020 9        60.235 9
E13  28147331.631 9 147915179.448 9       342.476 9        56.288 9  28147331.631 9 147915179.448 9       342.476 9        56.288 9  28147335.315 9 110456127.341 9       255.746 9        56.148 9  28147335.315 9 110456127.341 9       255.746 9        56.148 9  28147334.916 9 113337593.140 9       262.417 9        56.148 9  28147334.916 9 113337593.140 9       262.417 9        56.148 9  28147335.112 9 111896860.246 9       259.081 9        59.159 9  28147335.112 9 111896860.246 9       259.081 9        59.159 9
E25  27075847.653 9 142284489.165 9      3126.830 9        56.722 9  27075847.653 9 142284489.165 9      3126.830 9        56.722 9  27075852.524 9 106251393.390 9      2334.972 9        56.583 9  27075852.524 9 106251393.390 9      2334.972 9        56.583 9  27075852.091 9 109023170.614 9      2395.884 9        56.583 9  27075852.091 9 109023170.614 9      2395.884 9        56.583 9  27075852.303 9 107637282.008 9      2365.428 9        59.593 9  27075852.303 9 107637282.008 9      2365.428 9        59.593 9
E31  24968452.989 9 131210077.145 9     -1550.033 9        57.422 9  24968452.989 9 131210077.145 9     -1550.033 9        57.422 9  24968456.168 9  97981546.464 9     -1157.493 9        57.282 9  24968456.168 9  97981546.464 9     -1157.493 9        57.282 9  24968455.920 9 100537587.803 9     -1187.688 9        57.282 9  24968455.920 9 100537587.803 9     -1187.688 9        57.282 9  24968456.042 9  99259567.136 9     -1172.590 9        60.293 9  24968456.042 9  99259567.136 9     -1172.590 9        60.293 9
E15  27827380.904 9 146233827.031 9     -1834.870 9        56.362 9  27827380.904 9 146233827.031 9     -1834.870 9        56.362 9  27827386.029 9 109200577.615 9     -1370.196 9        56.222 9  27827386.029 9 109200577.615 9     -1370.196 9        56.222 9  27827385.629 9 112049289.943 9     -1405.940 9        56.222 9  27827385.629 9 112049289.943 9     -1405.940 9        56.222 9  27827385.825 9 110624933.784 9     -1388.068 9        59.233 9  27827385.825 9 110624933.784 9     -1388.068 9        59.233 9
E03  26323794.366 9 138332438.413 9      2485.815 9        56.973 9  26323794.366 9 138332438.413 9      2485.815 9        56.973 9  26323797.867 9 103300190.731 9      1856.291 9        56.833 9  26323797.867 9 103300190.731 9      1856.291 9        56.833 9  26323797.570 9 105994979.510 9      1904.716 9        56.833 9  26323797.570 9 105994979.510 9      1904.716 9        56.833 9  26323797.715 9 104647585.124 9      1880.504 9        59.843 9  26323797.715 9 104647585.124 9      1880.504 9        59.843 9
E24  24084324.875 9 126563957.688 9      1232.986 9        57.796 9  24084324.875 9 126563957.688 9      1232.986 9        57.796 9  24084325.894 9  94512036.244 9       920.736 9        57.656 9  24084325.894 9  94512036.244 9       920.736 9        57.656 9  24084325.690 9  96977568.444 9       944.756 9        57.656 9  24084325.690 9  96977568.444 9       944.756 9        57.656 9  24084325.790 9  95744802.347 9       932.746 9        60.666 9  24084325.790 9  95744802.347 9       932.746 9        60.666 9
> 2023 01 08 10 00 19.0000000  0 20       0.000000000000
G08  25070493.379 9 131746281.344 9     -1488.834 9        54.231 9  25070497.486 8 102659431.329 8     -1160.130 8        49.731 8  25070497.196 9  98381948.361 9     -1111.791 9        56.331 9
G13  20026771.177 9 105241371.852 9       580.607 9        56.113 9  20026770.212 8  82006249.241 8       452.421 8        51.613 8  20026772.762 9  78589329.902 9       433.570 9        58.213 9
G17  24968247.572 9 131208943.637 9      2906.728 9        54.184 9  24968250.510 8 102240705.519 8      2264.986 8        49.684 8  24968253.832 9  97980680.097 9      2170.612 9        56.284 9
G24  24526768.996 9 128888988.926 9      3552.214 9        54.413 9  24526772.744 8 100432967.476 8      2767.960 8        49.913 8  24526772.927 9  96248255.526 9      2652.628 9        56.513 9
G07  24600639.873 9 129277174.413 9     -2990.976 9        54.357 9  24600641.439 8 100735436.415 8     -2330.633 8        49.857 8  24600644.451 9  96538131.756 9     -2233.524 9        56.457 9
G18  24767914.868 9 130156225.587 9     -1343.910 9        54.336 9  24767916.045 8 101420417.391 8     -1047.203 8        49.836 8  24767918.304 9  97194570.558 9     -1003.570 9        56.436 9
G20  23518520.007 9 123590605.566 9     -3654.548 9        54.725 9  23518521.535 8  96304348.402 8     -2847.702 8        50.225 8  23518523.874 9  92291670.799 9     -2729.049 9        56.825 9
G14  20963517.522 9 110164003.628 9       111.977 9        55.781 9  20963517.494 8  85842068.288 8        87.254 8        51.281 8  20963519.371 9  82265320.129 9        83.619 9        57.881 9
G23  24866434.839 9 130673953.234 9      3249.082 9        54.291 9  24866435.911 8 101823841.961 8      2531.753 8        49.791 8  24866438.147 9  97581185.864 9      2426.264 9        56.391 9
G05  21744588.083 9 114268552.545 9     -2427.171 9        55.470 9  21744587.705 8  89040414.350 8     -1891.303 8        50.970 8  21744590.277 9  85330404.002 9     -1812.499 9        57.570 9
G30  21858775.301 9 114868610.615 9     -2276.313 9        55.475 9  21858777.802 8  89508003.948 8     -1773.751 8        50.975 8  21858777.481 9  85778499.370 9     -1699.845 9        57.575 9
G15  21116533.174 9 110968105.110 9      2310.415 9        55.711 9  21116532.678 8  86468638.352 8      1800.323 8        51.211 8  21116535.113 9  82865785.168 9      1725.310 9        57.811 9
E05  23313516.500 9 122513335.124 9       361.950 9        57.976 9  23313516.500 9 122513335.124 9       361.950 9        57.976 9  23313519.025 9  91487228.254 9       270.287 9        57.837 9  23313519.025 9  91487228.254 9       270.287 9        57.837 9  23313518.845 9  93873852.324 9       277.338 9        57.837 9  23313518.845 9  93873852.324 9       277.338 9        57.837 9  23313518.933 9  92680540.291 9       273.813 9        60.847 9  23313518.933 9  92680540.291 9       273.813 9        60.847 9
E09  25217070.466 9 132516567.625 9     -2114.961 9        57.365 9  25217070.466 9 132516567.625 9     -2114.961 9        57.365 9  25217073.386 9  98957169.574 9     -1579.355 9        57.225 9  25217073.386 9  98957169.574 9     -1579.355 9        57.225 9  25217073.112 9 101538662.061 9     -1620.555 9        57.225 9  25217073.112 9 101538662.061 9     -1620.555 9        57.225 9  25217073.246 9 100247915.821 9     -1599.955 9        60.235 9  25217073.246 9 100247915.821 9     -1599.955 9        60.235 9
E13  28147266.630 9 147914837.868 9       340.678 9        56.288 9  28147266.630 9 147914837.868 9       340.678 9        56.288 9  28147270.315 9 110455872.265 9       254.402 9        56.148 9  28147270.315 9 110455872.265 9       254.402 9        56.148 9  28147269.915 9 113337331.410 9       261.039 9        56.148 9  28147269.915 9 113337331.410 9       261.039 9        56.148 9  28147270.111 9 111896601.843 9       257.721 9        59.159 9  28147270.111 9 111896601.843 9       257.721 9        59.159 9
E25  27075252.502 9 142281361.631 9      3128.243 9        56.723 9  27075252.502 9 142281361.631 9      3128.243 9        56.723 9  27075257.372 9 106249057.895 9      2336.028 9        56.583 9  27075257.372 9 106249057.895 9      2336.028 9        56.583 9  27075256.939 9 109020774.194 9      2396.967 9        56.583 9  27075256.939 9 109020774.194 9      2396.967 9        56.583 9  27075257.152 9 107634916.050 9      2366.497 9        59.593 9  27075257.152 9 107634916.050 9      2366.497 9        59.593 9
E31  24968748.071 9 131211627.811 9     -1551.298 9        57.422 9  24968748.071 9 131211627.811 9     -1551.298 9        57.422 9  24968751.250 9  97982704.427 9     -1158.438 9        57.282 9  24968751.250 9  97982704.427 9     -1158.438 9        57.282 9  24968751.003 9 100538775.975 9     -1188.658 9        57.282 9  24968751.003 9 100538775.975 9     -1188.658 9        57.282 9  24968751.124 9  99260740.204 9     -1173.548 9        60.293 9  24968751.124 9  99260740.204 9     -1173.548 9        60.293 9
E15  27827730.117 9 146235662.152 9     -1835.391 9        56.362 9  27827730.117 9 146235662.152 9     -1835.391 9        56.362 9  27827735.241 9 109201947.996 9     -1370.585 9        56.222 9  27827735.241 9 109201947.996 9     -1370.585 9        56.222 9  27827734.842 9 112050696.073 9     -1406.339 9        56.222 9  27827734.842 9 112050696.073 9     -1406.339 9        56.222 9  27827735.038 9 110626322.040 9     -1388.462 9        59.233 9  27827735.038 9 110626322.040 9     -1388.462 9        59.233 9
E03  26323321.368 9 138329952.795 9      2485.406 9        56.973 9  26323321.368 9 138329952.795 9      2485.406 9        56.973 9  26323324.869 9 103298334.588 9      1855.986 9        56.833 9  26323324.869 9 103298334.588 9      1855.986 9        56.833 9  26323324.572 9 105993074.946 9      1904.402 9        56.833 9  26323324.572 9 105993074.946 9      1904.402 9        56.833 9  26323324.717 9 104645704.771 9      1880.194 9        59.844 9  26323324.717 9 104645704.771 9      1880.194 9        59.844 9
E24  24084090.239 9 126562724.670 9      1233.053 9        57.796 9  24084090.239 9 126562724.670 9      1233.053 9        57.796 9  24084091.258 9  94511115.484 9       920.787 9        57.656 9  24084091.258 9  94511115.484 9       920.787 9        57.656 9  24084091.055 9  96976623.664 9       944.807 9        57.656 9  24084091.055 9  96976623.664 9       944.807 9        57.656 9  24084091.154 9  95743869.577 9       932.797 9        60.666 9  24084091.154 9  95743869.577 9       932.797 9        60.666 9
> 2023 01 08 10 00 20.0000000  0 20       0.000000000000
G08  25070776.897 9 131747771.244 9     -1490.966 9        54.231 9  25070781.004 8 102660592.290 8     -1161.792 8        49.731 8  25070780.715 9  98383060.949 9     -1113.383 9        56.331 9
G13  20026660.750 9 105240791.556 9       579.972 9        56.113 9  20026659.786 8  82005797.063 8       451.926 8        51.613 8  20026662.336 9  78588896.564 9       433.096 9        58.213 9
G17  24967694.395 9 131206036.686 9      2907.212 9        54.185 9  24967697.332 8 102238440.366 8      2265.364 8        49.685 8  24967700.654 9  97978509.326 9      2170.974 9        56.285 9
G24  24526092.970 9 128885436.389 9      3552.854 9        54.414 9  24526096.717 8 100430199.267 8      2768.459 8        49.914 8  24526096.901 9  96245602.659 9      2653.106 9        56.514 9
G07  24601209.128 9 129280165.858 9     -2991.936 9        54.357 9  24601210.695 8 100737767.408 8     -2331.382 8        49.857 8  24601213.707 9  96540365.623 9     -2234.241 9        56.457 9
G18  24768170.691 9 130157569.946 9     -1344.821 9        54.336 9  24768171.868 8 101421464.942 8     -1047.913 8        49.836 8  24768174.128 9  97195574.462 9     -1004.250 9        56.436 9
G20  23519215.315 9 123594259.426 9     -3653.194 9        54.725 9  23519216.844 8  96307195.563 8     -2846.648 8        50.225 8  23519219.183 9  92294399.327 9     -2728.038 9        56.825 9
G14  20963496.283 9 110163892.017 9       111.240 9        55.781 9  20963496.256 8  85841981.318 8        86.681 8        51.281 8  20963498.132 9  82265236.783 9        83.069 9        57.881 9
G23  24865816.688 9 130670704.835 9      3247.717 9        54.292 9  24865817.760 8 101821310.742 8      2530.690 8        49.792 8  24865819.995 9  97578760.113 9      2425.245 9        56.392 9
G05  21745049.908 9 114270979.451 9     -2426.654 9        55.470 9  21745049.531 8  89042305.444 8     -1890.901 8        50.970 8  21745052.103 9  85332216.301 9     -1812.113 9        57.570 9
G30  21859208.560 9 114870887.403 9     -2277.275 9        55.475 9  21859211.061 8  89509778.067 8     -1774.501 8        50.975 8  21859210.741 9  85780199.567 9     -1700.564 9        57.575 9
G15  21116093.580 9 110965795.031 9      2309.733 9        55.711 9  21116093.084 8  86466838.290 8      1799.792 8        51.211 8  21116095.519 9  82864060.110 9      1724.801 9        57.811 9
E05  23313447.655 9 122512973.343 9       361.602 9        57.976 9  23313447.655 9 122512973.343 9       361.602 9        57.976 9  23313450.180 9  91486958.093 9       270.027 9        57.837 9  23313450.180 9  91486958.093 9       270.027 9        57.837 9  23313450.001 9  93873575.114 9       277.072 9        57.837 9  23313450.001 9  93873575.114 9       277.072 9        57.837 9  23313450.089 9  92680266.606 9       273.550 9        60.847 9  23313450.089 9  92680266.606 9       273.550 9        60.847 9
E09  25217472.916 9 132518682.508 9     -2114.817 9        57.365 9  25217472.916 9 132518682.508 9     -2114.817 9        57.365 9  25217475.836 9  98958748.869 9     -1579.247 9        57.225 9  25217475.836 9  98958748.869 9     -1579.247 9        57.225 9  25217475.562 9 101540282.555 9     -1620.445 9        57.225 9  25217475.562 9 101540282.555 9     -1620.445 9        57.225 9  25217475.696 9 100249515.715 9     -1599.846 9        60.235 9  25217475.696 9 100249515.715 9     -1599.846 9        60.235 9
E13  28147201.976 9 147914498.108 9       338.837 9        56.288 9  28147201.976 9 147914498.108 9       338.837 9        56.288 9  28147205.660 9 110455618.549 9       253.028 9        56.148 9  28147205.660 9 110455618.549 9       253.028 9        56.148 9  28147205.261 9 113337071.075 9       259.629 9        56.148 9  28147205.261 9 113337071.075 9       259.629 9        56.148 9  28147205.457 9 111896344.817 9       256.328 9        59.159 9  28147205.457 9 111896344.817 9       256.328 9        59.159 9
E25  27074657.085 9 142278232.699 9      3129.628 9        56.723 9  27074657.085 9 142278232.699 9      3129.628 9        56.723 9  27074661.955 9 106246721.357 9      2337.062 9        56.583 9  27074661.955 9 106246721.357 9      2337.062 9        56.583 9  27074661.522 9 109018376.702 9      2398.028 9        56.583 9  27074661.522 9 109018376.702 9      2398.028 9        56.583 9  27074661.734 9 107632549.035 9      2367.545 9        59.593 9  27074661.734 9 107632549.035 9      2367.545 9        59.593 9
E31  24969043.389 9 131213179.714 9     -1552.516 9        57.422 9  24969043.389 9 131213179.714 9     -1552.516 9        57.422 9  24969046.568 9  97983863.315 9     -1159.347 9        57.282 9  24969046.568 9  97983863.315 9     -1159.347 9        57.282 9  24969046.321 9 100539965.095 9     -1189.591 9        57.282 9  24969046.321 9 100539965.095 9     -1189.591 9        57.282 9  24969046.442 9  99261914.208 9     -1174.469 9        60.293 9  24969046.442 9  99261914.208 9     -1174.469 9        60.293 9
E15  27828079.438 9 146237497.847 9     -1836.011 9        56.362 9  27828079.438 9 146237497.847 9     -1836.011 9        56.362 9  27828084.563 9 109203318.806 9     -1371.048 9        56.222 9  27828084.563 9 109203318.806 9     -1371.048 9        56.222 9  27828084.164 9 112052102.644 9     -1406.814 9        56.222 9  27828084.164 9 112052102.644 9     -1406.814 9        56.222 9  27828084.360 9 110627710.730 9     -1388.931 9        59.232 9  27828084.360 9 110627710.730 9     -1388.931 9        59.232 9
E03  26322848.457 9 138327467.634 9      2484.905 9        56.973 9  26322848.457 9 138327467.634 9      2484.905 9        56.973 9  26322851.958 9 103296478.787 9      1855.612 9        56.833 9  26322851.958 9 103296478.787 9      1855.612 9        56.833 9  26322851.661 9 105991170.733 9      1904.019 9        56.833 9  26322851.661 9 105991170.733 9      1904.019 9        56.833 9  26322851.806 9 104643824.764 9      1879.815 9        59.844 9  26322851.806 9 104643824.764 9      1879.815 9        59.844 9
E24  24083855.589 9 126561491.575 9      1233.134 9        57.796 9  24083855.589 9 126561491.575 9      1233.134 9        57.796 9  24083856.608 9  94510194.666 9       920.847 9        57.656 9  24083856.608 9  94510194.666 9       920.847 9        57.656 9  24083856.404 9  96975678.825 9       944.869 9        57.656 9  24083856.404 9  96975678.825 9       944.869 9        57.656 9  24083856.504 9  95742936.748 9       932.858 9        60.666 9  24083856.504 9  95742936.748 9       932.858 9        60.666 9
> 2023 01 08 10 00 21.0000000  0 20       0.000000000000
G08  25071060.819 9 131749263.265 9     -1493.068 9        54.231 9  25071064.926 8 102661754.903 8     -1163.429 8        49.731 8  25071064.636 9  98384175.120 9     -1114.953 9        56.331 9
G13  20026550.445 9 105240211.897 9       579.335 9        56.113 9  20026549.480 8  82005345.380 8       451.430 8        51.613 8  20026552.030 9  78588463.702 9       432.620 9        58.213 9
G17  24967141.115 9 131203129.193 9      2907.810 9        54.185 9  24967144.051 8 102236174.791 8      2265.830 8        49.685 8  24967147.373 9  97976338.150 9      2171.421 9        56.285 9
G24  24525416.832 9 128881883.264 9      3553.388 9        54.414 9  24525420.579 8 100427430.599 8      2768.875 8        49.914 8  24525420.762 9  96242949.353 9      2653.505 9        56.514 9
G07  24601778.556 9 129283158.212 9     -2992.792 9        54.357 9  24601780.124 8 100740099.110 8     -2332.048 8        49.857 8  24601783.136 9  96542600.170 9     -2234.880 9        56.457 9
G18  24768426.699 9 130158915.273 9     -1345.843 9        54.336 9  24768427.876 8 101422513.248 8     -1048.710 8        49.836 8  24768430.136 9  97196579.088 9     -1005.013 9        56.436 9
G20  23519910.365 9 123597911.926 9     -3651.834 9        54.725 9  23519911.895 8  96310041.664 8     -2845.588 8        50.225 8  23519914.234 9  92297126.840 9     -2727.022 9        56.825 9
G14  20963475.177 9 110163781.103 9       110.583 9        55.781 9  20963475.149 8  85841894.892 8        86.168 8        51.281 8  20963477.026 9  82265153.958 9        82.578 9        57.881 9
G23  24865198.805 9 130667457.844 9      3246.270 9        54.292 9  24865199.876 8 101818780.620 8      2529.562 8        49.792 8  24865202.112 9  97576335.413 9      2424.164 9        56.392 9
G05  21745511.637 9 114273405.850 9     -2426.163 9        55.470 9  21745511.260 8  89044196.144 8     -1890.518 8        50.970 8  21745513.833 9  85334028.221 9     -1811.746 9        57.570 9
G30  21859641.994 9 114873165.111 9     -2278.153 9        55.475 9  21859644.495 8  89511552.904 8     -1775.185 8        50.975 8  21859644.175 9  85781900.452 9     -1701.219 9        57.575 9
G15  21115654.122 9 110963485.666 9      2308.986 9        55.711 9  21115653.626 8  86465038.786 8      1799.211 8        51.211 8  21115656.061 9  82862335.584 9      1724.244 9        57.811 9
E05  23313378.877 9 122512611.908 9       361.256 9        57.976 9  23313378.877 9 122512611.908 9       361.256 9        57.976 9  23313381.402 9  91486688.190 9       269.769 9        57.837 9  23313381.402 9  91486688.190 9       269.769 9        57.837 9  23313381.222 9  93873298.171 9       276.807 9        57.837 9  23313381.222 9  93873298.171 9       276.807 9        57.837 9  23313381.310 9  92679993.182 9       273.288 9        60.847 9  23313381.310 9  92679993.182 9       273.288 9        60.847 9
E09  25217875.329 9 132520797.198 9     -2114.576 9        57.365 9  25217875.329 9 132520797.198 9     -2114.576 9        57.365 9  25217878.250 9  98960328.019 9     -1579.067 9        57.225 9  25217878.250 9  98960328.019 9     -1579.067 9        57.225 9  25217877.975 9 101541902.900 9     -1620.260 9        57.225 9  25217877.975 9 101541902.900 9     -1620.260 9        57.225 9  25217878.109 9 100251115.463 9     -1599.664 9        60.235 9  25217878.109 9 100251115.463 9     -1599.664 9        60.235 9
E13  28147137.678 9 147914160.220 9       336.941 9        56.288 9  28147137.678 9 147914160.220 9       336.941 9        56.288 9  28147141.362 9 110455366.230 9       251.612 9        56.148 9  28147141.362 9 110455366.230 9       251.612 9        56.148 9  28147140.963 9 113336812.174 9       258.176 9        56.148 9  28147140.963 9 113336812.174 9       258.176 9        56.148 9  28147141.159 9 111896089.207 9       254.894 9        59.159 9  28147141.159 9 111896089.207 9       254.894 9        59.159 9
E25  27074061.405 9 142275102.384 9      3131.004 9        56.723 9  27074061.405 9 142275102.384 9      3131.004 9        56.723 9  27074066.274 9 106244383.785 9      2338.089 9        56.583 9  27074066.274 9 106244383.785 9      2338.089 9        56.583 9  27074065.841 9 109015978.150 9      2399.083 9        56.583 9  27074065.841 9 109015978.150 9      2399.083 9        56.583 9  27074066.053 9 107630180.973 9      2368.586 9        59.593 9  27074066.053 9 107630180.973 9      2368.586 9        59.593 9
E31  24969338.932 9 131214732.798 9     -1553.659 9        57.422 9  24969338.932 9 131214732.798 9     -1553.659 9        57.422 9  24969342.111 9  97985023.086 9     -1160.201 9        57.282 9  24969342.111 9  97985023.086 9     -1160.201 9        57.282 9  24969341.863 9 100541155.120 9     -1190.467 9        57.282 9  24969341.863 9 100541155.120 9     -1190.467 9        57.282 9  24969341.985 9  99263089.106 9     -1175.334 9        60.292 9  24969341.985 9  99263089.106 9     -1175.334 9        60.292 9
E15  27828428.889 9 146239334.220 9     -1836.746 9        56.362 9  27828428.889 9 146239334.220 9     -1836.746 9        56.362 9  27828434.014 9 109204690.123 9     -1371.597 9        56.222 9  27828434.014 9 109204690.123 9     -1371.597 9        56.222 9  27828433.615 9 112053509.734 9     -1407.377 9        56.222 9  27828433.615 9 112053509.734 9     -1407.377 9        56.222 9  27828433.811 9 110629099.933 9     -1389.487 9        59.232 9  27828433.811 9 110629099.933 9     -1389.487 9        59.232 9
E03  26322375.651 9 138324983.022 9      2484.311 9        56.973 9  26322375.651 9 138324983.022 9      2484.311 9        56.973 9  26322379.151 9 103294623.396 9      1855.168 9        56.834 9  26322379.151 9 103294623.396 9      1855.168 9        56.834 9  26322378.854 9 105989266.940 9      1903.563 9        56.834 9  26322378.854 9 105989266.940 9      1903.563 9        56.834 9  26322379.000 9 104641945.171 9      1879.366 9        59.844 9  26322379.000 9 104641945.171 9      1879.366 9        59.844 9
E24  24083620.918 9 126560258.372 9      1233.267 9        57.796 9  24083620.918 9 126560258.372 9      1233.267 9        57.796 9  24083621.937 9  94509273.768 9       920.947 9        57.656 9  24083621.937 9  94509273.768 9       920.947 9        57.656 9  24083621.733 9  96974733.903 9       944.971 9        57.656 9  24083621.733 9  96974733.903 9       944.971 9        57.656 9  24083621.833 9  95742003.838 9       932.959 9        60.666 9  24083621.833 9  95742003.838 9       932.959 9        60.666 9
> 2023 01 08 10 00 22.0000000  0 20       0.000000000000
G08  25071345.138 9 131750757.371 9     -1495.134 9        54.231 9  25071349.245 8 102662919.142 8     -1165.039 8        49.731 8  25071348.955 9  98385290.849 9     -1116.496 9        56.331 9
G13  20026440.264 9 105239632.891 9       578.674 9        56.113 9  20026439.299 8  82004894.206 8       450.915 8        51.613 8  20026441.849 9  78588031.327 9       432.127 9        58.213 9
G17  24966587.713 9 131200221.061 9      2908.490 9        54.185 9  24966590.649 8 102233908.717 8      2266.359 8        49.685 8  24966593.971 9  97974166.497 9      2171.928 9        56.285 9
G24  24524740.601 9 128878329.652 9      3553.827 9        54.414 9  24524744.348 8 100424661.552 8      2769.217 8        49.914 8  24524744.531 9  96240295.682 9      2653.833 9        56.514 9
G07  24602348.139 9 129286151.380 9     -2993.560 9        54.356 9  24602349.708 8 100742431.446 8     -2332.647 8        49.856 8  24602352.720 9  96544835.325 9     -2235.454 9        56.456 9
G18  24768682.910 9 130160261.667 9     -1346.954 9        54.336 9  24768684.087 8 101423562.385 8     -1049.575 8        49.836 8  24768686.347 9  97197584.511 9     -1005.843 9        56.436 9
G20  23520605.158 9 123601563.075 9     -3650.492 9        54.725 9  23520606.688 8  96312886.712 8     -2844.542 8        50.225 8  23520609.027 9  92299853.344 9     -2726.020 9        56.825 9
G14  20963454.193 9 110163670.830 9       109.966 9        55.781 9  20963454.165 8  85841808.965 8        85.688 8        51.281 8  20963456.042 9  82265071.611 9        82.117 9        57.881 9
G23  24864581.204 9 130664212.330 9      3244.765 9        54.292 9  24864582.274 8 101816251.650 8      2528.390 8        49.792 8  24864584.510 9  97573911.817 9      2423.040 9        56.392 9
G05  21745973.278 9 114275831.784 9     -2425.720 9        55.469 9  21745972.901 8  89046086.480 8     -1890.172 8        50.969 8  21745975.474 9  85335839.794 9     -1811.415 9        57.569 9
G30  21860075.591 9 114875443.673 9     -2278.975 9        55.475 9  21860078.092 8  89513328.406 8     -1775.826 8        50.975 8  21860077.772 9  85783601.975 9     -1701.833 9        57.575 9
G15  21115214.813 9 110961177.084 9      2308.173 9        55.712 9  21115214.317 8  86463239.891 8      1798.577 8        51.212 8  21115216.752 9  82860611.644 9      1723.636 9        57.812 9
E05  23313310.167 9 122512250.833 9       360.888 9        57.976 9  23313310.167 9 122512250.833 9       360.888 9        57.976 9  23313312.692 9  91486418.556 9       269.494 9        57.837 9  23313312.692 9  91486418.556 9       269.494 9        57.837 9  23313312.512 9  93873021.503 9       276.524 9        57.837 9  23313312.512 9  93873021.503 9       276.524 9        57.837 9  23313312.600 9  92679720.032 9       273.009 9        60.847 9  23313312.600 9  92679720.032 9       273.009 9        60.847 9
E09  25218277.691 9 132522911.620 9     -2114.278 9        57.364 9  25218277.691 9 132522911.620 9     -2114.278 9        57.364 9  25218280.612 9  98961906.969 9     -1578.845 9        57.225 9  25218280.612 9  98961906.969 9     -1578.845 9        57.225 9  25218280.337 9 101543523.041 9     -1620.032 9        57.225 9  25218280.337 9 101543523.041 9     -1620.032 9        57.225 9  25218280.472 9 100252715.008 9     -1599.439 9        60.235 9  25218280.472 9 100252715.008 9     -1599.439 9        60.235 9
E13  28147073.744 9 147913824.246 9       335.011 9        56.288 9  28147073.744 9 147913824.246 9       335.011 9        56.288 9  28147077.428 9 110455115.341 9       250.170 9        56.148 9  28147077.428 9 110455115.341 9       250.170 9        56.148 9  28147077.029 9 113336554.740 9       256.697 9        56.148 9  28147077.029 9 113336554.740 9       256.697 9        56.148 9  28147077.225 9 111895835.045 9       253.433 9        59.159 9  28147077.225 9 111895835.045 9       253.433 9        59.159 9
E25  27073465.465 9 142271970.706 9      3132.350 9        56.723 9  27073465.465 9 142271970.706 9      3132.350 9        56.723 9  27073470.334 9 106242045.197 9      2339.094 9        56.583 9  27073470.334 9 106242045.197 9      2339.094 9        56.583 9  27073469.901 9 109013578.555 9      2400.114 9        56.583 9  27073469.901 9 109013578.555 9      2400.114 9        56.583 9  27073470.113 9 107627811.882 9      2369.604 9        59.594 9  27073470.113 9 107627811.882 9      2369.604 9        59.594 9
E31  24969634.688 9 131216287.004 9     -1554.752 9        57.422 9  24969634.688 9 131216287.004 9     -1554.752 9        57.422 9  24969637.867 9  97986183.693 9     -1161.016 9        57.282 9  24969637.867 9  97986183.693 9     -1161.016 9        57.282 9  24969637.620 9 100542346.004 9     -1191.304 9        57.282 9  24969637.620 9 100542346.004 9     -1191.304 9        57.282 9  24969637.741 9  99264264.852 9     -1176.160 9        60.292 9  24969637.741 9  99264264.852 9     -1176.160 9        60.292 9
E15  27828778.488 9 146241171.373 9     -1837.572 9        56.362 9  27828778.488 9 146241171.373 9     -1837.572 9        56.362 9  27828783.614 9 109206062.022 9     -1372.214 9        56.222 9  27828783.614 9 109206062.022 9     -1372.214 9        56.222 9  27828783.214 9 112054917.422 9     -1408.010 9        56.222 9  27828783.214 9 112054917.422 9     -1408.010 9        56.222 9  27828783.410 9 110630489.727 9     -1390.112 9        59.232 9  27828783.410 9 110630489.727 9     -1390.112 9        59.232 9
E03  26321902.965 9 138322499.047 9      2483.635 9        56.974 9  26321902.965 9 138322499.047 9      2483.635 9        56.974 9  26321906.466 9 103292768.480 9      1854.663 9        56.834 9  26321906.466 9 103292768.480 9      1854.663 9        56.834 9  26321906.169 9 105987363.635 9      1903.045 9        56.834 9  26321906.169 9 105987363.635 9      1903.045 9        56.834 9  26321906.314 9 104640066.061 9      1878.854 9        59.844 9  26321906.314 9 104640066.061 9      1878.854 9        59.844 9
E24  24083386.221 9 126559025.030 9      1233.415 9        57.796 9  24083386.221 9 126559025.030 9      1233.415 9        57.796 9  24083387.239 9  94508352.766 9       921.057 9        57.656 9  24083387.239 9  94508352.766 9       921.057 9        57.656 9  24083387.036 9  96973788.875 9       945.085 9        57.656 9  24083387.036 9  96973788.875 9       945.085 9        57.656 9  24083387.136 9  95741070.823 9       933.071 9        60.667 9  24083387.136 9  95741070.823 9       933.071 9        60.667 9
> 2023 01 08 10 00 23.0000000  0 20       0.000000000000
G08  25071629.846 9 131752253.522 9     -1497.157 9        54.231 9  25071633.952 8 102664084.974 8     -1166.616 8        49.731 8  25071633.663 9  98386408.105 9     -1118.007 9        56.331 9
G13  20026330.210 9 105239054.554 9       577.997 9        56.113 9  20026329.245 8  82004443.554 8       450.387 8        51.613 8  20026331.795 9  78587599.452 9       431.621 9        58.213 9
G17  24966034.173 9 131197312.199 9      2909.272 9        54.185 9  24966037.107 8 102231642.075 8      2266.969 8        49.685 8  24966040.429 9  97971994.299 9      2172.513 9        56.285 9
G24  24524064.297 9 128874775.656 9      3554.153 9        54.414 9  24524068.044 8 100421892.205 8      2769.471 8        49.914 8  24524068.227 9  96237641.726 9      2654.077 9        56.514 9
G07  24602917.858 9 129289145.264 9     -2994.222 9        54.356 9  24602919.428 8 100744764.339 8     -2333.162 8        49.856 8  24602922.440 9  96547071.014 9     -2235.948 9        56.456 9
G18  24768939.342 9 130161609.223 9     -1348.170 9        54.335 9  24768940.519 8 101424612.428 8     -1050.522 8        49.835 8  24768942.779 9  97198590.802 9     -1006.751 9        56.435 9
G20  23521299.696 9 123605212.888 9     -3649.163 9        54.724 9  23521301.227 8  96315730.720 8     -2843.507 8        50.224 8  23521303.567 9  92302578.851 9     -2725.028 9        56.824 9
G14  20963433.320 9 110163561.144 9       109.411 9        55.781 9  20963433.293 8  85841723.495 8        85.255 8        51.281 8  20963435.169 9  82264989.702 9        81.703 9        57.881 9
G23  24863963.895 9 130660968.356 9      3243.189 9        54.292 9  24863964.965 8 101813723.879 8      2527.162 8        49.792 8  24863967.201 9  97571489.371 9      2421.863 9        56.392 9
G05  21746434.838 9 114278257.296 9     -2425.322 9        55.469 9  21746434.462 8  89047976.489 8     -1889.862 8        50.969 8  21746437.034 9  85337651.052 9     -1811.118 9        57.569 9
G30  21860509.337 9 114877723.019 9     -2279.720 9        55.474 9  21860511.838 8  89515104.519 8     -1776.406 8        50.974 8  21860511.518 9  85785304.083 9     -1702.390 9        57.574 9
G15  21114775.666 9 110958869.350 9      2307.288 9        55.712 9  21114775.169 8  86461441.657 8      1797.888 8        51.212 8  21114777.604 9  82858888.336 9      1722.976 9        57.812 9
E05  23313241.528 9 122511890.135 9       360.506 9        57.977 9  23313241.528 9 122511890.135 9       360.506 9        57.977 9  23313244.053 9  91486149.203 9       269.209 9        57.837 9  23313244.053 9  91486149.203 9       269.209 9        57.837 9  23313243.873 9  93872745.123 9       276.231 9        57.837 9  23313243.873 9  93872745.123 9       276.231 9        57.837 9  23313243.961 9  92679447.166 9       272.720 9        60.847 9  23313243.961 9  92679447.166 9       272.720 9        60.847 9
E09  25218679.989 9 132525025.706 9     -2113.901 9        57.364 9  25218679.989 9 132525025.706 9     -2113.901 9        57.364 9  25218682.910 9  98963485.669 9     -1578.564 9        57.224 9  25218682.910 9  98963485.669 9     -1578.564 9        57.224 9  25218682.635 9 101545142.924 9     -1619.744 9        57.224 9  25218682.635 9 101545142.924 9     -1619.744 9        57.224 9  25218682.770 9 100254314.300 9     -1599.154 9        60.235 9  25218682.770 9 100254314.300 9     -1599.154 9        60.235 9
E13  28147010.181 9 147913490.223 9       333.038 9        56.288 9  28147010.181 9 147913490.223 9       333.038 9        56.288 9  28147013.866 9 110454865.908 9       248.697 9        56.148 9  28147013.866 9 110454865.908 9       248.697 9        56.148 9  28147013.467 9 113336298.800 9       255.185 9        56.148 9  28147013.467 9 113336298.800 9       255.185 9        56.148 9  28147013.662 9 111895582.359 9       251.941 9        59.159 9  28147013.662 9 111895582.359 9       251.941 9        59.159 9
E25  27072869.272 9 142268837.698 9      3133.668 9        56.723 9  27072869.272 9 142268837.698 9      3133.668 9        56.723 9  27072874.141 9 106239705.615 9      2340.079 9        56.584 9  27072874.141 9 106239705.615 9      2340.079 9        56.584 9  27072873.708 9 109011177.940 9      2401.124 9        56.584 9  27072873.708 9 109011177.940 9      2401.124 9        56.584 9  27072873.920 9 107625441.783 9      2370.601 9        59.594 9  27072873.920 9 107625441.783 9      2370.601 9        59.594 9
E31  24969930.645 9 131217842.267 9     -1555.774 9        57.422 9  24969930.645 9 131217842.267 9     -1555.774 9        57.422 9  24969933.825 9  97987345.090 9     -1161.780 9        57.282 9  24969933.825 9  97987345.090 9     -1161.780 9        57.282 9  24969933.577 9 100543537.699 9     -1192.087 9        57.282 9  24969933.577 9 100543537.699 9     -1192.087 9        57.282 9  24969933.698 9  99265441.398 9     -1176.934 9        60.292 9  24969933.698 9  99265441.398 9     -1176.934 9        60.292 9
E15  27829128.255 9 146243009.407 9     -1838.507 9        56.362 9  27829128.255 9 146243009.407 9     -1838.507 9        56.362 9  27829133.381 9 109207434.579 9     -1372.912 9        56.222 9  27829133.381 9 109207434.579 9     -1372.912 9        56.222 9  27829132.981 9 112056325.785 9     -1408.727 9        56.222 9  27829132.981 9 112056325.785 9     -1408.727 9        56.222 9  27829133.177 9 110631880.187 9     -1390.819 9        59.232 9  27829133.177 9 110631880.187 9     -1390.819 9        59.232 9
E03  26321430.418 9 138320015.793 9      2482.865 9        56.974 9  26321430.418 9 138320015.793 9      2482.865 9        56.974 9  26321433.918 9 103290914.103 9      1854.089 9        56.834 9  26321433.918 9 103290914.103 9      1854.089 9        56.834 9  26321433.621 9 105985460.883 9      1902.456 9        56.834 9  26321433.621 9 105985460.883 9      1902.456 9        56.834 9  26321433.766 9 104638187.496 9      1878.272 9        59.844 9  26321433.766 9 104638187.496 9      1878.272 9        59.844 9
E24  24083151.493 9 126557791.525 9      1233.595 9        57.796 9  24083151.493 9 126557791.525 9      1233.595 9        57.796 9  24083152.511 9  94507431.643 9       921.192 9        57.656 9  24083152.511 9  94507431.643 9       921.192 9        57.656 9  24083152.308 9  96972843.722 9       945.223 9        57.656 9  24083152.308 9  96972843.722 9       945.223 9        57.656 9  24083152.407 9  95740137.685 9       933.207 9        60.667 9  24083152.407 9  95740137.685 9       933.207 9        60.667 9
> 2023 01 08 10 00 24.0000000  0 20       0.000000000000
G08  25071914.934 9 131753751.669 9     -1499.123 9        54.231 9  25071919.040 8 102665252.362 8     -1168.148 8        49.731 8  25071918.751 9  98387526.852 9     -1119.475 9        56.331 9
G13  20026220.286 9 105238476.899 9       577.321 9        56.113 9  20026219.321 8  82003993.433 8       449.860 8        51.613 8  20026221.872 9  78587168.086 9       431.116 9        58.213 9
G17  24965480.476 9 131194402.518 9      2910.133 9        54.185 9  24965483.410 8 102229374.795 8      2267.640 8        49.685 8  24965486.732 9  97969821.490 9      2173.155 9        56.285 9
G24  24523387.941 9 128871221.383 9      3554.379 9        54.414 9  24523391.687 8 100419122.643 8      2769.647 8        49.914 8  24523391.870 9  96234987.562 9      2654.246 9        56.514 9
G07  24603487.694 9 129292139.761 9     -2994.780 9        54.356 9  24603489.264 8 100747097.711 8     -2333.598 8        49.856 8  24603492.277 9  96549307.161 9     -2236.365 9        56.456 9
G18  24769196.012 9 130162958.034 9     -1349.466 9        54.335 9  24769197.190 8 101425663.449 8     -1051.533 8        49.835 8  24769199.450 9  97199598.030 9     -1007.719 9        56.435 9
G20  23521993.985 9 123608861.389 9     -3647.863 9        54.724 9  23521995.516 8  96318573.705 8     -2842.493 8        50.224 8  23521997.856 9  92305303.377 9     -2724.057 9        56.824 9
G14  20963412.549 9 110163451.988 9       108.919 9        55.781 9  20963412.521 8  85841638.438 8        84.872 8        51.281 8  20963414.398 9  82264908.190 9        81.335 9        57.881 9
G23  24863346.890 9 130657725.979 9      3241.570 9        54.292 9  24863347.960 8 101811197.353 8      2525.900 8        49.792 8  24863350.195 9  97569068.116 9      2420.655 9        56.392 9
G05  21746896.328 9 114280682.436 9     -2424.967 9        55.469 9  21746895.952 8  89049866.208 8     -1889.586 8        50.969 8  21746898.524 9  85339462.032 9     -1810.853 9        57.569 9
G30  21860943.218 9 114880003.077 9     -2280.385 9        55.474 9  21860945.720 8  89516881.186 8     -1776.924 8        50.974 8  21860945.400 9  85787006.722 9     -1702.886 9        57.574 9
G15  21114336.692 9 110956562.528 9      2306.357 9        55.712 9  21114336.195 8  86459644.134 8      1797.161 8        51.212 8  21114338.630 9  82857165.710 9      1722.280 9        57.812 9
E05  23313172.963 9 122511529.825 9       360.124 9        57.977 9  23313172.963 9 122511529.825 9       360.124 9        57.977 9  23313175.488 9  91485880.140 9       268.923 9        57.837 9  23313175.488 9  91485880.140 9       268.923 9        57.837 9  23313175.309 9  93872469.042 9       275.939 9        57.837 9  23313175.309 9  93872469.042 9       275.939 9        57.837 9  23313175.397 9  92679174.593 9       272.431 9        60.847 9  23313175.397 9  92679174.593 9       272.431 9        60.847 9
E09  25219082.210 9 132527139.388 9     -2113.457 9        57.364 9  25219082.210 9 132527139.388 9     -2113.457 9        57.364 9  25219085.132 9  98965064.066 9     -1578.232 9        57.224 9  25219085.132 9  98965064.066 9     -1578.232 9        57.224 9  25219084.857 9 101546762.497 9     -1619.403 9        57.224 9  25219084.857 9 101546762.497 9     -1619.403 9        57.224 9  25219084.992 9 100255913.285 9     -1598.818 9        60.235 9  25219084.992 9 100255913.285 9     -1598.818 9        60.235 9
E13  28146946.996 9 147913158.181 9       331.049 9        56.288 9  28146946.996 9 147913158.181 9       331.049 9        56.288 9  28146950.680 9 110454617.954 9       247.212 9        56.148 9  28146950.680 9 110454617.954 9       247.212 9        56.148 9  28146950.281 9 113336044.378 9       253.661 9        56.148 9  28146950.281 9 113336044.378 9       253.661 9        56.148 9  28146950.477 9 111895331.172 9       250.437 9        59.159 9  28146950.477 9 111895331.172 9       250.437 9        59.159 9
E25  27072272.833 9 142265703.393 9      3134.946 9        56.724 9  27072272.833 9 142265703.393 9      3134.946 9        56.724 9  27072277.701 9 106237365.064 9      2341.033 9        56.584 9  27072277.701 9 106237365.064 9      2341.033 9        56.584 9  27072277.268 9 109008776.331 9      2402.103 9        56.584 9  27072277.268 9 109008776.331 9      2402.103 9        56.584 9  27072277.480 9 107623070.703 9      2371.568 9        59.594 9  27072277.480 9 107623070.703 9      2371.568 9        59.594 9
E31  24970226.791 9 131219398.522 9     -1556.720 9        57.422 9  24970226.791 9 131219398.522 9     -1556.720 9        57.422 9  24970229.971 9  97988507.228 9     -1162.487 9        57.282 9  24970229.971 9  97988507.228 9     -1162.487 9        57.282 9  24970229.723 9 100544730.153 9     -1192.812 9        57.282 9  24970229.723 9 100544730.153 9     -1192.812 9        57.282 9  24970229.844 9  99266618.694 9     -1177.649 9        60.292 9  24970229.844 9  99266618.694 9     -1177.649 9        60.292 9
E15  27829478.208 9 146244848.417 9     -1839.528 9        56.362 9  27829478.208 9 146244848.417 9     -1839.528 9        56.362 9  27829483.333 9 109208807.864 9     -1373.674 9        56.222 9  27829483.333 9 109208807.864 9     -1373.674 9        56.222 9  27829482.934 9 112057734.895 9     -1409.509 9        56.222 9  27829482.934 9 112057734.895 9     -1409.509 9        56.222 9  27829483.130 9 110633271.385 9     -1391.592 9        59.232 9  27829483.130 9 110633271.385 9     -1391.592 9        59.232 9
E03  26320958.023 9 138317533.343 9      2482.029 9        56.974 9  26320958.023 9 138317533.343 9      2482.029 9        56.974 9  26320961.523 9 103289060.326 9      1853.464 9        56.834 9  26320961.523 9 103289060.326 9      1853.464 9        56.834 9  26320961.226 9 105983558.746 9      1901.815 9        56.834 9  26320961.226 9 105983558.746 9      1901.815 9        56.834 9  26320961.371 9 104636309.540 9      1877.640 9        59.844 9  26320961.371 9 104636309.540 9      1877.640 9        59.844 9
E24  24082916.729 9 126556557.832 9      1233.805 9        57.796 9  24082916.729 9 126556557.832 9      1233.805 9        57.796 9  24082917.747 9  94506510.379 9       921.348 9        57.656 9  24082917.747 9  94506510.379 9       921.348 9        57.656 9  24082917.543 9  96971898.426 9       945.383 9        57.656 9  24082917.543 9  96971898.426 9       945.383 9        57.656 9  24082917.643 9  95739204.405 9       933.366 9        60.667 9  24082917.643 9  95739204.405 9       933.366 9        60.667 9
> 2023 01 08 10 00 25.0000000  0 20       0.000000000000
G08  25072200.391 9 131755251.758 9     -1501.040 9        54.231 9  25072204.498 8 102666421.263 8     -1169.641 8        49.731 8  25072204.208 9  98388647.048 9     -1120.906 9        56.331 9
G13  20026110.495 9 105237899.942 9       576.604 9        56.113 9  20026109.530 8  82003543.856 8       449.302 8        51.613 8  20026112.080 9  78586737.242 9       430.581 9        58.213 9
G17  24964926.609 9 131191491.937 9      2911.072 9        54.186 9  24964929.542 8 102227106.813 8      2268.371 8        49.686 8  24964932.863 9  97967648.008 9      2173.857 9        56.286 9
G24  24522711.551 9 128867666.937 9      3554.497 9        54.415 9  24522715.297 8 100416352.946 8      2769.739 8        49.915 8  24522715.480 9  96232333.269 9      2654.334 9        56.515 9
G07  24604057.627 9 129295134.770 9     -2995.243 9        54.356 9  24604059.198 8 100749431.481 8     -2333.958 8        49.856 8  24604062.211 9  96551543.690 9     -2236.711 9        56.456 9
G18  24769452.939 9 130164308.187 9     -1350.853 9        54.335 9  24769454.116 8 101426715.516 8     -1052.614 8        49.835 8  24769456.376 9  97200606.261 9     -1008.755 9        56.435 9
G20  23522688.029 9 123612508.607 9     -3646.600 9        54.724 9  23522689.561 8  96321415.690 8     -2841.509 8        50.224 8  23522691.901 9  92308026.946 9     -2723.113 9        56.824 9
G14  20963391.868 9 110163343.311 9       108.455 9        55.781 9  20963391.841 8  85841553.755 8        84.510 8        51.281 8  20963393.717 9  82264827.035 9        80.989 9        57.881 9
G23  24862730.198 9 130654485.247 9      3239.898 9        54.293 9  24862731.268 8 101808672.109 8      2524.597 8        49.793 8  24862733.503 9  97566648.091 9      2419.406 9        56.393 9
G05  21747357.757 9 114283107.257 9     -2424.684 9        55.469 9  21747357.381 8  89051755.677 8     -1889.365 8        50.969 8  21747359.953 9  85341272.773 9     -1810.642 9        57.569 9
G30  21861377.221 9 114882283.774 9     -2280.997 9        55.474 9  21861379.723 8  89518658.352 8     -1777.402 8        50.974 8  21861379.403 9  85788709.839 9     -1703.343 9        57.574 9
G15  21113897.903 9 110954256.678 9      2305.345 9        55.712 9  21113897.406 8  86457847.368 8      1796.373 8        51.212 8  21113899.841 9  82855443.809 9      1721.524 9        57.812 9
E05  23313104.475 9 122511169.917 9       359.702 9        57.977 9  23313104.475 9 122511169.917 9       359.702 9        57.977 9  23313107.000 9  91485611.378 9       268.608 9        57.837 9  23313107.000 9  91485611.378 9       268.608 9        57.837 9  23313106.821 9  93872193.268 9       275.615 9        57.837 9  23313106.821 9  93872193.268 9       275.615 9        57.837 9  23313106.909 9  92678902.325 9       272.112 9        60.847 9  23313106.909 9  92678902.325 9       272.112 9        60.847 9
E09  25219484.342 9 132529252.604 9     -2112.969 9        57.364 9  25219484.342 9 132529252.604 9     -2112.969 9        57.364 9  25219487.264 9  98966642.116 9     -1577.867 9        57.224 9  25219487.264 9  98966642.116 9     -1577.867 9        57.224 9  25219486.989 9 101548381.713 9     -1619.029 9        57.224 9  25219486.989 9 101548381.713 9     -1619.029 9        57.224 9  25219487.124 9 100257511.918 9     -1598.448 9        60.234 9  25219487.124 9 100257511.918 9     -1598.448 9        60.234 9
E13  28146884.191 9 147912828.140 9       329.036 9        56.288 9  28146884.191 9 147912828.140 9       329.036 9        56.288 9  28146887.875 9 110454371.496 9       245.709 9        56.148 9  28146887.875 9 110454371.496 9       245.709 9        56.148 9  28146887.476 9 113335791.490 9       252.119 9        56.148 9  28146887.476 9 113335791.490 9       252.119 9        56.148 9  28146887.672 9 111895081.498 9       248.914 9        59.159 9  28146887.672 9 111895081.498 9       248.914 9        59.159 9
E25  27071676.155 9 142262567.834 9      3136.173 9        56.724 9  27071676.155 9 142262567.834 9      3136.173 9        56.724 9  27071681.022 9 106235023.577 9      2341.949 9        56.584 9  27071681.022 9 106235023.577 9      2341.949 9        56.584 9  27071680.589 9 109006373.762 9      2403.043 9        56.584 9  27071680.589 9 109006373.762 9      2403.043 9        56.584 9  27071680.801 9 107620698.675 9      2372.496 9        59.594 9  27071680.801 9 107620698.675 9      2372.496 9        59.594 9
E31  24970523.112 9 131220955.699 9     -1557.618 9        57.422 9  24970523.112 9 131220955.699 9     -1557.618 9        57.422 9  24970526.292 9  97989670.054 9     -1163.157 9        57.282 9  24970526.292 9  97989670.054 9     -1163.157 9        57.282 9  24970526.045 9 100545923.314 9     -1193.500 9        57.282 9  24970526.045 9 100545923.314 9     -1193.500 9        57.282 9  24970526.166 9  99267796.688 9     -1178.329 9        60.292 9  24970526.166 9  99267796.688 9     -1178.329 9        60.292 9
E15  27829828.363 9 146246688.494 9     -1840.643 9        56.361 9  27829828.363 9 146246688.494 9     -1840.643 9        56.361 9  27829833.489 9 109210181.947 9     -1374.507 9        56.222 9  27829833.489 9 109210181.947 9     -1374.507 9        56.222 9  27829833.090 9 112059144.824 9     -1410.363 9        56.222 9  27829833.090 9 112059144.824 9     -1410.363 9        56.222 9  27829833.286 9 110634663.391 9     -1392.435 9        59.232 9  27829833.286 9 110634663.391 9     -1392.435 9        59.232 9
E03  26320485.795 9 138315051.774 9      2481.105 9        56.974 9  26320485.795 9 138315051.774 9      2481.105 9        56.974 9  26320489.295 9 103287207.207 9      1852.774 9        56.834 9  26320489.295 9 103287207.207 9      1852.774 9        56.834 9  26320488.998 9 105981657.285 9      1901.107 9        56.834 9  26320488.998 9 105981657.285 9      1901.107 9        56.834 9  26320489.144 9 104634432.249 9      1876.940 9        59.844 9  26320489.144 9 104634432.249 9      1876.940 9        59.844 9
E24  24082681.925 9 126555323.932 9      1234.010 9        57.796 9  24082681.925 9 126555323.932 9      1234.010 9        57.796 9  24082682.943 9  94505588.960 9       921.501 9        57.656 9  24082682.943 9  94505588.960 9       921.501 9        57.656 9  24082682.740 9  96970952.970 9       945.540 9        57.656 9  24082682.740 9  96970952.970 9       945.540 9        57.656 9  24082682.840 9  95738270.968 9       933.520 9        60.667 9  24082682.840 9  95738270.968 9       933.520 9        60.667 9
> 2023 01 08 10 00 26.0000000  0 20       0.000000000000
G08  25072486.207 9 131756753.729 9     -1502.896 9        54.231 9  25072490.313 8 102667591.629 8     -1171.088 8        49.731 8  25072490.024 9  98389768.650 9     -1122.292 9        56.331 9
G13  20026000.839 9 105237323.694 9       575.890 9        56.113 9  20025999.874 8  82003094.832 8       448.746 8        51.613 8  20026002.424 9  78586306.926 9       430.048 9        58.213 9
G17  24964372.555 9 131188580.380 9      2912.082 9        54.186 9  24964375.487 8 102224838.070 8      2269.158 8        49.686 8  24964378.808 9  97965473.797 9      2174.611 9        56.286 9
G24  24522035.149 9 128864112.425 9      3554.519 9        54.415 9  24522038.895 8 100413583.198 8      2769.756 8        49.915 8  24522039.078 9  96229678.928 9      2654.350 9        56.515 9
G07  24604627.638 9 129298130.185 9     -2995.607 9        54.356 9  24604629.210 8 100751765.568 8     -2334.242 8        49.856 8  24604632.223 9  96553780.523 9     -2236.982 9        56.456 9
G18  24769710.136 9 130165659.765 9     -1352.313 9        54.335 9  24769711.314 8 101427768.693 8     -1053.751 8        49.835 8  24769713.573 9  97201615.555 9     -1009.845 9        56.435 9
G20  23523381.837 9 123616154.579 9     -3645.368 9        54.724 9  23523383.370 8  96324256.705 8     -2840.549 8        50.224 8  23523385.710 9  92310749.585 9     -2722.194 9        56.824 9
G14  20963371.269 9 110163235.060 9       108.050 9        55.781 9  20963371.241 8  85841469.403 8        84.195 8        51.281 8  20963373.118 9  82264746.198 9        80.687 9        57.881 9
G23  24862113.828 9 130651246.204 9      3238.191 9        54.293 9  24862114.897 8 101806148.181 8      2523.267 8        49.793 8  24862117.132 9  97564229.327 9      2418.132 9        56.393 9
G05  21747819.136 9 114285531.816 9     -2424.443 9        55.469 9  21747818.760 8  89053644.943 8     -1889.178 8        50.969 8  21747821.333 9  85343083.319 9     -1810.462 9        57.569 9
G30  21861811.331 9 114884565.036 9     -2281.531 9        55.474 9  21861813.834 8  89520435.958 8     -1777.818 8        50.974 8  21861813.514 9  85790413.378 9     -1703.742 9        57.574 9
G15  21113459.309 9 110951951.857 9      2304.292 9        55.712 9  21113458.813 8  86456051.404 8      1795.553 8        51.212 8  21113461.248 9  82853722.678 9      1720.738 9        57.812 9
E05  23313036.066 9 122510810.424 9       359.282 9        57.977 9  23313036.066 9 122510810.424 9       359.282 9        57.977 9  23313038.591 9  91485342.925 9       268.295 9        57.837 9  23313038.591 9  91485342.925 9       268.295 9        57.837 9  23313038.412 9  93871917.812 9       275.294 9        57.837 9  23313038.412 9  93871917.812 9       275.294 9        57.837 9  23313038.500 9  92678630.371 9       271.794 9        60.847 9  23313038.500 9  92678630.371 9       271.794 9        60.847 9
E09  25219886.375 9 132531365.294 9     -2112.418 9        57.364 9  25219886.375 9 132531365.294 9     -2112.418 9        57.364 9  25219889.297 9  98968219.773 9     -1577.456 9        57.224 9  25219889.297 9  98968219.773 9     -1577.456 9        57.224 9  25219889.022 9 101550000.527 9     -1618.607 9        57.224 9  25219889.022 9 101550000.527 9     -1618.607 9        57.224 9  25219889.157 9 100259110.153 9     -1598.032 9        60.234 9  25219889.157 9 100259110.153 9     -1598.032 9        60.234 9
E13  28146821.770 9 147912500.114 9       327.015 9        56.288 9  28146821.770 9 147912500.114 9       327.015 9        56.288 9  28146825.454 9 110454126.541 9       244.199 9        56.148 9  28146825.454 9 110454126.541 9       244.199 9        56.148 9  28146825.055 9 113335540.146 9       250.570 9        56.148 9  28146825.055 9 113335540.146 9       250.570 9        56.148 9  28146825.250 9 111894833.349 9       247.385 9        59.159 9  28146825.250 9 111894833.349 9       247.385 9        59.159 9
E25  27071079.247 9 142259431.072 9      3137.358 9        56.724 9  27071079.247 9 142259431.072 9      3137.358 9        56.724 9  27071084.114 9 106232681.192 9      2342.834 9        56.584 9  27071084.114 9 106232681.192 9      2342.834 9        56.584 9  27071083.682 9 109003970.270 9      2403.951 9        56.584 9  27071083.682 9 109003970.270 9      2403.951 9        56.584 9  27071083.894 9 107618325.736 9      2373.393 9        59.594 9  27071083.894 9 107618325.736 9      2373.393 9        59.594 9
E31  24970819.596 9 131222513.728 9     -1558.441 9        57.422 9  24970819.596 9 131222513.728 9     -1558.441 9        57.422 9  24970822.776 9  97990833.517 9     -1163.771 9        57.282 9  24970822.776 9  97990833.517 9     -1163.771 9        57.282 9  24970822.528 9 100547117.128 9     -1194.130 9        57.282 9  24970822.528 9 100547117.128 9     -1194.130 9        57.282 9  24970822.650 9  99268975.326 9     -1178.951 9        60.292 9  24970822.650 9  99268975.326 9     -1178.951 9        60.292 9
E15  27830178.739 9 146248529.728 9     -1841.835 9        56.361 9  27830178.739 9 146248529.728 9     -1841.835 9        56.361 9  27830183.865 9 109211556.894 9     -1375.397 9        56.221 9  27830183.865 9 109211556.894 9     -1375.397 9        56.221 9  27830183.466 9 112060555.639 9     -1411.277 9        56.221 9  27830183.466 9 112060555.639 9     -1411.277 9        56.221 9  27830183.662 9 110636056.271 9     -1393.337 9        59.232 9  27830183.662 9 110636056.271 9     -1393.337 9        59.232 9
E03  26320013.749 9 138312571.158 9      2480.122 9        56.974 9  26320013.749 9 138312571.158 9      2480.122 9        56.974 9  26320017.249 9 103285354.799 9      1852.040 9        56.834 9  26320017.249 9 103285354.799 9      1852.040 9        56.834 9  26320016.952 9 105979756.554 9      1900.354 9        56.834 9  26320016.952 9 105979756.554 9      1900.354 9        56.834 9  26320017.098 9 104632555.680 9      1876.197 9        59.845 9  26320017.098 9 104632555.680 9      1876.197 9        59.845 9
E24  24082447.079 9 126554089.809 9      1234.241 9        57.796 9  24082447.079 9 126554089.809 9      1234.241 9        57.796 9  24082448.097 9  94504667.375 9       921.674 9        57.657 9  24082448.097 9  94504667.375 9       921.674 9        57.657 9  24082447.894 9  96970007.343 9       945.717 9        57.657 9  24082447.894 9  96970007.343 9       945.717 9        57.657 9  24082447.994 9  95737337.361 9       933.695 9        60.667 9  24082447.994 9  95737337.361 9       933.695 9        60.667 9
> 2023 01 08 10 00 27.0000000  0 20       0.000000000000
G08  25072772.367 9 131758257.514 9     -1504.667 9        54.230 9  25072776.474 8 102668763.410 8     -1172.467 8        49.730 8  25072776.184 9  98390891.606 9     -1123.615 9        56.330 9
G13  20025891.319 9 105236748.167 9       575.162 9        56.113 9  20025890.355 8  82002646.369 8       448.178 8        51.613 8  20025892.905 9  78585877.149 9       429.504 9        58.213 9
G17  24963818.302 9 131185667.772 9      2913.171 9        54.186 9  24963821.233 8 102222568.509 8      2270.007 8        49.686 8  24963824.554 9  97963298.802 9      2175.424 9        56.286 9
G24  24521358.755 9 128860557.955 9      3554.413 9        54.415 9  24521362.501 8 100410813.482 8      2769.673 8        49.915 8  24521362.683 9  96227024.617 9      2654.271 9        56.515 9
G07  24605197.706 9 129301125.902 9     -2995.844 9        54.355 9  24605199.278 8 100754099.890 8     -2334.427 8        49.855 8  24605202.292 9  96556017.581 9     -2237.160 9        56.455 9
G18  24769967.619 9 130167012.846 9     -1353.861 9        54.335 9  24769968.797 8 101428823.041 8     -1054.957 8        49.835 8  24769971.057 9  97202625.972 9     -1011.001 9        56.435 9
G20  23524075.415 9 123619799.349 9     -3644.196 9        54.723 9  23524076.949 8  96327096.783 8     -2839.636 8        50.223 8  23524079.289 9  92313471.325 9     -2721.319 9        56.823 9
G14  20963350.741 9 110163127.186 9       107.702 9        55.781 9  20963350.714 8  85841385.346 8        83.924 8        51.281 8  20963352.590 9  82264665.643 9        80.427 9        57.881 9
G23  24861497.785 9 130648008.886 9      3236.449 9        54.293 9  24861498.854 8 101803625.596 8      2521.910 8        49.793 8  24861501.090 9  97561811.851 9      2416.831 9        56.393 9
G05  21748280.476 9 114287956.171 9     -2424.281 9        55.469 9  21748280.100 8  89055534.050 8     -1889.051 8        50.969 8  21748282.673 9  85344893.713 9     -1810.341 9        57.569 9
G30  21862245.535 9 114886846.788 9     -2281.976 9        55.474 9  21862248.038 8  89522213.945 8     -1778.164 8        50.974 8  21862247.718 9  85792117.282 9     -1704.074 9        57.574 9
G15  21113020.922 9 110949648.120 9      2303.177 9        55.713 9  21113020.426 8  86454256.285 8      1794.684 8        51.213 8  21113022.860 9  82852002.355 9      1719.905 9        57.813 9
E05  23312967.738 9 122510451.359 9       358.846 9        57.977 9  23312967.738 9 122510451.359 9       358.846 9        57.977 9  23312970.264 9  91485074.792 9       267.969 9        57.837 9  23312970.264 9  91485074.792 9       267.969 9        57.837 9  23312970.084 9  93871642.684 9       274.960 9        57.837 9  23312970.084 9  93871642.684 9       274.960 9        57.837 9  23312970.172 9  92678358.740 9       271.464 9        60.847 9  23312970.172 9  92678358.740 9       271.464 9        60.847 9
E09  25220288.297 9 132533477.405 9     -2111.808 9        57.364 9  25220288.297 9 132533477.405 9     -2111.808 9        57.364 9  25220291.220 9  98969796.997 9     -1577.001 9        57.224 9  25220291.220 9  98969796.997 9     -1577.001 9        57.224 9  25220290.944 9 101551618.896 9     -1618.140 9        57.224 9  25220290.944 9 101551618.896 9     -1618.140 9        57.224 9  25220291.079 9 100260707.950 9     -1597.570 9        60.234 9  25220291.079 9 100260707.950 9     -1597.570 9        60.234 9
E13  28146759.733 9 147912174.111 9       324.993 9        56.288 9  28146759.733 9 147912174.111 9       324.993 9        56.288 9  28146763.417 9 110453883.098 9       242.690 9        56.148 9  28146763.417 9 110453883.098 9       242.690 9        56.148 9  28146763.018 9 113335290.351 9       249.021 9        56.148 9  28146763.018 9 113335290.351 9       249.021 9        56.148 9  28146763.214 9 111894586.729 9       245.855 9        59.159 9  28146763.214 9 111894586.729 9       245.855 9        59.159 9
E25  27070482.122 9 142256293.160 9      3138.469 9        56.724 9  27070482.122 9 142256293.160 9      3138.469 9        56.724 9  27070486.988 9 106230337.948 9      2343.664 9        56.584 9  27070486.988 9 106230337.948 9      2343.664 9        56.584 9  27070486.555 9 109001565.898 9      2404.803 9        56.584 9  27070486.555 9 109001565.898 9      2404.803 9        56.584 9  27070486.768 9 107615951.928 9      2374.233 9        59.595 9  27070486.768 9 107615951.928 9      2374.233 9        59.595 9
E31  24971116.228 9 131224072.537 9     -1559.175 9        57.421 9  24971116.228 9 131224072.537 9     -1559.175 9        57.421 9  24971119.408 9  97991997.561 9     -1164.320 9        57.282 9  24971119.408 9  97991997.561 9     -1164.320 9        57.282 9  24971119.160 9 100548311.539 9     -1194.694 9        57.282 9  24971119.160 9 100548311.539 9     -1194.694 9        57.282 9  24971119.282 9  99270154.553 9     -1179.507 9        60.292 9  24971119.282 9  99270154.553 9     -1179.507 9        60.292 9
E15  27830529.351 9 146250372.201 9     -1843.122 9        56.361 9  27830529.351 9 146250372.201 9     -1843.122 9        56.361 9  27830534.477 9 109212932.765 9     -1376.359 9        56.221 9  27830534.477 9 109212932.765 9     -1376.359 9        56.221 9  27830534.078 9 112061967.403 9     -1412.264 9        56.221 9  27830534.078 9 112061967.403 9     -1412.264 9        56.221 9  27830534.273 9 110637450.089 9     -1394.311 9        59.232 9  27830534.273 9 110637450.089 9     -1394.311 9        59.232 9
E03  26319541.898 9 138310091.563 9      2479.061 9        56.974 9  26319541.898 9 138310091.563 9      2479.061 9        56.974 9  26319545.397 9 103283503.155 9      1851.247 9        56.834 9  26319545.397 9 103283503.155 9      1851.247 9        56.834 9  26319545.100 9 105977856.605 9      1899.541 9        56.834 9  26319545.100 9 105977856.605 9      1899.541 9        56.834 9  26319545.246 9 104630679.884 9      1875.394 9        59.845 9  26319545.246 9 104630679.884 9      1875.394 9        59.845 9
E24  24082212.188 9 126552855.448 9      1234.483 9        57.797 9  24082212.188 9 126552855.448 9      1234.483 9        57.797 9  24082213.206 9  94503745.612 9       921.854 9        57.657 9  24082213.206 9  94503745.612 9       921.854 9        57.657 9  24082213.003 9  96969061.534 9       945.902 9        57.657 9  24082213.003 9  96969061.534 9       945.902 9        57.657 9  24082213.102 9  95736403.576 9       933.878 9        60.667 9  24082213.102 9  95736403.576 9       933.878 9        60.667 9
> 2023 01 08 10 00 28.0000000  0 20       0.000000000000
G08  25073058.859 9 131759763.040 9     -1506.373 9        54.230 9  25073062.966 8 102669936.547 8     -1173.797 8        49.730 8  25073062.676 9  98392015.863 9     -1124.889 9        56.330 9
G13  20025781.939 9 105236173.369 9       574.428 9        56.113 9  20025780.974 8  82002198.475 8       447.606 8        51.613 8  20025783.525 9  78585447.917 9       428.956 9        58.213 9
G17  24963263.837 9 131182754.051 9      2914.311 9        54.186 9  24963266.767 8 102220298.080 8      2270.895 8        49.686 8  24963270.088 9  97961122.975 9      2176.276 9        56.286 9
G24  24520682.389 9 128857003.632 9      3554.218 9        54.415 9  24520686.134 8 100408043.881 8      2769.522 8        49.915 8  24520686.317 9  96224370.416 9      2654.125 9        56.515 9
G07  24605767.811 9 129304121.814 9     -2995.992 9        54.355 9  24605769.384 8 100756434.364 8     -2334.542 8        49.855 8  24605772.398 9  96558254.785 9     -2237.270 9        56.455 9
G18  24770225.402 9 130168367.502 9     -1355.465 9        54.335 9  24770226.580 8 101429878.617 8     -1056.207 8        49.835 8  24770228.840 9  97203637.566 9     -1012.199 9        56.435 9
G20  23524768.775 9 123623442.966 9     -3643.070 9        54.723 9  23524770.309 8  96329935.962 8     -2838.758 8        50.223 8  23524772.649 9  92316192.205 9     -2720.477 9        56.823 9
G14  20963330.276 9 110163019.639 9       107.395 9        55.781 9  20963330.248 8  85841301.543 8        83.684 8        51.281 8  20963332.125 9  82264585.332 9        80.197 9        57.881 9
G23  24860882.077 9 130644773.320 9      3234.688 9        54.293 9  24860883.145 8 101801104.378 8      2520.538 8        49.793 8  24860885.380 9  97559395.683 9      2415.516 9        56.393 9
G05  21748741.790 9 114290380.387 9     -2424.171 9        55.468 9  21748741.414 8  89057423.048 8     -1888.966 8        50.968 8  21748743.987 9  85346704.003 9     -1810.259 9        57.568 9
G30  21862679.817 9 114889128.952 9     -2282.355 9        55.474 9  21862682.320 8  89523992.254 8     -1778.459 8        50.974 8  21862682.000 9  85793821.495 9     -1704.357 9        57.574 9
G15  21112582.751 9 110947345.516 9      2302.023 9        55.713 9  21112582.254 8  86452462.048 8      1793.785 8        51.213 8  21112584.689 9  82850282.878 9      1719.044 9        57.813 9
E05  23312899.494 9 122510092.732 9       358.402 9        57.977 9  23312899.494 9 122510092.732 9       358.402 9        57.977 9  23312902.019 9  91484806.986 9       267.638 9        57.837 9  23312902.019 9  91484806.986 9       267.638 9        57.837 9  23312901.839 9  93871367.892 9       274.619 9        57.837 9  23312901.839 9  93871367.892 9       274.619 9        57.837 9  23312901.928 9  92678087.441 9       271.128 9        60.847 9  23312901.928 9  92678087.441 9       271.128 9        60.847 9
E09  25220690.099 9 132535588.884 9     -2111.158 9        57.364 9  25220690.099 9 132535588.884 9     -2111.158 9        57.364 9  25220693.022 9  98971373.750 9     -1576.515 9        57.224 9  25220693.022 9  98971373.750 9     -1576.515 9        57.224 9  25220692.747 9 101553236.781 9     -1617.642 9        57.224 9  25220692.747 9 101553236.781 9     -1617.642 9        57.224 9  25220692.882 9 100262305.269 9     -1597.078 9        60.234 9  25220692.882 9 100262305.269 9     -1597.078 9        60.234 9
E13  28146698.081 9 147911850.128 9       322.977 9        56.288 9  28146698.081 9 147911850.128 9       322.977 9        56.288 9  28146701.765 9 110453641.162 9       241.184 9        56.148 9  28146701.765 9 110453641.162 9       241.184 9        56.148 9  28146701.366 9 113335042.105 9       247.476 9        56.148 9  28146701.366 9 113335042.105 9       247.476 9        56.148 9  28146701.562 9 111894341.639 9       244.330 9        59.159 9  28146701.562 9 111894341.639 9       244.330 9        59.159 9
E25  27069884.789 9 142253154.161 9      3139.526 9        56.724 9  27069884.789 9 142253154.161 9      3139.526 9        56.724 9  27069889.655 9 106227993.892 9      2344.453 9        56.585 9  27069889.655 9 106227993.892 9      2344.453 9        56.585 9  27069889.222 9 108999160.692 9      2405.613 9        56.585 9  27069889.222 9 108999160.692 9      2405.613 9        56.585 9  27069889.434 9 107613577.298 9      2375.033 9        59.595 9  27069889.434 9 107613577.298 9      2375.033 9        59.595 9
E31  24971412.994 9 131225632.049 9     -1559.846 9        57.421 9  24971412.994 9 131225632.049 9     -1559.846 9        57.421 9  24971416.174 9  97993162.131 9     -1164.821 9        57.281 9  24971416.174 9  97993162.131 9     -1164.821 9        57.281 9  24971415.926 9 100549506.489 9     -1195.208 9        57.281 9  24971415.926 9 100549506.489 9     -1195.208 9        57.281 9  24971416.048 9  99271334.314 9     -1180.014 9        60.292 9  24971416.048 9  99271334.314 9     -1180.014 9        60.292 9
E15  27830880.213 9 146252215.991 9     -1844.472 9        56.361 9  27830880.213 9 146252215.991 9     -1844.472 9        56.361 9  27830885.340 9 109214309.621 9     -1377.366 9        56.221 9  27830885.340 9 109214309.621 9     -1377.366 9        56.221 9  27830884.940 9 112063380.176 9     -1413.298 9        56.221 9  27830884.940 9 112063380.176 9     -1413.298 9        56.221 9  27830885.136 9 110638844.904 9     -1395.332 9        59.232 9  27830885.136 9 110638844.904 9     -1395.332 9        59.232 9
E03  26319070.252 9 138307613.053 9      2477.951 9        56.975 9  26319070.252 9 138307613.053 9      2477.951 9        56.975 9  26319073.752 9 103281652.320 9      1850.419 9        56.835 9  26319073.752 9 103281652.320 9      1850.419 9        56.835 9  26319073.455 9 105975957.487 9      1898.690 9        56.835 9  26319073.455 9 105975957.487 9      1898.690 9        56.835 9  26319073.600 9 104628804.907 9      1874.555 9        59.845 9  26319073.600 9 104628804.907 9      1874.555 9        59.845 9
E24  24081977.250 9 126551620.841 9      1234.731 9        57.797 9  24081977.250 9 126551620.841 9      1234.731 9        57.797 9  24081978.268 9  94502823.665 9       922.040 9        57.657 9  24081978.268 9  94502823.665 9       922.040 9        57.657 9  24081978.064 9  96968115.537 9       946.093 9        57.657 9  24081978.064 9  96968115.537 9       946.093 9        57.657 9  24081978.164 9  95735469.603 9       934.067 9        60.667 9  24081978.164 9  95735469.603 9       934.067 9        60.667 9
> 2023 01 08 10 00 29.0000000  0 20       0.000000000000
G08  25073345.668 9 131761270.231 9     -1507.997 9        54.230 9  25073349.774 8 102671110.982 8     -1175.063 8        49.730 8  25073349.485 9  98393141.363 9     -1126.102 9        56.330 9
G13  20025672.699 9 105235599.310 9       573.689 9        56.113 9  20025671.735 8  82001751.156 8       447.030 8        51.613 8  20025674.285 9  78585019.237 9       428.404 9        58.213 9
G17  24962709.148 9 131179839.156 9      2915.516 9        54.186 9  24962712.078 8 102218026.737 8      2271.834 8        49.686 8  24962715.398 9  97958946.271 9      2177.175 9        56.286 9
G24  24520006.071 9 128853449.561 9      3553.912 9        54.416 9  24520009.816 8 100405274.476 8      2769.284 8        49.916 8  24520009.999 9  96221716.404 9      2653.897 9        56.516 9
G07  24606337.934 9 129307117.817 9     -2996.027 9        54.355 9  24606339.507 8 100758768.909 8     -2334.569 8        49.855 8  24606342.521 9  96560492.057 9     -2237.296 9        56.455 9
G18  24770483.498 9 130169723.801 9     -1357.141 9        54.335 9  24770484.676 8 101430935.472 8     -1057.513 8        49.835 8  24770486.936 9  97204650.385 9     -1013.451 9        56.435 9
G20  23525461.925 9 123627085.487 9     -3641.999 9        54.723 9  23525463.460 8  96332774.287 8     -2837.924 8        50.223 8  23525465.801 9  92318912.266 9     -2719.678 9        56.823 9
G14  20963309.864 9 110162912.374 9       107.141 9        55.781 9  20963309.836 8  85841217.959 8        83.487 8        51.281 8  20963311.713 9  82264505.231 9        80.008 9        57.881 9
G23  24860266.705 9 130641539.527 9      3232.904 9        54.294 9  24860267.774 8 101798584.540 8      2519.148 8        49.794 8  24860270.009 9  97556980.839 9      2414.183 9        56.394 9
G05  21749203.090 9 114292804.530 9     -2424.128 9        55.468 9  21749202.715 8  89059311.989 8     -1888.932 8        50.968 8  21749205.287 9  85348514.238 9     -1810.227 9        57.568 9
G30  21863114.164 9 114891411.455 9     -2282.651 9        55.473 9  21863116.667 8  89525770.826 8     -1778.690 8        50.973 8  21863116.347 9  85795525.960 9     -1704.578 9        57.573 9
G15  21112144.804 9 110945044.091 9      2300.822 9        55.713 9  21112144.307 8  86450668.731 8      1792.849 8        51.213 8  21112146.742 9  82848564.282 9      1718.147 9        57.813 9
E05  23312831.335 9 122509734.555 9       357.951 9        57.977 9  23312831.335 9 122509734.555 9       357.951 9        57.977 9  23312833.861 9  91484539.516 9       267.301 9        57.837 9  23312833.861 9  91484539.516 9       267.301 9        57.837 9  23312833.681 9  93871093.445 9       274.274 9        57.837 9  23312833.681 9  93871093.445 9       274.274 9        57.837 9  23312833.769 9  92677816.483 9       270.787 9        60.847 9  23312833.769 9  92677816.483 9       270.787 9        60.847 9
E09  25221091.772 9 132537699.687 9     -2110.455 9        57.364 9  25221091.772 9 132537699.687 9     -2110.455 9        57.364 9  25221094.696 9  98972949.998 9     -1575.991 9        57.224 9  25221094.696 9  98972949.998 9     -1575.991 9        57.224 9  25221094.420 9 101554854.149 9     -1617.103 9        57.224 9  25221094.420 9 101554854.149 9     -1617.103 9        57.224 9  25221094.555 9 100263902.077 9     -1596.547 9        60.234 9  25221094.555 9 100263902.077 9     -1596.547 9        60.234 9
E13  28146636.812 9 147911528.156 9       320.970 9        56.288 9  28146636.812 9 147911528.156 9       320.970 9        56.288 9  28146640.496 9 110453400.729 9       239.685 9        56.148 9  28146640.496 9 110453400.729 9       239.685 9        56.148 9  28146640.097 9 113334795.399 9       245.938 9        56.148 9  28146640.097 9 113334795.399 9       245.938 9        56.148 9  28146640.292 9 111894098.069 9       242.812 9        59.159 9  28146640.292 9 111894098.069 9       242.812 9        59.159 9
E25  27069287.261 9 142250014.140 9      3140.515 9        56.725 9  27069287.261 9 142250014.140 9      3140.515 9        56.725 9  27069292.127 9 106225649.073 9      2345.192 9        56.585 9  27069292.127 9 106225649.073 9      2345.192 9        56.585 9  27069291.694 9 108996754.704 9      2406.370 9        56.585 9  27069291.694 9 108996754.704 9      2406.370 9        56.585 9  27069291.907 9 107611201.894 9      2375.781 9        59.595 9  27069291.907 9 107611201.894 9      2375.781 9        59.595 9
E31  24971709.879 9 131227192.191 9     -1560.434 9        57.421 9  24971709.879 9 131227192.191 9     -1560.434 9        57.421 9  24971713.060 9  97994327.172 9     -1165.260 9        57.281 9  24971713.060 9  97994327.172 9     -1165.260 9        57.281 9  24971712.812 9 100550701.922 9     -1195.658 9        57.281 9  24971712.812 9 100550701.922 9     -1195.658 9        57.281 9  24971712.934 9  99272514.550 9     -1180.459 9        60.292 9  24971712.934 9  99272514.550 9     -1180.459 9        60.292 9
E15  27831231.340 9 146254061.172 9     -1845.899 9        56.361 9  27831231.340 9 146254061.172 9     -1845.899 9        56.361 9  27831236.467 9 109215687.514 9     -1378.432 9        56.221 9  27831236.467 9 109215687.514 9     -1378.432 9        56.221 9  27831236.067 9 112064794.015 9     -1414.391 9        56.221 9  27831236.067 9 112064794.015 9     -1414.391 9        56.221 9  27831236.263 9 110640240.770 9     -1396.412 9        59.231 9  27831236.263 9 110640240.770 9     -1396.412 9        59.231 9
E03  26318598.824 9 138305135.684 9      2476.781 9        56.975 9  26318598.824 9 138305135.684 9      2476.781 9        56.975 9  26318602.323 9 103279802.337 9      1849.545 9        56.835 9  26318602.323 9 103279802.337 9      1849.545 9        56.835 9  26318602.027 9 105974059.244 9      1897.794 9        56.835 9  26318602.027 9 105974059.244 9      1897.794 9        56.835 9  26318602.172 9 104626930.795 9      1873.670 9        59.845 9  26318602.172 9 104626930.795 9      1873.670 9        59.845 9
E24  24081742.264 9 126550385.980 9      1234.992 9        57.797 9  24081742.264 9 126550385.980 9      1234.992 9        57.797 9  24081743.282 9  94501901.529 9       922.234 9        57.657 9  24081743.282 9  94501901.529 9       922.234 9        57.657 9  24081743.078 9  96967169.345 9       946.293 9        57.657 9  24081743.078 9  96967169.345 9       946.293 9        57.657 9  24081743.178 9  95734535.440 9       934.264 9        60.667 9  24081743.178 9  95734535.440 9       934.264 9        60.667 9
> 2023 01 08 10 00 30.0000000  0 20       0.000000000000
G08  25073632.778 9 131762779.004 9     -1509.526 9        54.230 9  25073636.884 8 102672286.650 8     -1176.254 8        49.730 8  25073636.595 9  98394268.044 9     -1127.243 9        56.330 9
G13  20025563.602 9 105235025.997 9       572.935 9        56.113 9  20025562.637 8  82001304.418 8       446.443 8        51.613 8  20025565.187 9  78584591.113 9       427.841 9        58.213 9
G17  24962154.226 9 131176923.035 9      2916.769 9        54.187 9  24962157.155 8 102215754.439 8      2272.810 8        49.687 8  24962160.475 9  97956768.653 9      2178.110 9        56.287 9
G24  24519329.821 9 128849895.846 9      3553.495 9        54.416 9  24519333.565 8 100402505.348 8      2768.958 8        49.916 8  24519333.748 9  96219062.656 9      2653.585 9        56.516 9
G07  24606908.054 9 129310113.805 9     -2995.950 9        54.355 9  24606909.628 8 100761103.443 8     -2334.509 8        49.855 8  24606912.642 9  96562729.317 9     -2237.239 9        56.455 9
G18  24770741.917 9 130171081.801 9     -1358.876 9        54.335 9  24770743.096 8 101431993.654 8     -1058.865 8        49.835 8  24770745.355 9  97205664.475 9     -1014.746 9        56.435 9
G20  23526154.879 9 123630726.971 9     -3641.008 9        54.723 9  23526156.415 8  96335611.804 8     -2837.152 8        50.223 8  23526158.755 9  92321631.553 9     -2718.938 9        56.823 9
G14  20963289.497 9 110162805.346 9       106.924 9        55.781 9  20963289.470 8  85841134.561 8        83.318 8        51.281 8  20963291.346 9  82264425.307 9        79.846 9        57.881 9
G23  24859651.674 9 130638307.520 9      3231.115 9        54.294 9  24859652.742 8 101796066.095 8      2517.753 8        49.794 8  24859654.977 9  97554567.330 9      2412.847 9        56.394 9
G05  21749664.388 9 114295228.666 9     -2424.171 9        55.468 9  21749664.013 8  89061200.926 8     -1888.965 8        50.968 8  21749666.586 9  85350324.469 9     -1810.258 9        57.568 9
G30  21863548.560 9 114893694.220 9     -2282.871 9        55.473 9  21863551.064 8  89527549.603 8     -1778.861 8        50.973 8  21863550.744 9  85797230.620 9     -1704.742 9        57.573 9
G15  21111707.090 9 110942743.888 9      2299.574 9        55.713 9  21111706.593 8  86448876.365 8      1791.876 8        51.213 8  21111709.027 9  82846846.599 9      1717.215 9        57.813 9
E05  23312763.264 9 122509376.838 9       357.479 9        57.977 9  23312763.264 9 122509376.838 9       357.479 9        57.977 9  23312765.789 9  91484272.390 9       266.949 9        57.837 9  23312765.789 9  91484272.390 9       266.949 9        57.837 9  23312765.610 9  93870819.350 9       273.913 9        57.837 9  23312765.610 9  93870819.350 9       273.913 9        57.837 9  23312765.698 9  92677545.872 9       270.431 9        60.847 9  23312765.698 9  92677545.872 9       270.431 9        60.847 9
E09  25221493.309 9 132539809.775 9     -2109.722 9        57.363 9  25221493.309 9 132539809.775 9     -2109.722 9        57.363 9  25221496.233 9  98974525.711 9     -1575.443 9        57.223 9  25221496.233 9  98974525.711 9     -1575.443 9        57.223 9  25221495.958 9 101556470.968 9     -1616.541 9        57.223 9  25221495.958 9 101556470.968 9     -1616.541 9        57.223 9  25221496.093 9 100265498.343 9     -1595.992 9        60.234 9  25221496.093 9 100265498.343 9     -1595.992 9        60.234 9
E13  28146575.922 9 147911208.180 9       318.990 9        56.288 9  28146575.922 9 147911208.180 9       318.990 9        56.288 9  28146579.606 9 110453161.786 9       238.207 9        56.148 9  28146579.606 9 110453161.786 9       238.207 9        56.148 9  28146579.207 9 113334550.223 9       244.421 9        56.148 9  28146579.207 9 113334550.223 9       244.421 9        56.148 9  28146579.403 9 111893856.010 9       241.314 9        59.159 9  28146579.403 9 111893856.010 9       241.314 9        59.159 9
E25  27068689.554 9 142246873.170 9      3141.415 9        56.725 9  27068689.554 9 142246873.170 9      3141.415 9        56.725 9  27068694.419 9 106223303.545 9      2345.864 9        56.585 9  27068694.419 9 106223303.545 9      2345.864 9        56.585 9  27068693.986 9 108994347.989 9      2407.060 9        56.585 9  27068693.986 9 108994347.989 9      2407.060 9        56.585 9  27068694.198 9 107608825.772 9      2376.462 9        59.595 9  27068694.198 9 107608825.772 9      2376.462 9        59.595 9
E31  24972006.870 9 131228752.888 9     -1560.946 9        57.421 9  24972006.870 9 131228752.888 9     -1560.946 9        57.421 9  24972010.051 9  97995492.626 9     -1165.642 9        57.281 9  24972010.051 9  97995492.626 9     -1165.642 9        57.281 9  24972009.803 9 100551897.780 9     -1196.050 9        57.281 9  24972009.803 9 100551897.780 9     -1196.050 9        57.281 9  24972009.925 9  99273695.206 9     -1180.846 9        60.292 9  24972009.925 9  99273695.206 9     -1180.846 9        60.292 9
E15  27831582.743 9 146255907.808 9     -1847.393 9        56.361 9  27831582.743 9 146255907.808 9     -1847.393 9        56.361 9  27831587.871 9 109217066.495 9     -1379.547 9        56.221 9  27831587.871 9 109217066.495 9     -1379.547 9        56.221 9  27831587.471 9 112066208.969 9     -1415.535 9        56.221 9  27831587.471 9 112066208.969 9     -1415.535 9        56.221 9  27831587.667 9 110641637.737 9     -1397.541 9        59.231 9  27831587.667 9 110641637.737 9     -1397.541 9        59.231 9
E03  26318127.623 9 138302659.508 9      2475.559 9        56.975 9  26318127.623 9 138302659.508 9      2475.559 9        56.975 9  26318131.122 9 103277953.245 9      1848.632 9        56.835 9  26318131.122 9 103277953.245 9      1848.632 9        56.835 9  26318130.826 9 105972161.915 9      1896.857 9        56.835 9  26318130.826 9 105972161.915 9      1896.857 9        56.835 9  26318130.971 9 104625057.584 9      1872.745 9        59.845 9  26318130.971 9 104625057.584 9      1872.745 9        59.845 9
E24  24081507.229 9 126549150.864 9      1235.242 9        57.797 9  24081507.229 9 126549150.864 9      1235.242 9        57.797 9  24081508.247 9  94500979.202 9       922.421 9        57.657 9  24081508.247 9  94500979.202 9       922.421 9        57.657 9  24081508.043 9  96966222.958 9       946.484 9        57.657 9  24081508.043 9  96966222.958 9       946.484 9        57.657 9  24081508.143 9  95733601.083 9       934.452 9        60.667 9  24081508.143 9  95733601.083 9       934.452 9        60.667 9
> 2023 01 08 10 00 31.0000000  0 20       0.000000000000
G08  25073920.172 9 131764289.272 9     -1510.984 9        54.230 9  25073924.278 8 102673463.482 8     -1177.390 8        49.730 8  25073923.989 9  98395395.842 9     -1128.332 9        56.330 9
G13  20025454.647 9 105234453.434 9       572.188 9        56.113 9  20025453.682 8  82000858.265 8       445.860 8        51.613 8  20025456.232 9  78584163.550 9       427.283 9        58.213 9
G17  24961599.062 9 131174005.643 9      2918.057 9        54.187 9  24961601.990 8 102213481.149 8      2273.814 8        49.687 8  24961605.310 9  97954590.085 9      2179.073 9        56.287 9
G24  24518653.657 9 128846342.586 9      3552.998 9        54.416 9  24518657.401 8 100399736.576 8      2768.571 8        49.916 8  24518657.584 9  96216409.250 9      2653.214 9        56.516 9
G07  24607478.151 9 129313109.675 9     -2995.789 9        54.355 9  24607479.726 8 100763437.884 8     -2334.384 8        49.855 8  24607482.740 9  96564966.490 9     -2237.118 9        56.455 9
G18  24771000.671 9 130172441.557 9     -1360.652 9        54.335 9  24771001.849 8 101433053.203 8     -1060.249 8        49.835 8  24771004.109 9  97206679.877 9     -1016.072 9        56.435 9
G20  23526847.648 9 123634367.487 9     -3640.066 9        54.722 9  23526849.184 8  96338448.567 8     -2836.418 8        50.222 8  23526851.525 9  92324350.117 9     -2718.234 9        56.822 9
G14  20963269.168 9 110162698.513 9       106.750 9        55.781 9  20963269.140 8  85841051.315 8        83.182 8        51.281 8  20963271.017 9  82264345.530 9        79.716 9        57.881 9
G23  24859036.983 9 130635077.305 9      3229.324 9        54.294 9  24859038.051 8 101793549.046 8      2516.358 8        49.794 8  24859040.286 9  97552155.158 9      2411.510 9        56.394 9
G05  21750125.699 9 114297652.868 9     -2424.261 9        55.468 9  21750125.325 8  89063089.913 8     -1889.035 8        50.968 8  21750127.898 9  85352134.748 9     -1810.326 9        57.568 9
G30  21863982.992 9 114895977.172 9     -2283.023 9        55.473 9  21863985.496 8  89529328.526 8     -1778.980 8        50.973 8  21863985.176 9  85798935.421 9     -1704.856 9        57.573 9
G15  21111269.615 9 110940444.944 9      2298.305 9        55.713 9  21111269.118 8  86447084.980 8      1790.888 8        51.213 8  21111271.552 9  82845129.855 9      1716.267 9        57.813 9
E05  23312695.282 9 122509019.590 9       357.013 9        57.977 9  23312695.282 9 122509019.590 9       357.013 9        57.977 9  23312697.807 9  91484005.613 9       266.600 9        57.837 9  23312697.807 9  91484005.613 9       266.600 9        57.837 9  23312697.628 9  93870545.614 9       273.555 9        57.837 9  23312697.628 9  93870545.614 9       273.555 9        57.837 9  23312697.716 9  92677275.616 9       270.078 9        60.847 9  23312697.716 9  92677275.616 9       270.078 9        60.847 9
E09  25221894.703 9 132541919.110 9     -2108.953 9        57.363 9  25221894.703 9 132541919.110 9     -2108.953 9        57.363 9  25221897.627 9  98976100.862 9     -1574.869 9        57.223 9  25221897.627 9  98976100.862 9     -1574.869 9        57.223 9  25221897.352 9 101558087.211 9     -1615.952 9        57.223 9  25221897.352 9 101558087.211 9     -1615.952 9        57.223 9  25221897.487 9 100267094.040 9     -1595.410 9        60.234 9  25221897.487 9 100267094.040 9     -1595.410 9        60.234 9
E13  28146515.408 9 147910890.175 9       317.031 9        56.288 9  28146515.408 9 147910890.175 9       317.031 9        56.288 9  28146519.092 9 110452924.315 9       236.744 9        56.148 9  28146519.092 9 110452924.315 9       236.744 9        56.148 9  28146518.693 9 113334306.557 9       242.920 9        56.148 9  28146518.693 9 113334306.557 9       242.920 9        56.148 9  28146518.888 9 111893615.441 9       239.832 9        59.159 9  28146518.888 9 111893615.441 9       239.832 9        59.159 9
E25  27068091.680 9 142243731.327 9      3142.257 9        56.725 9  27068091.680 9 142243731.327 9      3142.257 9        56.725 9  27068096.544 9 106220957.365 9      2346.492 9        56.585 9  27068096.544 9 106220957.365 9      2346.492 9        56.585 9  27068096.112 9 108991940.604 9      2407.705 9        56.585 9  27068096.112 9 108991940.604 9      2407.705 9        56.585 9  27068096.324 9 107606448.990 9      2377.099 9        59.595 9  27068096.324 9 107606448.990 9      2377.099 9        59.595 9
E31  24972303.952 9 131230314.062 9     -1561.388 9        57.421 9  24972303.952 9 131230314.062 9     -1561.388 9        57.421 9  24972307.133 9  97996658.437 9     -1165.972 9        57.281 9  24972307.133 9  97996658.437 9     -1165.972 9        57.281 9  24972306.885 9 100553094.004 9     -1196.389 9        57.281 9  24972306.885 9 100553094.004 9     -1196.389 9        57.281 9  24972307.007 9  99274876.224 9     -1181.181 9        60.291 9  24972307.007 9  99274876.224 9     -1181.181 9        60.291 9
E15  27831934.436 9 146257755.961 9     -1848.932 9        56.361 9  27831934.436 9 146257755.961 9     -1848.932 9        56.361 9  27831939.563 9 109218446.609 9     -1380.697 9        56.221 9  27831939.563 9 109218446.609 9     -1380.697 9        56.221 9  27831939.164 9 112067625.086 9     -1416.715 9        56.221 9  27831939.164 9 112067625.086 9     -1416.715 9        56.221 9  27831939.360 9 110643035.852 9     -1398.706 9        59.231 9  27831939.360 9 110643035.852 9     -1398.706 9        59.231 9
E03  26317656.658 9 138300184.571 9      2474.306 9        56.975 9  26317656.658 9 138300184.571 9      2474.306 9        56.975 9  26317660.157 9 103276105.079 9      1847.697 9        56.835 9  26317660.157 9 103276105.079 9      1847.697 9        56.835 9  26317659.860 9 105970265.535 9      1895.897 9        56.835 9  26317659.860 9 105970265.535 9      1895.897 9        56.835 9  26317660.006 9 104623185.311 9      1871.797 9        59.845 9  26317660.006 9 104623185.311 9      1871.797 9        59.845 9
E24  24081272.145 9 126547915.492 9      1235.501 9        57.797 9  24081272.145 9 126547915.492 9      1235.501 9        57.797 9  24081273.163 9  94500056.685 9       922.614 9        57.657 9  24081273.163 9  94500056.685 9       922.614 9        57.657 9  24081272.960 9  96965276.374 9       946.683 9        57.657 9  24081272.960 9  96965276.374 9       946.683 9        57.657 9  24081273.059 9  95732666.532 9       934.648 9        60.667 9  24081273.059 9  95732666.532 9       934.648 9        60.667 9
> 2023 01 08 10 00 32.0000000  0 20       0.000000000000
G08  25074207.834 9 131765800.946 9     -1512.342 9        54.230 9  25074211.940 8 102674641.410 8     -1178.448 8        49.730 8  25074211.651 9  98396524.690 9     -1129.346 9        56.330 9
G13  20025345.835 9 105233881.627 9       571.436 9        56.113 9  20025344.870 8  82000412.701 8       445.275 8        51.613 8  20025347.421 9  78583736.551 9       426.722 9        58.213 9
G17  24961043.649 9 131171086.941 9      2919.391 9        54.187 9  24961046.576 8 102211206.839 8      2274.853 8        49.687 8  24961049.896 9  97952410.538 9      2180.068 9        56.287 9
G24  24517977.599 9 128842789.881 9      3552.392 9        54.416 9  24517981.343 8 100396968.235 8      2768.099 8        49.916 8  24517981.525 9  96213756.257 9      2652.762 9        56.516 9
G07  24608048.206 9 129316105.325 9     -2995.513 9        54.354 9  24608049.782 8 100765772.154 8     -2334.169 8        49.854 8  24608052.796 9  96567203.498 9     -2236.913 9        56.454 9
G18  24771259.767 9 130173803.117 9     -1362.481 9        54.335 9  24771260.946 8 101434114.158 8     -1061.674 8        49.835 8  24771263.206 9  97207696.625 9     -1017.438 9        56.435 9
G20  23527540.247 9 123638007.105 9     -3639.203 9        54.722 9  23527541.783 8  96341284.631 8     -2835.745 8        50.222 8  23527544.124 9  92327068.010 9     -2717.590 9        56.822 9
G14  20963248.868 9 110162591.837 9       106.621 9        55.781 9  20963248.840 8  85840968.190 8        83.081 8        51.281 8  20963250.717 9  82264265.869 9        79.619 9        57.881 9
G23  24858422.633 9 130631848.881 9      3227.533 9        54.294 9  24858423.701 8 101791033.392 8      2514.962 8        49.794 8  24858425.936 9  97549744.323 9      2410.172 9        56.394 9
G05  21750587.036 9 114300077.206 9     -2424.430 9        55.468 9  21750586.662 8  89064979.007 8     -1889.167 8        50.968 8  21750589.235 9  85353945.129 9     -1810.452 9        57.568 9
G30  21864417.446 9 114898260.237 9     -2283.093 9        55.473 9  21864419.950 8  89531107.537 8     -1779.034 8        50.973 8  21864419.630 9  85800640.306 9     -1704.908 9        57.573 9
G15  21110832.386 9 110938147.292 9      2296.999 9        55.713 9  21110831.889 8  86445294.603 8      1789.870 8        51.213 8  21110834.323 9  82843414.077 9      1715.292 9        57.813 9
E05  23312627.391 9 122508662.819 9       356.537 9        57.977 9  23312627.391 9 122508662.819 9       356.537 9        57.977 9  23312629.916 9  91483739.193 9       266.245 9        57.837 9  23312629.916 9  91483739.193 9       266.245 9        57.837 9  23312629.737 9  93870272.244 9       273.190 9        57.837 9  23312629.737 9  93870272.244 9       273.190 9        57.837 9  23312629.825 9  92677005.721 9       269.718 9        60.847 9  23312629.825 9  92677005.721 9       269.718 9        60.847 9
E09  25222295.948 9 132544027.663 9     -2108.149 9        57.363 9  25222295.948 9 132544027.663 9     -2108.149 9        57.363 9  25222298.873 9  98977675.430 9     -1574.268 9        57.223 9  25222298.873 9  98977675.430 9     -1574.268 9        57.223 9  25222298.597 9 101559702.854 9     -1615.336 9        57.223 9  25222298.597 9 101559702.854 9     -1615.336 9        57.223 9  25222298.732 9 100268689.146 9     -1594.802 9        60.234 9  25222298.732 9 100268689.146 9     -1594.802 9        60.234 9
E13  28146455.263 9 147910574.111 9       315.105 9        56.288 9  28146455.263 9 147910574.111 9       315.105 9        56.288 9  28146458.947 9 110452688.293 9       235.306 9        56.148 9  28146458.947 9 110452688.293 9       235.306 9        56.148 9  28146458.547 9 113334064.378 9       241.444 9        56.148 9  28146458.547 9 113334064.378 9       241.444 9        56.148 9  28146458.743 9 111893376.341 9       238.375 9        59.159 9  28146458.743 9 111893376.341 9       238.375 9        59.159 9
E25  27067493.655 9 142240588.691 9      3143.011 9        56.725 9  27067493.655 9 142240588.691 9      3143.011 9        56.725 9  27067498.519 9 106218610.593 9      2347.055 9        56.585 9  27067498.519 9 106218610.593 9      2347.055 9        56.585 9  27067498.086 9 108989532.612 9      2408.282 9        56.585 9  27067498.086 9 108989532.612 9      2408.282 9        56.585 9  27067498.298 9 107604071.608 9      2377.669 9        59.596 9  27067498.298 9 107604071.608 9      2377.669 9        59.596 9
E31  24972601.111 9 131231875.638 9     -1561.746 9        57.421 9  24972601.111 9 131231875.638 9     -1561.746 9        57.421 9  24972604.292 9  97997824.549 9     -1166.239 9        57.281 9  24972604.292 9  97997824.549 9     -1166.239 9        57.281 9  24972604.044 9 100554290.535 9     -1196.663 9        57.281 9  24972604.044 9 100554290.535 9     -1196.663 9        57.281 9  24972604.166 9  99276057.545 9     -1181.451 9        60.291 9  24972604.166 9  99276057.545 9     -1181.451 9        60.291 9
E15  27832286.427 9 146259605.686 9     -1850.533 9        56.361 9  27832286.427 9 146259605.686 9     -1850.533 9        56.361 9  27832291.555 9 109219827.896 9     -1381.892 9        56.221 9  27832291.555 9 109219827.896 9     -1381.892 9        56.221 9  27832291.155 9 112069042.407 9     -1417.942 9        56.221 9  27832291.155 9 112069042.407 9     -1417.942 9        56.221 9  27832291.351 9 110644435.156 9     -1399.917 9        59.231 9  27832291.351 9 110644435.156 9     -1399.917 9        59.231 9
E03  26317185.936 9 138297710.912 9      2473.008 9        56.975 9  26317185.936 9 138297710.912 9      2473.008 9        56.975 9  26317189.434 9 103274257.866 9      1846.727 9        56.835 9  26317189.434 9 103274257.866 9      1846.727 9        56.835 9  26317189.138 9 105968370.135 9      1894.903 9        56.835 9  26317189.138 9 105968370.135 9      1894.903 9        56.835 9  26317189.283 9 104621314.004 9      1870.815 9        59.846 9  26317189.283 9 104621314.004 9      1870.815 9        59.846 9
E24  24081037.014 9 126546679.869 9      1235.757 9        57.797 9  24081037.014 9 126546679.869 9      1235.757 9        57.797 9  24081038.032 9  94499133.980 9       922.806 9        57.657 9  24081038.032 9  94499133.980 9       922.806 9        57.657 9  24081037.828 9  96964329.598 9       946.879 9        57.657 9  24081037.828 9  96964329.598 9       946.879 9        57.657 9  24081037.928 9  95731731.792 9       934.842 9        60.667 9  24081037.928 9  95731731.792 9       934.842 9        60.667 9
> 2023 01 08 10 00 33.0000000  0 20       0.000000000000
G08  25074495.745 9 131767313.931 9     -1513.609 9        54.230 9  25074499.852 8 102675820.359 8     -1179.435 8        49.730 8  25074499.562 9  98397654.516 9     -1130.292 9        56.330 9
G13  20025237.168 9 105233310.577 9       570.666 9        56.113 9  20025236.203 8  81999967.727 8       444.675 8        51.613 8  20025238.754 9  78583310.118 9       426.147 9        58.213 9
G17  24960487.981 9 131168166.897 9      2920.739 9        54.187 9  24960490.907 8 102208931.484 8      2275.904 8        49.687 8  24960494.227 9  97950229.990 9      2181.075 9        56.287 9
G24  24517301.664 9 128839237.825 9      3551.700 9        54.417 9  24517305.408 8 100394200.401 8      2767.560 8        49.917 8  24517305.590 9  96211103.749 9      2652.245 9        56.517 9
G07  24608618.201 9 129319100.656 9     -2995.153 9        54.354 9  24608619.777 8 100768106.175 8     -2333.889 8        49.854 8  24608622.791 9  96569440.268 9     -2236.644 9        56.454 9
G18  24771519.215 9 130175166.520 9     -1364.339 9        54.335 9  24771520.394 8 101435176.549 8     -1063.122 8        49.835 8  24771522.654 9  97208714.750 9     -1018.825 9        56.435 9
G20  23528232.689 9 123641645.903 9     -3638.425 9        54.722 9  23528234.226 8  96344120.055 8     -2835.139 8        50.222 8  23528236.568 9  92329785.291 9     -2717.009 9        56.822 9
G14  20963228.591 9 110162485.282 9       106.503 9        55.781 9  20963228.564 8  85840885.160 8        82.989 8        51.281 8  20963230.440 9  82264186.298 9        79.532 9        57.881 9
G23  24857808.623 9 130628622.237 9      3225.761 9        54.294 9  24857809.690 8 101788519.125 8      2513.581 8        49.794 8  24857811.924 9  97547334.818 9      2408.849 9        56.394 9
G05  21751048.413 9 114302501.754 9     -2424.683 9        55.467 9  21751048.039 8  89066868.264 8     -1889.364 8        50.967 8  21751050.612 9  85355755.667 9     -1810.641 9        57.567 9
G30  21864851.907 9 114900543.343 9     -2283.112 9        55.473 9  21864854.412 8  89532886.580 8     -1779.049 8        50.973 8  21864854.092 9  85802345.222 9     -1704.922 9        57.573 9
G15  21110395.408 9 110935850.961 9      2295.660 9        55.714 9  21110394.911 8  86443505.254 8      1788.826 8        51.214 8  21110397.346 9  82841699.284 9      1714.292 9        57.814 9
E05  23312559.592 9 122508306.533 9       356.037 9        57.977 9  23312559.592 9 122508306.533 9       356.037 9        57.977 9  23312562.117 9  91483473.135 9       265.872 9        57.837 9  23312562.117 9  91483473.135 9       265.872 9        57.837 9  23312561.938 9  93869999.245 9       272.807 9        57.837 9  23312561.938 9  93869999.245 9       272.807 9        57.837 9  23312562.026 9  92676736.193 9       269.339 9        60.847 9  23312562.026 9  92676736.193 9       269.339 9        60.847 9
E09  25222697.040 9 132546135.410 9     -2107.344 9        57.363 9  25222697.040 9 132546135.410 9     -2107.344 9        57.363 9  25222699.965 9  98979249.395 9     -1573.668 9        57.223 9  25222699.965 9  98979249.395 9     -1573.668 9        57.223 9  25222699.689 9 101561317.880 9     -1614.720 9        57.223 9  25222699.689 9 101561317.880 9     -1614.720 9        57.223 9  25222699.824 9 100270283.641 9     -1594.194 9        60.233 9  25222699.824 9 100270283.641 9     -1594.194 9        60.233 9
E13  28146395.480 9 147910259.949 9       313.225 9        56.288 9  28146395.480 9 147910259.949 9       313.225 9        56.288 9  28146399.164 9 110452453.692 9       233.902 9        56.149 9  28146399.164 9 110452453.692 9       233.902 9        56.149 9  28146398.764 9 113333823.657 9       240.004 9        56.149 9  28146398.764 9 113333823.657 9       240.004 9        56.149 9  28146398.960 9 111893138.680 9       236.953 9        59.159 9  28146398.960 9 111893138.680 9       236.953 9        59.159 9
E25  27066895.495 9 142237445.348 9      3143.673 9        56.725 9  27066895.495 9 142237445.348 9      3143.673 9        56.725 9  27066900.359 9 106216263.293 9      2347.549 9        56.586 9  27066900.359 9 106216263.293 9      2347.549 9        56.586 9  27066899.926 9 108987124.077 9      2408.790 9        56.586 9  27066899.926 9 108987124.077 9      2408.790 9        56.586 9  27066900.138 9 107601693.691 9      2378.170 9        59.596 9  27066900.138 9 107601693.691 9      2378.170 9        59.596 9
E31  24972898.332 9 131233437.541 9     -1562.048 9        57.421 9  24972898.332 9 131233437.541 9     -1562.048 9        57.421 9  24972901.513 9  97998990.904 9     -1166.465 9        57.281 9  24972901.513 9  97998990.904 9     -1166.465 9        57.281 9  24972901.265 9 100555487.318 9     -1196.894 9        57.281 9  24972901.265 9 100555487.318 9     -1196.894 9        57.281 9  24972901.387 9  99277239.114 9     -1181.680 9        60.291 9  24972901.387 9  99277239.114 9     -1181.680 9        60.291 9
E15  27832638.727 9 146261457.029 9     -1852.169 9        56.361 9  27832638.727 9 146261457.029 9     -1852.169 9        56.361 9  27832643.855 9 109221210.391 9     -1383.114 9        56.221 9  27832643.855 9 109221210.391 9     -1383.114 9        56.221 9  27832643.455 9 112070460.967 9     -1419.195 9        56.221 9  27832643.455 9 112070460.967 9     -1419.195 9        56.221 9  27832643.651 9 110645835.684 9     -1401.154 9        59.231 9  27832643.651 9 110645835.684 9     -1401.154 9        59.231 9
E03  26316715.463 9 138295238.564 9      2471.681 9        56.975 9  26316715.463 9 138295238.564 9      2471.681 9        56.975 9  26316718.962 9 103272411.633 9      1845.737 9        56.835 9  26316718.962 9 103272411.633 9      1845.737 9        56.835 9  26316718.665 9 105966475.739 9      1893.886 9        56.835 9  26316718.665 9 105966475.739 9      1893.886 9        56.835 9  26316718.810 9 104619443.690 9      1869.812 9        59.846 9  26316718.810 9 104619443.690 9      1869.812 9        59.846 9
E24  24080801.836 9 126545444.003 9      1235.983 9        57.797 9  24080801.836 9 126545444.003 9      1235.983 9        57.797 9  24080802.854 9  94498211.093 9       922.974 9        57.657 9  24080802.854 9  94498211.093 9       922.974 9        57.657 9  24080802.650 9  96963382.636 9       947.052 9        57.657 9  24080802.650 9  96963382.636 9       947.052 9        57.657 9  24080802.750 9  95730796.867 9       935.013 9        60.667 9  24080802.750 9  95730796.867 9       935.013 9        60.667 9
> 2023 01 08 10 00 34.0000000  0 20       0.000000000000
G08  25074783.888 9 131768828.130 9     -1514.774 9        54.230 9  25074787.994 8 102677000.255 8     -1180.343 8        49.730 8  25074787.705 9  98398785.250 9     -1131.162 9        56.330 9
G13  20025128.645 9 105232740.285 9       569.905 9        56.113 9  20025127.681 8  81999523.344 8       444.081 8        51.613 8  20025130.231 9  78582884.250 9       425.578 9        58.213 9
G17  24959932.053 9 131165245.489 9      2922.107 9        54.187 9  24959934.978 8 102206655.065 8      2276.970 8        49.687 8  24959938.298 9  97948048.423 9      2182.097 9        56.287 9
G24  24516625.871 9 128835686.510 9      3550.918 9        54.417 9  24516629.614 8 100391433.144 8      2766.950 8        49.917 8  24516629.796 9  96208451.795 9      2651.661 9        56.517 9
G07  24609188.116 9 129322095.572 9     -2994.694 9        54.354 9  24609189.693 8 100770439.873 8     -2333.530 8        49.854 8  24609192.708 9  96571676.727 9     -2236.301 9        56.454 9
G18  24771779.019 9 130176531.799 9     -1366.225 9        54.334 9  24771780.199 8 101436240.403 8     -1064.592 8        49.834 8  24771782.459 9  97209734.276 9     -1020.234 9        56.434 9
G20  23528924.990 9 123645283.961 9     -3637.731 9        54.722 9  23528926.529 8  96346954.903 8     -2834.598 8        50.222 8  23528928.870 9  92332502.020 9     -2716.491 9        56.822 9
G14  20963208.331 9 110162378.813 9       106.425 9        55.781 9  20963208.303 8  85840802.197 8        82.929 8        51.281 8  20963210.180 9  82264106.792 9        79.473 9        57.881 9
G23  24857194.947 9 130625397.357 9      3224.013 9        54.295 9  24857196.014 8 101786006.233 8      2512.219 8        49.795 8  24857198.249 9  97544926.630 9      2407.543 9        56.395 9
G05  21751509.844 9 114304926.585 9     -2425.007 9        55.467 9  21751509.470 8  89068757.741 8     -1889.617 8        50.967 8  21751512.043 9  85357566.416 9     -1810.883 9        57.567 9
G30  21865286.363 9 114902826.420 9     -2283.052 9        55.473 9  21865288.868 8  89534665.600 8     -1779.003 8        50.973 8  21865288.548 9  85804050.116 9     -1704.878 9        57.573 9
G15  21109958.686 9 110933555.973 9      2294.306 9        55.714 9  21109958.189 8  86441716.953 8      1787.771 8        51.214 8  21109960.623 9  82839985.496 9      1713.281 9        57.814 9
E05  23312491.887 9 122507950.738 9       355.539 9        57.977 9  23312491.887 9 122507950.738 9       355.539 9        57.977 9  23312494.412 9  91483207.444 9       265.500 9        57.837 9  23312494.412 9  91483207.444 9       265.500 9        57.837 9  23312494.232 9  93869726.623 9       272.426 9        57.837 9  23312494.232 9  93869726.623 9       272.426 9        57.837 9  23312494.320 9  92676467.036 9       268.963 9        60.847 9  23312494.320 9  92676467.036 9       268.963 9        60.847 9
E09  25223097.974 9 132548242.330 9     -2106.518 9        57.363 9  25223097.974 9 132548242.330 9     -2106.518 9        57.363 9  25223100.899 9  98980822.744 9     -1573.051 9        57.223 9  25223100.899 9  98980822.744 9     -1573.051 9        57.223 9  25223100.624 9 101562932.272 9     -1614.087 9        57.223 9  25223100.624 9 101562932.272 9     -1614.087 9        57.223 9  25223100.759 9 100271877.512 9     -1593.569 9        60.233 9  25223100.759 9 100271877.512 9     -1593.569 9        60.233 9
E13  28146336.050 9 147909947.645 9       311.396 9        56.288 9  28146336.050 9 147909947.645 9       311.396 9        56.288 9  28146339.734 9 110452220.478 9       232.536 9        56.149 9  28146339.734 9 110452220.478 9       232.536 9        56.149 9  28146339.335 9 113333584.359 9       238.602 9        56.149 9  28146339.335 9 113333584.359 9       238.602 9        56.149 9  28146339.530 9 111892902.424 9       235.569 9        59.159 9  28146339.530 9 111892902.424 9       235.569 9        59.159 9
E25  27066297.217 9 142234301.384 9      3144.244 9        56.726 9  27066297.217 9 142234301.384 9      3144.244 9        56.726 9  27066302.081 9 106213915.530 9      2347.976 9        56.586 9  27066302.081 9 106213915.530 9      2347.976 9        56.586 9  27066301.648 9 108984715.068 9      2409.228 9        56.586 9  27066301.648 9 108984715.068 9      2409.228 9        56.586 9  27066301.860 9 107599315.304 9      2378.602 9        59.596 9  27066301.860 9 107599315.304 9      2378.602 9        59.596 9
E31  24973195.600 9 131234999.696 9     -1562.267 9        57.421 9  24973195.600 9 131234999.696 9     -1562.267 9        57.421 9  24973198.782 9  98000157.448 9     -1166.629 9        57.281 9  24973198.782 9  98000157.448 9     -1166.629 9        57.281 9  24973198.534 9 100556684.293 9     -1197.063 9        57.281 9  24973198.534 9 100556684.293 9     -1197.063 9        57.281 9  24973198.656 9  99278420.874 9     -1181.846 9        60.291 9  24973198.656 9  99278420.874 9     -1181.846 9        60.291 9
E15  27832991.342 9 146263310.031 9     -1853.841 9        56.361 9  27832991.342 9 146263310.031 9     -1853.841 9        56.361 9  27832996.470 9 109222594.125 9     -1384.362 9        56.221 9  27832996.470 9 109222594.125 9     -1384.362 9        56.221 9  27832996.070 9 112071880.799 9     -1420.476 9        56.221 9  27832996.070 9 112071880.799 9     -1420.476 9        56.221 9  27832996.266 9 110647237.467 9     -1402.419 9        59.231 9  27832996.266 9 110647237.467 9     -1402.419 9        59.231 9
E03  26316245.245 9 138292767.553 9      2470.336 9        56.975 9  26316245.245 9 138292767.553 9      2470.336 9        56.975 9  26316248.743 9 103270566.398 9      1844.732 9        56.836 9  26316248.743 9 103270566.398 9      1844.732 9        56.836 9  26316248.447 9 105964582.367 9      1892.855 9        56.836 9  26316248.447 9 105964582.367 9      1892.855 9        56.836 9  26316248.592 9 104617574.387 9      1868.794 9        59.846 9  26316248.592 9 104617574.387 9      1868.794 9        59.846 9
E24  24080566.614 9 126544207.903 9      1236.203 9        57.797 9  24080566.614 9 126544207.903 9      1236.203 9        57.797 9  24080567.632 9  94497288.031 9       923.139 9        57.657 9  24080567.632 9  94497288.031 9       923.139 9        57.657 9  24080567.428 9  96962435.495 9       947.220 9        57.657 9  24080567.428 9  96962435.495 9       947.220 9        57.657 9  24080567.528 9  95729861.766 9       935.180 9        60.668 9  24080567.528 9  95729861.766 9       935.180 9        60.668 9
> 2023 01 08 10 00 35.0000000  0 20       0.000000000000
G08  25075072.243 9 131770343.446 9     -1515.841 9        54.230 9  25075076.349 8 102678181.021 8     -1181.175 8        49.730 8  25075076.059 9  98399916.817 9     -1131.959 9        56.330 9
G13  20025020.267 9 105232170.752 9       569.153 9        56.113 9  20025019.302 8  81999079.552 8       443.495 8        51.613 8  20025021.852 9  78582458.949 9       425.016 9        58.213 9
G17  24959375.862 9 131162322.699 9      2923.497 9        54.187 9  24959378.786 8 102204377.570 8      2278.053 8        49.687 8  24959382.106 9  97945865.824 9      2183.135 9        56.287 9
G24  24515950.234 9 128832136.023 9      3550.049 9        54.417 9  24515953.978 8 100388666.531 8      2766.273 8        49.917 8  24515954.160 9  96205800.458 9      2651.012 9        56.517 9
G07  24609757.935 9 129325089.979 9     -2994.139 9        54.354 9  24609759.513 8 100772773.174 8     -2333.098 8        49.854 8  24609762.527 9  96573912.807 9     -2235.887 9        56.454 9
G18  24772039.186 9 130177898.981 9     -1368.139 9        54.334 9  24772040.365 8 101437305.739 8     -1066.083 8        49.834 8  24772042.625 9  97210755.223 9     -1021.663 9        56.434 9
G20  23529617.167 9 123648921.363 9     -3637.114 9        54.721 9  23529618.706 8  96349789.239 8     -2834.118 8        50.221 8  23529621.047 9  92335218.258 9     -2716.030 9        56.821 9
G14  20963188.082 9 110162272.403 9       106.386 9        55.781 9  20963188.054 8  85840719.280 8        82.898 8        51.281 8  20963189.931 9  82264027.330 9        79.444 9        57.881 9
G23  24856581.603 9 130622174.218 9      3222.285 9        54.295 9  24856582.669 8 101783494.697 8      2510.873 8        49.795 8  24856584.904 9  97542519.741 9      2406.254 9        56.395 9
G05  21751971.343 9 114307351.774 9     -2425.397 9        55.467 9  21751970.969 8  89070647.498 8     -1889.921 8        50.967 8  21751973.543 9  85359377.433 9     -1811.174 9        57.567 9
G30  21865720.801 9 114905109.400 9     -2282.918 9        55.472 9  21865723.305 8  89536444.544 8     -1778.898 8        50.972 8  21865722.986 9  85805754.938 9     -1704.778 9        57.572 9
G15  21109522.224 9 110931262.349 9      2292.939 9        55.714 9  21109521.726 8  86439929.713 8      1786.706 8        51.214 8  21109524.161 9  82838272.725 9      1712.260 9        57.814 9
E05  23312424.276 9 122507595.440 9       355.045 9        57.977 9  23312424.276 9 122507595.440 9       355.045 9        57.977 9  23312426.801 9  91482942.125 9       265.131 9        57.837 9  23312426.801 9  91482942.125 9       265.131 9        57.837 9  23312426.622 9  93869454.382 9       272.047 9        57.837 9  23312426.622 9  93869454.382 9       272.047 9        57.837 9  23312426.710 9  92676198.256 9       268.589 9        60.847 9  23312426.710 9  92676198.256 9       268.589 9        60.847 9
E09  25223498.749 9 132550348.413 9     -2105.669 9        57.363 9  25223498.749 9 132550348.413 9     -2105.669 9        57.363 9  25223501.675 9  98982395.467 9     -1572.417 9        57.223 9  25223501.675 9  98982395.467 9     -1572.417 9        57.223 9  25223501.399 9 101564546.023 9     -1613.436 9        57.223 9  25223501.399 9 101564546.023 9     -1613.436 9        57.223 9  25223501.534 9 100273470.748 9     -1592.926 9        60.233 9  25223501.534 9 100273470.748 9     -1592.926 9        60.233 9
E13  28146276.964 9 147909637.147 9       309.616 9        56.288 9  28146276.964 9 147909637.147 9       309.616 9        56.288 9  28146280.648 9 110451988.613 9       231.207 9        56.149 9  28146280.648 9 110451988.613 9       231.207 9        56.149 9  28146280.249 9 113333346.445 9       237.238 9        56.149 9  28146280.249 9 113333346.445 9       237.238 9        56.149 9  28146280.444 9 111892667.534 9       234.222 9        59.159 9  28146280.444 9 111892667.534 9       234.222 9        59.159 9
E25  27065698.839 9 142231156.891 9      3144.731 9        56.726 9  27065698.839 9 142231156.891 9      3144.731 9        56.726 9  27065703.702 9 106211567.371 9      2348.340 9        56.586 9  27065703.702 9 106211567.371 9      2348.340 9        56.586 9  27065703.270 9 108982305.653 9      2409.601 9        56.586 9  27065703.270 9 108982305.653 9      2409.601 9        56.586 9  27065703.482 9 107596936.518 9      2378.970 9        59.596 9  27065703.482 9 107596936.518 9      2378.970 9        59.596 9
E31  24973492.903 9 131236562.032 9     -1562.408 9        57.421 9  24973492.903 9 131236562.032 9     -1562.408 9        57.421 9  24973496.085 9  98001324.127 9     -1166.734 9        57.281 9  24973496.085 9  98001324.127 9     -1166.734 9        57.281 9  24973495.837 9 100557881.407 9     -1197.170 9        57.281 9  24973495.837 9 100557881.407 9     -1197.170 9        57.281 9  24973495.959 9  99279602.770 9     -1181.952 9        60.291 9  24973495.959 9  99279602.770 9     -1181.952 9        60.291 9
E15  27833344.279 9 146265164.724 9     -1855.547 9        56.360 9  27833344.279 9 146265164.724 9     -1855.547 9        56.360 9  27833349.407 9 109223979.122 9     -1385.637 9        56.221 9  27833349.407 9 109223979.122 9     -1385.637 9        56.221 9  27833349.008 9 112073301.927 9     -1421.784 9        56.221 9  27833349.008 9 112073301.927 9     -1421.784 9        56.221 9  27833349.204 9 110648640.530 9     -1403.710 9        59.231 9  27833349.204 9 110648640.530 9     -1403.710 9        59.231 9
E03  26315775.285 9 138290297.899 9      2468.972 9        56.976 9  26315775.285 9 138290297.899 9      2468.972 9        56.976 9  26315778.783 9 103268722.177 9      1843.713 9        56.836 9  26315778.783 9 103268722.177 9      1843.713 9        56.836 9  26315778.487 9 105962690.036 9      1891.810 9        56.836 9  26315778.487 9 105962690.036 9      1891.810 9        56.836 9  26315778.632 9 104615706.110 9      1867.762 9        59.846 9  26315778.632 9 104615706.110 9      1867.762 9        59.846 9
E24  24080331.350 9 126542971.586 9      1236.420 9        57.797 9  24080331.350 9 126542971.586 9      1236.420 9        57.797 9  24080332.368 9  94496364.807 9       923.301 9        57.657 9  24080332.368 9  94496364.807 9       923.301 9        57.657 9  24080332.165 9  96961488.187 9       947.387 9        57.657 9  24080332.165 9  96961488.187 9       947.387 9        57.657 9  24080332.264 9  95728926.500 9       935.344 9        60.668 9  24080332.264 9  95728926.500 9       935.344 9        60.668 9
> 2023 01 08 10 00 36.0000000  0 20       0.000000000000
G08  25075360.791 9 131771859.777 9     -1516.803 9        54.230 9  25075364.897 8 102679362.577 8     -1181.924 8        49.730 8  25075364.607 9  98401049.142 9     -1132.677 9        56.330 9
G13  20024912.032 9 105231601.975 9       568.404 9        56.113 9  20024911.067 8  81998636.349 8       442.912 8        51.613 8  20024913.618 9  78582034.213 9       424.457 9        58.213 9
G17  24958819.406 9 131159398.519 9      2924.894 9        54.188 9  24958822.330 8 102202098.992 8      2279.141 8        49.688 8  24958825.649 9  97943682.187 9      2184.178 9        56.288 9
G24  24515274.771 9 128828586.445 9      3549.096 9        54.417 9  24515278.514 8 100385900.628 8      2765.530 8        49.917 8  24515278.696 9  96203149.801 9      2650.300 9        56.517 9
G07  24610327.640 9 129328083.788 9     -2993.493 9        54.354 9  24610329.219 8 100775106.010 8     -2332.594 8        49.854 8  24610332.233 9  96576148.440 9     -2235.404 9        56.454 9
G18  24772299.718 9 130179268.084 9     -1370.070 9        54.334 9  24772300.897 8 101438372.571 8     -1067.587 8        49.834 8  24772303.158 9  97211777.603 9     -1023.105 9        56.434 9
G20  23530309.236 9 123652558.198 9     -3636.590 9        54.721 9  23530310.775 8  96352623.133 8     -2833.709 8        50.221 8  23530313.117 9  92337934.073 9     -2715.638 9        56.821 9
G14  20963167.839 9 110162166.025 9       106.375 9        55.781 9  20963167.811 8  85840636.388 8        82.890 8        51.281 8  20963169.688 9  82263947.892 9        79.436 9        57.881 9
G23  24855968.584 9 130618952.786 9      3220.593 9        54.295 9  24855969.650 8 101780984.492 8      2509.554 8        49.795 8  24855971.884 9  97540114.129 9      2404.990 9        56.395 9
G05  21752432.924 9 114309777.396 9     -2425.864 9        55.467 9  21752432.551 8  89072537.592 8     -1890.284 8        50.967 8  21752435.124 9  85361188.772 9     -1811.523 9        57.567 9
G30  21866155.207 9 114907392.217 9     -2282.715 9        55.472 9  21866157.712 8  89538223.362 8     -1778.740 8        50.972 8  21866157.393 9  85807459.637 9     -1704.626 9        57.572 9
G15  21109086.023 9 110928970.101 9      2291.559 9        55.714 9  21109085.526 8  86438143.546 8      1785.631 8        51.214 8  21109087.960 9  82836560.981 9      1711.230 9        57.814 9
E05  23312356.761 9 122507240.644 9       354.548 9        57.977 9  23312356.761 9 122507240.644 9       354.548 9        57.977 9  23312359.286 9  91482677.179 9       264.759 9        57.837 9  23312359.286 9  91482677.179 9       264.759 9        57.837 9  23312359.106 9  93869182.525 9       271.666 9        57.837 9  23312359.106 9  93869182.525 9       271.666 9        57.837 9  23312359.194 9  92675929.855 9       268.213 9        60.847 9  23312359.194 9  92675929.855 9       268.213 9        60.847 9
E09  25223899.363 9 132552453.649 9     -2104.813 9        57.363 9  25223899.363 9 132552453.649 9     -2104.813 9        57.363 9  25223902.289 9  98983967.557 9     -1571.777 9        57.223 9  25223902.289 9  98983967.557 9     -1571.777 9        57.223 9  25223902.014 9 101566159.124 9     -1612.780 9        57.223 9  25223902.014 9 101566159.124 9     -1612.780 9        57.223 9  25223902.149 9 100275063.344 9     -1592.279 9        60.233 9  25223902.149 9 100275063.344 9     -1592.279 9        60.233 9
E13  28146218.211 9 147909328.397 9       307.897 9        56.288 9  28146218.211 9 147909328.397 9       307.897 9        56.288 9  28146221.895 9 110451758.053 9       229.923 9        56.149 9  28146221.895 9 110451758.053 9       229.923 9        56.149 9  28146221.495 9 113333109.871 9       235.921 9        56.149 9  28146221.495 9 113333109.871 9       235.921 9        56.149 9  28146221.691 9 111892433.967 9       232.922 9        59.159 9  28146221.691 9 111892433.967 9       232.922 9        59.159 9
E25  27065100.378 9 142228011.962 9      3145.121 9        56.726 9  27065100.378 9 142228011.962 9      3145.121 9        56.726 9  27065105.240 9 106209218.887 9      2348.631 9        56.586 9  27065105.240 9 106209218.887 9      2348.631 9        56.586 9  27065104.808 9 108979895.904 9      2409.899 9        56.586 9  27065104.808 9 108979895.904 9      2409.899 9        56.586 9  27065105.020 9 107594557.401 9      2379.265 9        59.596 9  27065105.020 9 107594557.401 9      2379.265 9        59.596 9
E31  24973790.227 9 131238124.476 9     -1562.474 9        57.420 9  24973790.227 9 131238124.476 9     -1562.474 9        57.420 9  24973793.409 9  98002490.886 9     -1166.783 9        57.281 9  24973793.409 9  98002490.886 9     -1166.783 9        57.281 9  24973793.161 9 100559078.603 9     -1197.221 9        57.281 9  24973793.161 9 100559078.603 9     -1197.221 9        57.281 9  24973793.283 9  99280784.748 9     -1182.002 9        60.291 9  24973793.283 9  99280784.748 9     -1182.002 9        60.291 9
E15  27833697.543 9 146267021.135 9     -1857.279 9        56.360 9  27833697.543 9 146267021.135 9     -1857.279 9        56.360 9  27833702.672 9 109225365.402 9     -1386.930 9        56.220 9  27833702.672 9 109225365.402 9     -1386.930 9        56.220 9  27833702.272 9 112074724.370 9     -1423.111 9        56.220 9  27833702.272 9 112074724.370 9     -1423.111 9        56.220 9  27833702.468 9 110650044.892 9     -1405.021 9        59.231 9  27833702.468 9 110650044.892 9     -1405.021 9        59.231 9
E03  26315305.586 9 138287829.616 9      2467.596 9        56.976 9  26315305.586 9 138287829.616 9      2467.596 9        56.976 9  26315309.084 9 103266878.979 9      1842.686 9        56.836 9  26315309.084 9 103266878.979 9      1842.686 9        56.836 9  26315308.788 9 105960798.755 9      1890.756 9        56.836 9  26315308.788 9 105960798.755 9      1890.756 9        56.836 9  26315308.933 9 104613838.871 9      1866.721 9        59.846 9  26315308.933 9 104613838.871 9      1866.721 9        59.846 9
E24  24080096.048 9 126541735.067 9      1236.618 9        57.797 9  24080096.048 9 126541735.067 9      1236.618 9        57.797 9  24080097.066 9  94495441.433 9       923.449 9        57.657 9  24080097.066 9  94495441.433 9       923.449 9        57.657 9  24080096.863 9  96960540.724 9       947.539 9        57.657 9  24080096.863 9  96960540.724 9       947.539 9        57.657 9  24080096.962 9  95727991.081 9       935.494 9        60.668 9  24080096.962 9  95727991.081 9       935.494 9        60.668 9
> 2023 01 08 10 00 37.0000000  0 20       0.000000000000
G08  25075649.513 9 131773377.022 9     -1517.666 9        54.229 9  25075653.619 8 102680544.846 8     -1182.597 8        49.729 8  25075653.329 9  98402182.150 9     -1133.322 9        56.329 9
G13  20024803.941 9 105231033.951 9       567.649 9        56.114 9  20024802.976 8  81998193.732 8       442.324 8        51.614 8  20024805.527 9  78581610.039 9       423.894 9        58.214 9
G17  24958262.686 9 131156472.948 9      2926.281 9        54.188 9  24958265.609 8 102199819.329 8      2280.222 8        49.688 8  24958268.928 9  97941497.512 9      2185.214 9        56.288 9
G24  24514599.496 9 128825037.855 9      3548.073 9        54.418 9  24514603.239 8 100383135.493 8      2764.733 8        49.918 8  24514603.421 9  96200499.881 9      2649.537 9        56.518 9
G07  24610897.215 9 129331076.914 9     -2992.772 9        54.353 9  24610898.794 8 100777438.313 8     -2332.033 8        49.853 8  24610901.809 9  96578383.564 9     -2234.865 9        56.453 9
G18  24772560.618 9 130180639.118 9     -1372.003 9        54.334 9  24772561.797 8 101439440.909 8     -1069.094 8        49.834 8  24772564.057 9  97212801.427 9     -1024.548 9        56.434 9
G20  23531001.213 9 123656194.554 9     -3636.160 9        54.721 9  23531002.754 8  96355456.655 8     -2833.374 8        50.221 8  23531005.095 9  92340649.531 9     -2715.317 9        56.821 9
G14  20963147.597 9 110162059.655 9       106.372 9        55.781 9  20963147.570 8  85840553.502 8        82.887 8        51.281 8  20963149.446 9  82263868.460 9        79.433 9        57.881 9
G23  24855355.883 9 130615733.025 9      3218.945 9        54.295 9  24855356.949 8 101778475.589 8      2508.270 8        49.795 8  24855359.183 9  97537709.764 9      2403.759 9        56.395 9
G05  21752894.602 9 114312203.524 9     -2426.409 9        55.467 9  21752894.229 8  89074428.080 8     -1890.710 8        50.967 8  21752896.802 9  85363000.490 9     -1811.930 9        57.567 9
G30  21866589.571 9 114909674.809 9     -2282.463 9        55.472 9  21866592.076 8  89540002.003 8     -1778.544 8        50.972 8  21866591.756 9  85809164.169 9     -1704.438 9        57.572 9
G15  21108650.086 9 110926679.237 9      2290.170 9        55.714 9  21108649.588 8  86436358.458 8      1784.549 8        51.214 8  21108652.023 9  82834850.272 9      1710.193 9        57.814 9
E05  23312289.341 9 122506886.354 9       354.037 9        57.977 9  23312289.341 9 122506886.354 9       354.037 9        57.977 9  23312291.867 9  91482412.611 9       264.378 9        57.837 9  23312291.867 9  91482412.611 9       264.378 9        57.837 9  23312291.687 9  93868911.056 9       271.275 9        57.837 9  23312291.687 9  93868911.056 9       271.275 9        57.837 9  23312291.775 9  92675661.836 9       267.827 9        60.847 9  23312291.775 9  92675661.836 9       267.827 9        60.847 9
E09  25224299.816 9 132554558.036 9     -2103.970 9        57.362 9  25224299.816 9 132554558.036 9     -2103.970 9        57.362 9  25224302.742 9  98985539.014 9     -1571.148 9        57.223 9  25224302.742 9  98985539.014 9     -1571.148 9        57.223 9  25224302.466 9 101567771.576 9     -1612.134 9        57.223 9  25224302.466 9 101567771.576 9     -1612.134 9        57.223 9  25224302.601 9 100276655.299 9     -1591.641 9        60.233 9  25224302.601 9 100276655.299 9     -1591.641 9        60.233 9
E13  28146159.778 9 147909021.333 9       306.246 9        56.288 9  28146159.778 9 147909021.333 9       306.246 9        56.288 9  28146163.462 9 110451528.752 9       228.691 9        56.149 9  28146163.462 9 110451528.752 9       228.691 9        56.149 9  28146163.063 9 113332874.588 9       234.656 9        56.149 9  28146163.063 9 113332874.588 9       234.656 9        56.149 9  28146163.259 9 111892201.675 9       231.674 9        59.159 9  28146163.259 9 111892201.675 9       231.674 9        59.159 9
E25  27064501.852 9 142224866.692 9      3145.412 9        56.726 9  27064501.852 9 142224866.692 9      3145.412 9        56.726 9  27064506.714 9 106206870.148 9      2348.849 9        56.586 9  27064506.714 9 106206870.148 9      2348.849 9        56.586 9  27064506.282 9 108977485.893 9      2410.123 9        56.586 9  27064506.282 9 108977485.893 9      2410.123 9        56.586 9  27064506.494 9 107592178.026 9      2379.486 9        59.597 9  27064506.494 9 107592178.026 9      2379.486 9        59.597 9
E31  24974087.558 9 131239686.960 9     -1562.484 9        57.420 9  24974087.558 9 131239686.960 9     -1562.484 9        57.420 9  24974090.740 9  98003657.675 9     -1166.791 9        57.281 9  24974090.740 9  98003657.675 9     -1166.791 9        57.281 9  24974090.492 9 100560275.831 9     -1197.228 9        57.281 9  24974090.492 9 100560275.831 9     -1197.228 9        57.281 9  24974090.614 9  99281966.756 9     -1182.009 9        60.291 9  24974090.614 9  99281966.756 9     -1182.009 9        60.291 9
E15  27834051.137 9 146268879.282 9     -1859.020 9        56.360 9  27834051.137 9 146268879.282 9     -1859.020 9        56.360 9  27834056.266 9 109226752.979 9     -1388.230 9        56.220 9  27834056.266 9 109226752.979 9     -1388.230 9        56.220 9  27834055.866 9 112076148.145 9     -1424.445 9        56.220 9  27834055.866 9 112076148.145 9     -1424.445 9        56.220 9  27834056.062 9 110651450.567 9     -1406.338 9        59.231 9  27834056.062 9 110651450.567 9     -1406.338 9        59.231 9
E03  26314836.149 9 138285362.710 9      2466.219 9        56.976 9  26314836.149 9 138285362.710 9      2466.219 9        56.976 9  26314839.647 9 103265036.809 9      1841.658 9        56.836 9  26314839.647 9 103265036.809 9      1841.658 9        56.836 9  26314839.350 9 105958908.528 9      1889.701 9        56.836 9  26314839.350 9 105958908.528 9      1889.701 9        56.836 9  26314839.496 9 104611972.673 9      1865.679 9        59.846 9  26314839.496 9 104611972.673 9      1865.679 9        59.846 9
E24  24079860.712 9 126540498.367 9      1236.783 9        57.797 9  24079860.712 9 126540498.367 9      1236.783 9        57.797 9  24079861.730 9  94494517.923 9       923.572 9        57.658 9  24079861.730 9  94494517.923 9       923.572 9        57.658 9  24079861.526 9  96959593.123 9       947.665 9        57.658 9  24079861.526 9  96959593.123 9       947.665 9        57.658 9  24079861.626 9  95727055.526 9       935.619 9        60.668 9  24079861.626 9  95727055.526 9       935.619 9        60.668 9
> 2023 01 08 10 00 38.0000000  0 20       0.000000000000
G08  25075938.389 9 131774895.077 9     -1518.426 9        54.229 9  25075942.495 8 102681727.747 8     -1183.189 8        49.729 8  25075942.206 9  98403315.763 9     -1133.889 9        56.329 9
G13  20024695.992 9 105230466.676 9       566.901 9        56.114 9  20024695.027 8  81997751.700 8       441.741 8        51.614 8  20024697.578 9  78581186.425 9       423.335 9        58.214 9
G17  24957705.702 9 131153545.992 9      2927.658 9        54.188 9  24957708.624 8 102197538.588 8      2281.296 8        49.688 8  24957711.943 9  97939311.801 9      2186.242 9        56.288 9
G24  24513924.423 9 128821490.324 9      3546.980 9        54.418 9  24513928.165 8 100380371.185 8      2763.882 8        49.918 8  24513928.347 9  96197850.752 9      2648.720 9        56.518 9
G07  24611466.645 9 129334069.278 9     -2991.972 9        54.353 9  24611468.225 8 100779770.023 8     -2331.409 8        49.853 8  24611471.240 9  96580618.118 9     -2234.268 9        56.453 9
G18  24772821.886 9 130182012.088 9     -1373.937 9        54.334 9  24772823.065 8 101440510.755 8     -1070.601 8        49.834 8  24772825.326 9  97213826.696 9     -1025.993 9        56.434 9
G20  23531693.118 9 123659830.526 9     -3635.823 9        54.720 9  23531694.659 8  96358289.877 8     -2833.112 8        50.220 8  23531697.001 9  92343364.701 9     -2715.066 9        56.820 9
G14  20963127.354 9 110161953.276 9       106.387 9        55.781 9  20963127.327 8  85840470.609 8        82.899 8        51.281 8  20963129.203 9  82263789.020 9        79.445 9        57.881 9
G23  24854743.491 9 130612514.890 9      3217.345 9        54.295 9  24854744.556 8 101775967.953 8      2507.023 8        49.795 8  24854746.791 9  97535306.612 9      2402.564 9        56.395 9
G05  21753356.390 9 114314630.232 9     -2427.028 9        55.466 9  21753356.017 8  89076319.021 8     -1891.192 8        50.966 8  21753358.591 9  85364812.642 9     -1812.392 9        57.566 9
G30  21867023.880 9 114911957.115 9     -2282.153 9        55.472 9  21867026.385 8  89541780.423 8     -1778.302 8        50.972 8  21867026.066 9  85810868.488 9     -1704.206 9        57.572 9
G15  21108214.413 9 110924389.763 9      2288.780 9        55.715 9  21108213.915 8  86434574.452 8      1783.466 8        51.215 8  21108216.350 9  82833140.600 9      1709.155 9        57.815 9
E05  23312222.019 9 122506532.571 9       353.525 9        57.977 9  23312222.019 9 122506532.571 9       353.525 9        57.977 9  23312224.544 9  91482148.423 9       263.996 9        57.837 9  23312224.544 9  91482148.423 9       263.996 9        57.837 9  23312224.365 9  93868639.976 9       270.883 9        57.837 9  23312224.365 9  93868639.976 9       270.883 9        57.837 9  23312224.453 9  92675394.202 9       267.439 9        60.847 9  23312224.453 9  92675394.202 9       267.439 9        60.847 9
E09  25224700.108 9 132556661.580 9     -2103.133 9        57.362 9  25224700.108 9 132556661.580 9     -2103.133 9        57.362 9  25224703.034 9  98987109.841 9     -1570.522 9        57.222 9  25224703.034 9  98987109.841 9     -1570.522 9        57.222 9  25224702.758 9 101569383.381 9     -1611.492 9        57.222 9  25224702.758 9 101569383.381 9     -1611.492 9        57.222 9  25224702.893 9 100278246.614 9     -1591.007 9        60.233 9  25224702.893 9 100278246.614 9     -1591.007 9        60.233 9
E13  28146101.653 9 147908715.884 9       304.667 9        56.288 9  28146101.653 9 147908715.884 9       304.667 9        56.288 9  28146105.337 9 110451300.657 9       227.512 9        56.149 9  28146105.337 9 110451300.657 9       227.512 9        56.149 9  28146104.938 9 113332640.543 9       233.447 9        56.149 9  28146104.938 9 113332640.543 9       233.447 9        56.149 9  28146105.134 9 111891970.605 9       230.479 9        59.159 9  28146105.134 9 111891970.605 9       230.479 9        59.159 9
E25  27063903.279 9 142221721.178 9      3145.607 9        56.726 9  27063903.279 9 142221721.178 9      3145.607 9        56.726 9  27063908.141 9 106204521.227 9      2348.994 9        56.586 9  27063908.141 9 106204521.227 9      2348.994 9        56.586 9  27063907.709 9 108975075.696 9      2410.272 9        56.586 9  27063907.709 9 108975075.696 9      2410.272 9        56.586 9  27063907.921 9 107589798.467 9      2379.633 9        59.597 9  27063907.921 9 107589798.467 9      2379.633 9        59.597 9
E31  24974384.885 9 131241249.417 9     -1562.427 9        57.420 9  24974384.885 9 131241249.417 9     -1562.427 9        57.420 9  24974388.067 9  98004824.444 9     -1166.748 9        57.280 9  24974388.067 9  98004824.444 9     -1166.748 9        57.280 9  24974387.819 9 100561473.037 9     -1197.185 9        57.280 9  24974387.819 9 100561473.037 9     -1197.185 9        57.280 9  24974387.940 9  99283148.744 9     -1181.967 9        60.291 9  24974387.940 9  99283148.744 9     -1181.967 9        60.291 9
E15  27834405.064 9 146270739.177 9     -1860.770 9        56.360 9  27834405.064 9 146270739.177 9     -1860.770 9        56.360 9  27834410.193 9 109228141.860 9     -1389.537 9        56.220 9  27834410.193 9 109228141.860 9     -1389.537 9        56.220 9  27834409.793 9 112077573.258 9     -1425.786 9        56.220 9  27834409.793 9 112077573.258 9     -1425.786 9        56.220 9  27834409.989 9 110652857.564 9     -1407.661 9        59.230 9  27834409.989 9 110652857.564 9     -1407.661 9        59.230 9
E03  26314366.974 9 138282897.179 9      2464.845 9        56.976 9  26314366.974 9 138282897.179 9      2464.845 9        56.976 9  26314370.471 9 103263195.668 9      1840.631 9        56.836 9  26314370.471 9 103263195.668 9      1840.631 9        56.836 9  26314370.175 9 105957019.357 9      1888.648 9        56.836 9  26314370.175 9 105957019.357 9      1888.648 9        56.836 9  26314370.320 9 104610107.516 9      1864.640 9        59.847 9  26314370.320 9 104610107.516 9      1864.640 9        59.847 9
E24  24079625.346 9 126539261.510 9      1236.924 9        57.797 9  24079625.346 9 126539261.510 9      1236.924 9        57.797 9  24079626.364 9  94493594.297 9       923.677 9        57.658 9  24079626.364 9  94493594.297 9       923.677 9        57.658 9  24079626.160 9  96958645.402 9       947.773 9        57.658 9  24079626.160 9  96958645.402 9       947.773 9        57.658 9  24079626.260 9  95726119.852 9       935.725 9        60.668 9  24079626.260 9  95726119.852 9       935.725 9        60.668 9
> 2023 01 08 10 00 39.0000000  0 20       0.000000000000
G08  25076227.400 9 131776413.841 9     -1519.082 9        54.229 9  25076231.506 8 102682911.199 8     -1183.700 8        49.729 8  25076231.217 9  98404449.905 9     -1134.379 9        56.329 9
G13  20024588.184 9 105229900.142 9       566.166 9        56.114 9  20024587.220 8  81997310.245 8       441.168 8        51.614 8  20024589.770 9  78580763.364 9       422.786 9        58.214 9
G17  24957148.457 9 131150617.664 9      2929.024 9        54.188 9  24957151.379 8 102195256.778 8      2282.360 8        49.688 8  24957154.697 9  97937125.068 9      2187.262 9        56.288 9
G24  24513249.563 9 128817943.918 9      3545.822 9        54.418 9  24513253.305 8 100377607.753 8      2762.979 8        49.918 8  24513253.487 9  96195202.463 9      2647.855 9        56.518 9
G07  24612035.916 9 129337060.804 9     -2991.095 9        54.353 9  24612037.496 8 100782101.079 8     -2330.726 8        49.853 8  24612040.512 9  96582852.047 9     -2233.613 9        56.453 9
G18  24773083.521 9 130183386.989 9     -1375.866 9        54.334 9  24773084.701 8 101441582.105 8     -1072.104 8        49.834 8  24773086.961 9  97214853.407 9     -1027.434 9        56.434 9
G20  23532384.967 9 123663466.207 9     -3635.579 9        54.720 9  23532386.509 8  96361122.873 8     -2832.921 8        50.220 8  23532388.851 9  92346079.655 9     -2714.884 9        56.820 9
G14  20963107.106 9 110161846.870 9       106.425 9        55.781 9  20963107.079 8  85840387.696 8        82.928 8        51.281 8  20963108.955 9  82263709.562 9        79.473 9        57.881 9
G23  24854131.399 9 130609298.329 9      3215.796 9        54.296 9  24854132.464 8 101773461.543 8      2505.817 8        49.796 8  24854134.698 9  97532904.636 9      2401.408 9        56.396 9
G05  21753818.302 9 114317057.593 9     -2427.714 9        55.466 9  21753817.929 8  89078210.470 8     -1891.726 8        50.966 8  21753820.503 9  85366625.280 9     -1812.905 9        57.566 9
G30  21867458.124 9 114914239.081 9     -2281.780 9        55.472 9  21867460.630 8  89543558.577 8     -1778.011 8        50.972 8  21867460.311 9  85812572.552 9     -1703.928 9        57.572 9
G15  21107779.004 9 110922101.674 9      2287.397 9        55.715 9  21107778.506 8  86432791.527 8      1782.388 8        51.215 8  21107780.940 9  82831431.963 9      1708.122 9        57.815 9
E05  23312154.793 9 122506179.298 9       353.019 9        57.977 9  23312154.793 9 122506179.298 9       353.019 9        57.977 9  23312157.319 9  91481884.615 9       263.618 9        57.837 9  23312157.319 9  91481884.615 9       263.618 9        57.837 9  23312157.139 9  93868369.285 9       270.495 9        57.837 9  23312157.139 9  93868369.285 9       270.495 9        57.837 9  23312157.227 9  92675126.952 9       267.057 9        60.847 9  23312157.227 9  92675126.952 9       267.057 9        60.847 9
E09  25225100.240 9 132558764.288 9     -2102.299 9        57.362 9  25225100.240 9 132558764.288 9     -2102.299 9        57.362 9  25225103.167 9  98988680.044 9     -1569.900 9        57.222 9  25225103.167 9  98988680.044 9     -1569.900 9        57.222 9  25225102.892 9 101570994.546 9     -1610.854 9        57.222 9  25225102.892 9 101570994.546 9     -1610.854 9        57.222 9  25225103.027 9 100279837.298 9     -1590.377 9        60.233 9  25225103.027 9 100279837.298 9     -1590.377 9        60.233 9
E13  28146043.821 9 147908411.977 9       303.163 9        56.288 9  28146043.821 9 147908411.977 9       303.163 9        56.288 9  28146047.505 9 110451073.714 9       226.388 9        56.149 9  28146047.505 9 110451073.714 9       226.388 9        56.149 9  28146047.106 9 113332407.679 9       232.294 9        56.149 9  28146047.106 9 113332407.679 9       232.294 9        56.149 9  28146047.302 9 111891740.702 9       229.341 9        59.159 9  28146047.302 9 111891740.702 9       229.341 9        59.159 9
E25  27063304.679 9 142218575.517 9      3145.706 9        56.727 9  27063304.679 9 142218575.517 9      3145.706 9        56.727 9  27063309.540 9 106202172.196 9      2349.068 9        56.587 9  27063309.540 9 106202172.196 9      2349.068 9        56.587 9  27063309.108 9 108972665.386 9      2410.348 9        56.587 9  27063309.108 9 108972665.386 9      2410.348 9        56.587 9  27063309.320 9 107587418.797 9      2379.708 9        59.597 9  27063309.320 9 107587418.797 9      2379.708 9        59.597 9
E31  24974682.193 9 131242811.783 9     -1562.301 9        57.420 9  24974682.193 9 131242811.783 9     -1562.301 9        57.420 9  24974685.376 9  98005991.146 9     -1166.654 9        57.280 9  24974685.376 9  98005991.146 9     -1166.654 9        57.280 9  24974685.128 9 100562670.174 9     -1197.088 9        57.280 9  24974685.128 9 100562670.174 9     -1197.088 9        57.280 9  24974685.249 9  99284330.663 9     -1181.871 9        60.291 9  24974685.249 9  99284330.663 9     -1181.871 9        60.291 9
E15  27834759.324 9 146272600.821 9     -1862.523 9        56.360 9  27834759.324 9 146272600.821 9     -1862.523 9        56.360 9  27834764.453 9 109229532.048 9     -1390.846 9        56.220 9  27834764.453 9 109229532.048 9     -1390.846 9        56.220 9  27834764.053 9 112078999.712 9     -1427.129 9        56.220 9  27834764.053 9 112078999.712 9     -1427.129 9        56.220 9  27834764.249 9 110654265.885 9     -1408.987 9        59.230 9  27834764.249 9 110654265.885 9     -1408.987 9        59.230 9
E03  26313898.059 9 138280433.018 9      2463.481 9        56.976 9  26313898.059 9 138280433.018 9      2463.481 9        56.976 9  26313901.556 9 103261355.548 9      1839.613 9        56.836 9  26313901.556 9 103261355.548 9      1839.613 9        56.836 9  26313901.260 9 105955131.233 9      1887.603 9        56.836 9  26313901.260 9 105955131.233 9      1887.603 9        56.836 9  26313901.405 9 104608243.394 9      1863.608 9        59.847 9  26313901.405 9 104608243.394 9      1863.608 9        59.847 9
E24  24079389.955 9 126538024.523 9      1237.046 9        57.798 9  24079389.955 9 126538024.523 9      1237.046 9        57.798 9  24079390.973 9  94492670.573 9       923.768 9        57.658 9  24079390.973 9  94492670.573 9       923.768 9        57.658 9  24079390.769 9  96957697.581 9       947.867 9        57.658 9  24079390.769 9  96957697.581 9       947.867 9        57.658 9  24079390.869 9  95725184.080 9       935.817 9        60.668 9  24079390.869 9  95725184.080 9       935.817 9        60.668 9
> 2023 01 08 10 00 40.0000000  0 20       0.000000000000
G08  25076516.527 9 131777933.211 9     -1519.642 9        54.229 9  25076520.632 8 102684095.124 8     -1184.137 8        49.729 8  25076520.343 9  98405584.500 9     -1134.798 9        56.329 9
G13  20024480.516 9 105229334.344 9       565.428 9        56.114 9  20024479.552 8  81996869.363 8       440.593 8        51.614 8  20024482.102 9  78580340.852 9       422.235 9        58.214 9
G17  24956590.956 9 131147687.987 9      2930.359 9        54.188 9  24956593.876 8 102192973.916 8      2283.400 8        49.688 8  24956597.195 9  97934937.326 9      2188.259 9        56.288 9
G24  24512574.929 9 128814398.697 9      3544.612 9        54.418 9  24512578.671 8 100374845.244 8      2762.037 8        49.918 8  24512578.853 9  96192555.059 9      2646.952 9        56.518 9
G07  24612605.014 9 129340051.423 9     -2990.160 9        54.353 9  24612606.595 8 100784431.428 8     -2329.998 8        49.853 8  24612609.610 9  96585085.298 9     -2232.915 9        56.453 9
G18  24773345.522 9 130184763.810 9     -1377.778 9        54.334 9  24773346.702 8 101442654.952 8     -1073.594 8        49.834 8  24773348.962 9  97215881.552 9     -1028.861 9        56.434 9
G20  23533076.779 9 123667101.695 9     -3635.432 9        54.720 9  23533078.322 8  96363955.718 8     -2832.807 8        50.220 8  23533080.664 9  92348794.464 9     -2714.774 9        56.820 9
G14  20963086.850 9 110161740.428 9       106.458 9        55.781 9  20963086.823 8  85840304.753 8        82.954 8        51.281 8  20963088.700 9  82263630.075 9        79.498 9        57.881 9
G23  24853519.595 9 130606083.284 9      3214.309 9        54.296 9  24853520.660 8 101770956.315 8      2504.658 8        49.796 8  24853522.894 9  97530503.793 9      2400.297 9        56.396 9
G05  21754280.352 9 114319485.677 9     -2428.474 9        55.466 9  21754279.980 8  89080102.482 8     -1892.319 8        50.966 8  21754282.553 9  85368438.458 9     -1813.472 9        57.566 9
G30  21867892.294 9 114916520.654 9     -2281.371 9        55.472 9  21867894.800 8  89545336.425 8     -1777.693 8        50.972 8  21867894.481 9  85814276.322 9     -1703.622 9        57.572 9
G15  21107343.858 9 110919814.965 9      2286.018 9        55.715 9  21107343.359 8  86431009.676 8      1781.313 8        51.215 8  21107345.794 9  82829724.356 9      1707.092 9        57.815 9
E05  23312087.665 9 122505826.534 9       352.502 9        57.977 9  23312087.665 9 122505826.534 9       352.502 9        57.977 9  23312090.190 9  91481621.188 9       263.232 9        57.837 9  23312090.190 9  91481621.188 9       263.232 9        57.837 9  23312090.011 9  93868098.986 9       270.099 9        57.837 9  23312090.011 9  93868098.986 9       270.099 9        57.837 9  23312090.099 9  92674860.089 9       266.665 9        60.847 9  23312090.099 9  92674860.089 9       266.665 9        60.847 9
E09  25225500.217 9 132560866.177 9     -2101.495 9        57.362 9  25225500.217 9 132560866.177 9     -2101.495 9        57.362 9  25225503.144 9  98990249.635 9     -1569.299 9        57.222 9  25225503.144 9  98990249.635 9     -1569.299 9        57.222 9  25225502.869 9 101572605.083 9     -1610.237 9        57.222 9  25225502.869 9 101572605.083 9     -1610.237 9        57.222 9  25225503.004 9 100281427.362 9     -1589.768 9        60.232 9  25225503.004 9 100281427.362 9     -1589.768 9        60.232 9
E13  28145986.268 9 147908109.532 9       301.739 9        56.289 9  28145986.268 9 147908109.532 9       301.739 9        56.289 9  28145989.952 9 110450847.863 9       225.325 9        56.149 9  28145989.952 9 110450847.863 9       225.325 9        56.149 9  28145989.553 9 113332175.936 9       231.203 9        56.149 9  28145989.553 9 113332175.936 9       231.203 9        56.149 9  28145989.748 9 111891511.904 9       228.264 9        59.159 9  28145989.748 9 111891511.904 9       228.264 9        59.159 9
E25  27062706.069 9 142215429.807 9      3145.707 9        56.727 9  27062706.069 9 142215429.807 9      3145.707 9        56.727 9  27062710.930 9 106199823.129 9      2349.069 9        56.587 9  27062710.930 9 106199823.129 9      2349.069 9        56.587 9  27062710.497 9 108970255.038 9      2410.349 9        56.587 9  27062710.497 9 108970255.038 9      2410.349 9        56.587 9  27062710.709 9 107585039.089 9      2379.709 9        59.597 9  27062710.709 9 107585039.089 9      2379.709 9        59.597 9
E31  24974979.473 9 131244373.998 9     -1562.129 9        57.420 9  24974979.473 9 131244373.998 9     -1562.129 9        57.420 9  24974982.656 9  98007157.734 9     -1166.526 9        57.280 9  24974982.656 9  98007157.734 9     -1166.526 9        57.280 9  24974982.408 9 100563867.195 9     -1196.957 9        57.280 9  24974982.408 9 100563867.195 9     -1196.957 9        57.280 9  24974982.530 9  99285512.468 9     -1181.741 9        60.290 9  24974982.530 9  99285512.468 9     -1181.741 9        60.290 9
E15  27835113.916 9 146274464.213 9     -1864.264 9        56.360 9  27835113.916 9 146274464.213 9     -1864.264 9        56.360 9  27835119.046 9 109230923.541 9     -1392.146 9        56.220 9  27835119.046 9 109230923.541 9     -1392.146 9        56.220 9  27835118.646 9 112080427.505 9     -1428.463 9        56.220 9  27835118.646 9 112080427.505 9     -1428.463 9        56.220 9  27835118.842 9 110655675.528 9     -1410.304 9        59.230 9  27835118.842 9 110655675.528 9     -1410.304 9        59.230 9
E03  26313429.402 9 138277970.212 9      2462.133 9        56.976 9  26313429.402 9 138277970.212 9      2462.133 9        56.976 9  26313432.899 9 103259516.440 9      1838.606 9        56.837 9  26313432.899 9 103259516.440 9      1838.606 9        56.837 9  26313432.603 9 105953244.149 9      1886.570 9        56.837 9  26313432.603 9 105953244.149 9      1886.570 9        56.837 9  26313432.748 9 104606380.298 9      1862.588 9        59.847 9  26313432.748 9 104606380.298 9      1862.588 9        59.847 9
E24  24079154.545 9 126536787.434 9      1237.126 9        57.798 9  24079154.545 9 126536787.434 9      1237.126 9        57.798 9  24079155.562 9  94491746.773 9       923.828 9        57.658 9  24079155.562 9  94491746.773 9       923.828 9        57.658 9  24079155.359 9  96956749.682 9       947.928 9        57.658 9  24079155.359 9  96956749.682 9       947.928 9        57.658 9  24079155.459 9  95724248.230 9       935.878 9        60.668 9  24079155.459 9  95724248.230 9       935.878 9        60.668 9
> 2023 01 08 10 00 41.0000000  0 20       0.000000000000
G08  25076805.749 9 131779453.086 9     -1520.093 9        54.229 9  25076809.855 8 102685279.443 8     -1184.488 8        49.729 8  25076809.565 9  98406719.471 9     -1135.135 9        56.329 9
G13  20024372.987 9 105228769.271 9       564.711 9        56.114 9  20024372.022 8  81996429.046 8       440.034 8        51.614 8  20024374.573 9  78579918.882 9       421.700 9        58.214 9
G17  24956033.203 9 131144756.988 9      2931.666 9        54.189 9  24956036.122 8 102190690.023 8      2284.418 8        49.689 8  24956039.441 9  97932748.596 9      2189.235 9        56.289 9
G24  24511900.531 9 128810854.715 9      3543.346 9        54.419 9  24511904.272 8 100372083.700 8      2761.050 8        49.919 8  24511904.454 9  96189908.580 9      2646.007 9        56.519 9
G07  24613173.927 9 129343041.070 9     -2989.155 9        54.353 9  24613175.509 8 100786761.021 8     -2329.215 8        49.853 8  24613178.524 9  96587317.823 9     -2232.165 9        56.453 9
G18  24773607.885 9 130186142.534 9     -1379.669 9        54.334 9  24773609.065 8 101443729.282 8     -1075.068 8        49.834 8  24773611.326 9  97216911.117 9     -1030.273 9        56.434 9
G20  23533768.573 9 123670737.084 9     -3635.384 9        54.720 9  23533770.116 8  96366788.486 8     -2832.769 8        50.220 8  23533772.458 9  92351509.199 9     -2714.738 9        56.820 9
G14  20963066.586 9 110161633.940 9       106.511 9        55.781 9  20963066.559 8  85840221.776 8        82.996 8        51.281 8  20963068.436 9  82263550.555 9        79.538 9        57.881 9
G23  24852908.068 9 130602869.694 9      3212.889 9        54.296 9  24852909.132 8 101768452.219 8      2503.552 8        49.796 8  24852911.366 9  97528104.035 9      2399.237 9        56.396 9
G05  21754742.552 9 114321914.554 9     -2429.300 9        55.466 9  21754742.180 8  89081995.112 8     -1892.962 8        50.966 8  21754744.754 9  85370252.228 9     -1814.089 9        57.566 9
G30  21868326.379 9 114918801.785 9     -2280.902 9        55.471 9  21868328.886 8  89547113.929 8     -1777.327 8        50.971 8  21868328.567 9  85815979.763 9     -1703.272 9        57.571 9
G15  21106908.972 9 110917529.626 9      2284.659 9        55.715 9  21106908.473 8  86429228.893 8      1780.254 8        51.215 8  21106910.908 9  82828017.772 9      1706.077 9        57.815 9
E05  23312020.633 9 122505474.281 9       351.997 9        57.977 9  23312020.633 9 122505474.281 9       351.997 9        57.977 9  23312023.159 9  91481358.141 9       262.855 9        57.837 9  23312023.159 9  91481358.141 9       262.855 9        57.837 9  23312022.979 9  93867829.077 9       269.712 9        57.837 9  23312022.979 9  93867829.077 9       269.712 9        57.837 9  23312023.067 9  92674593.611 9       266.283 9        60.847 9  23312023.067 9  92674593.611 9       266.283 9        60.847 9
E09  25225900.042 9 132562967.265 9     -2100.703 9        57.362 9  25225900.042 9 132562967.265 9     -2100.703 9        57.362 9  25225902.969 9  98991818.628 9     -1568.708 9        57.222 9  25225902.969 9  98991818.628 9     -1568.708 9        57.222 9  25225902.694 9 101574215.007 9     -1609.631 9        57.222 9  25225902.694 9 101574215.007 9     -1609.631 9        57.222 9  25225902.829 9 100283016.821 9     -1589.170 9        60.232 9  25225902.829 9 100283016.821 9     -1589.170 9        60.232 9
E13  28145928.977 9 147907808.468 9       300.404 9        56.289 9  28145928.977 9 147907808.468 9       300.404 9        56.289 9  28145932.661 9 110450623.042 9       224.328 9        56.149 9  28145932.661 9 110450623.042 9       224.328 9        56.149 9  28145932.262 9 113331945.250 9       230.180 9        56.149 9  28145932.262 9 113331945.250 9       230.180 9        56.149 9  28145932.457 9 111891284.151 9       227.254 9        59.159 9  28145932.457 9 111891284.151 9       227.254 9        59.159 9
E25  27062107.468 9 142212284.145 9      3145.609 9        56.727 9  27062107.468 9 142212284.145 9      3145.609 9        56.727 9  27062112.328 9 106197474.098 9      2348.995 9        56.587 9  27062112.328 9 106197474.098 9      2348.995 9        56.587 9  27062111.896 9 108967844.728 9      2410.273 9        56.587 9  27062111.896 9 108967844.728 9      2410.273 9        56.587 9  27062112.108 9 107582659.418 9      2379.634 9        59.597 9  27062112.108 9 107582659.418 9      2379.634 9        59.597 9
E31  24975276.714 9 131245936.004 9     -1561.888 9        57.420 9  24975276.714 9 131245936.004 9     -1561.888 9        57.420 9  24975279.897 9  98008324.166 9     -1166.345 9        57.280 9  24975279.897 9  98008324.166 9     -1166.345 9        57.280 9  24975279.649 9 100565064.057 9     -1196.772 9        57.280 9  24975279.649 9 100565064.057 9     -1196.772 9        57.280 9  24975279.770 9  99286694.115 9     -1181.559 9        60.290 9  24975279.770 9  99286694.115 9     -1181.559 9        60.290 9
E15  27835468.839 9 146276329.341 9     -1865.993 9        56.360 9  27835468.839 9 146276329.341 9     -1865.993 9        56.360 9  27835473.968 9 109232316.331 9     -1393.437 9        56.220 9  27835473.968 9 109232316.331 9     -1393.437 9        56.220 9  27835473.569 9 112081856.628 9     -1429.787 9        56.220 9  27835473.569 9 112081856.628 9     -1429.787 9        56.220 9  27835473.765 9 110657086.484 9     -1411.612 9        59.230 9  27835473.765 9 110657086.484 9     -1411.612 9        59.230 9
E03  26312960.999 9 138275508.741 9      2460.811 9        56.977 9  26312960.999 9 138275508.741 9      2460.811 9        56.977 9  26312964.496 9 103257678.329 9      1837.619 9        56.837 9  26312964.496 9 103257678.329 9      1837.619 9        56.837 9  26312964.200 9 105951358.087 9      1885.557 9        56.837 9  26312964.200 9 105951358.087 9      1885.557 9        56.837 9  26312964.345 9 104604518.212 9      1861.588 9        59.847 9  26312964.345 9 104604518.212 9      1861.588 9        59.847 9
E24  24078919.121 9 126535550.275 9      1237.183 9        57.798 9  24078919.121 9 126535550.275 9      1237.183 9        57.798 9  24078920.139 9  94490822.920 9       923.871 9        57.658 9  24078920.139 9  94490822.920 9       923.871 9        57.658 9  24078919.935 9  96955801.729 9       947.972 9        57.658 9  24078919.935 9  96955801.729 9       947.972 9        57.658 9  24078920.035 9  95723312.327 9       935.921 9        60.668 9  24078920.035 9  95723312.327 9       935.921 9        60.668 9
> 2023 01 08 10 00 42.0000000  0 20       0.000000000000
G08  25077095.049 9 131780973.366 9     -1520.451 9        54.229 9  25077099.154 8 102686464.076 8     -1184.767 8        49.729 8  25077098.865 9  98407854.746 9     -1135.402 9        56.329 9
G13  20024265.593 9 105228204.914 9       564.004 9        56.114 9  20024264.629 8  81995989.288 8       439.483 8        51.614 8  20024267.179 9  78579497.446 9       421.171 9        58.214 9
G17  24955475.205 9 131141824.702 9      2932.942 9        54.189 9  24955478.123 8 102188405.128 8      2285.413 8        49.689 8  24955481.441 9  97930558.906 9      2190.188 9        56.289 9
G24  24511226.377 9 128807312.018 9      3542.035 9        54.419 9  24511230.118 8 100369323.159 8      2760.028 8        49.919 8  24511230.300 9  96187263.061 9      2645.027 9        56.519 9
G07  24613742.644 9 129346029.689 9     -2988.095 9        54.352 9  24613744.227 8 100789089.812 8     -2328.388 8        49.852 8  24613747.243 9  96589549.581 9     -2231.373 9        56.452 9
G18  24773870.605 9 130187523.133 9     -1381.539 9        54.334 9  24773871.785 8 101444805.073 8     -1076.524 8        49.834 8  24773874.046 9  97217942.084 9     -1031.669 9        56.434 9
G20  23534460.366 9 123674372.472 9     -3635.425 9        54.719 9  23534461.910 8  96369621.253 8     -2832.801 8        50.219 8  23534464.252 9  92354223.934 9     -2714.769 9        56.819 9
G14  20963046.313 9 110161527.402 9       106.570 9        55.781 9  20963046.286 8  85840138.760 8        83.042 8        51.281 8  20963048.162 9  82263470.998 9        79.581 9        57.881 9
G23  24852296.805 9 130599657.488 9      3211.532 9        54.296 9  24852297.869 8 101765949.203 8      2502.494 8        49.796 8  24852300.103 9  97525705.312 9      2398.224 9        56.396 9
G05  21755204.917 9 114324344.289 9     -2430.188 9        55.466 9  21755204.545 8  89083888.412 8     -1893.654 8        50.966 8  21755207.118 9  85372066.640 9     -1814.752 9        57.566 9
G30  21868760.373 9 114921082.432 9     -2280.390 9        55.471 9  21868762.879 8  89548891.055 8     -1776.928 8        50.971 8  21868762.560 9  85817682.843 9     -1702.890 9        57.571 9
G15  21106474.343 9 110915245.638 9      2283.314 9        55.715 9  21106473.845 8  86427449.163 8      1779.206 8        51.215 8  21106476.279 9  82826312.198 9      1705.073 9        57.815 9
E05  23311953.698 9 122505122.535 9       351.494 9        57.977 9  23311953.698 9 122505122.535 9       351.494 9        57.977 9  23311956.224 9  91481095.474 9       262.479 9        57.837 9  23311956.224 9  91481095.474 9       262.479 9        57.837 9  23311956.044 9  93867559.558 9       269.326 9        57.837 9  23311956.044 9  93867559.558 9       269.326 9        57.837 9  23311956.132 9  92674327.518 9       265.903 9        60.847 9  23311956.132 9  92674327.518 9       265.903 9        60.847 9
E09  25226299.720 9 132565067.581 9     -2099.934 9        57.362 9  25226299.720 9 132565067.581 9     -2099.934 9        57.362 9  25226302.647 9  98993387.044 9     -1568.134 9        57.222 9  25226302.647 9  98993387.044 9     -1568.134 9        57.222 9  25226302.372 9 101575824.338 9     -1609.041 9        57.222 9  25226302.372 9 101575824.338 9     -1609.041 9        57.222 9  25226302.507 9 100284605.695 9     -1588.587 9        60.232 9  25226302.507 9 100284605.695 9     -1588.587 9        60.232 9
E13  28145871.932 9 147907508.695 9       299.149 9        56.289 9  28145871.932 9 147907508.695 9       299.149 9        56.289 9  28145875.616 9 110450399.186 9       223.390 9        56.149 9  28145875.616 9 110450399.186 9       223.390 9        56.149 9  28145875.217 9 113331715.554 9       229.218 9        56.149 9  28145875.217 9 113331715.554 9       229.218 9        56.149 9  28145875.413 9 111891057.375 9       226.304 9        59.159 9  28145875.413 9 111891057.375 9       226.304 9        59.159 9
E25  27061508.895 9 142209138.629 9      3145.420 9        56.727 9  27061508.895 9 142209138.629 9      3145.420 9        56.727 9  27061513.755 9 106195125.175 9      2348.855 9        56.587 9  27061513.755 9 106195125.175 9      2348.855 9        56.587 9  27061513.323 9 108965434.529 9      2410.129 9        56.587 9  27061513.323 9 108965434.529 9      2410.129 9        56.587 9  27061513.535 9 107580279.858 9      2379.492 9        59.598 9  27061513.535 9 107580279.858 9      2379.492 9        59.598 9
E31  24975573.904 9 131247497.748 9     -1561.594 9        57.420 9  24975573.904 9 131247497.748 9     -1561.594 9        57.420 9  24975577.087 9  98009490.403 9     -1166.126 9        57.280 9  24975577.087 9  98009490.403 9     -1166.126 9        57.280 9  24975576.839 9 100566260.717 9     -1196.547 9        57.280 9  24975576.839 9 100566260.717 9     -1196.547 9        57.280 9  24975576.961 9  99287875.563 9     -1181.337 9        60.290 9  24975576.961 9  99287875.563 9     -1181.337 9        60.290 9
E15  27835824.088 9 146278196.185 9     -1867.706 9        56.360 9  27835824.088 9 146278196.185 9     -1867.706 9        56.360 9  27835829.218 9 109233710.402 9     -1394.717 9        56.220 9  27835829.218 9 109233710.402 9     -1394.717 9        56.220 9  27835828.818 9 112083287.066 9     -1431.101 9        56.220 9  27835828.818 9 112083287.066 9     -1431.101 9        56.220 9  27835829.014 9 110658498.739 9     -1412.909 9        59.230 9  27835829.014 9 110658498.739 9     -1412.909 9        59.230 9
E03  26312492.845 9 138273048.578 9      2459.512 9        56.977 9  26312492.845 9 138273048.578 9      2459.512 9        56.977 9  26312496.342 9 103255841.195 9      1836.649 9        56.837 9  26312496.342 9 103255841.195 9      1836.649 9        56.837 9  26312496.046 9 105949473.028 9      1884.562 9        56.837 9  26312496.046 9 105949473.028 9      1884.562 9        56.837 9  26312496.191 9 104602657.115 9      1860.605 9        59.847 9  26312496.191 9 104602657.115 9      1860.605 9        59.847 9
E24  24078683.690 9 126534313.079 9      1237.211 9        57.798 9  24078683.690 9 126534313.079 9      1237.211 9        57.798 9  24078684.708 9  94489899.041 9       923.891 9        57.658 9  24078684.708 9  94489899.041 9       923.891 9        57.658 9  24078684.504 9  96954853.748 9       947.993 9        57.658 9  24078684.504 9  96954853.748 9       947.993 9        57.658 9  24078684.604 9  95722376.397 9       935.942 9        60.668 9  24078684.604 9  95722376.397 9       935.942 9        60.668 9
> 2023 01 08 10 00 43.0000000  0 20       0.000000000000
G08  25077384.407 9 131782493.954 9     -1520.713 9        54.229 9  25077388.512 8 102687648.950 8     -1184.971 8        49.729 8  25077388.223 9  98408990.249 9     -1135.597 9        56.329 9
G13  20024158.334 9 105227641.262 9       563.302 9        56.114 9  20024157.369 8  81995550.078 8       438.936 8        51.614 8  20024159.920 9  78579076.538 9       420.647 9        58.214 9
G17  24954916.970 9 131138891.171 9      2934.155 9        54.189 9  24954919.888 8 102186119.264 8      2286.358 8        49.689 8  24954923.206 9  97928368.286 9      2191.094 9        56.289 9
G24  24510552.476 9 128803770.647 9      3540.699 9        54.419 9  24510556.217 8 100366563.650 8      2758.987 8        49.919 8  24510556.398 9  96184618.532 9      2644.030 9        56.519 9
G07  24614311.156 9 129349017.229 9     -2987.000 9        54.352 9  24614312.740 8 100791417.762 8     -2327.535 8        49.852 8  24614315.755 9  96591780.532 9     -2230.555 9        56.452 9
G18  24774133.676 9 130188905.576 9     -1383.356 9        54.334 9  24774134.856 8 101445882.301 8     -1077.940 8        49.834 8  24774137.117 9  97218974.427 9     -1033.026 9        56.434 9
G20  23535152.178 9 123678007.955 9     -3635.570 9        54.719 9  23535153.722 8  96372454.094 8     -2832.915 8        50.219 8  23535156.065 9  92356938.740 9     -2714.877 9        56.819 9
G14  20963026.030 9 110161420.815 9       106.610 9        55.781 9  20963026.003 8  85840055.705 8        83.073 8        51.281 8  20963027.880 9  82263391.403 9        79.611 9        57.881 9
G23  24851685.791 9 130596446.594 9      3210.265 9        54.297 9  24851686.854 8 101763447.209 8      2501.507 8        49.797 8  24851689.088 9  97523307.568 9      2397.277 9        56.397 9
G05  21755667.456 9 114326774.948 9     -2431.143 9        55.466 9  21755667.085 8  89085782.430 8     -1894.398 8        50.966 8  21755669.659 9  85373881.741 9     -1815.465 9        57.566 9
G30  21869194.267 9 114923362.555 9     -2279.857 9        55.471 9  21869196.773 8  89550667.774 8     -1776.513 8        50.971 8  21869196.454 9  85819385.531 9     -1702.492 9        57.571 9
G15  21106039.967 9 110912962.982 9      2281.998 9        55.715 9  21106039.469 8  86425670.469 8      1778.181 8        51.215 8  21106041.903 9  82824607.617 9      1704.090 9        57.815 9
E05  23311886.860 9 122504771.295 9       350.987 9        57.977 9  23311886.860 9 122504771.295 9       350.987 9        57.977 9  23311889.385 9  91480833.184 9       262.100 9        57.837 9  23311889.385 9  91480833.184 9       262.100 9        57.837 9  23311889.206 9  93867290.426 9       268.938 9        57.837 9  23311889.206 9  93867290.426 9       268.938 9        57.837 9  23311889.294 9  92674061.807 9       265.519 9        60.847 9  23311889.294 9  92674061.807 9       265.519 9        60.847 9
E09  25226699.256 9 132567167.153 9     -2099.218 9        57.362 9  25226699.256 9 132567167.153 9     -2099.218 9        57.362 9  25226702.184 9  98994954.905 9     -1567.599 9        57.222 9  25226702.184 9  98994954.905 9     -1567.599 9        57.222 9  25226701.908 9 101577433.100 9     -1608.493 9        57.222 9  25226701.908 9 101577433.100 9     -1608.493 9        57.222 9  25226702.043 9 100286194.006 9     -1588.046 9        60.232 9  25226702.043 9 100286194.006 9     -1588.046 9        60.232 9
E13  28145815.116 9 147907210.125 9       297.997 9        56.289 9  28145815.116 9 147907210.125 9       297.997 9        56.289 9  28145818.800 9 110450176.228 9       222.530 9        56.149 9  28145818.800 9 110450176.228 9       222.530 9        56.149 9  28145818.401 9 113331486.780 9       228.335 9        56.149 9  28145818.401 9 113331486.780 9       228.335 9        56.149 9  28145818.596 9 111890831.509 9       225.433 9        59.159 9  28145818.596 9 111890831.509 9       225.433 9        59.159 9
E25  27060910.368 9 142205993.354 9      3145.131 9        56.727 9  27060910.368 9 142205993.354 9      3145.131 9        56.727 9  27060915.227 9 106192776.433 9      2348.639 9        56.587 9  27060915.227 9 106192776.433 9      2348.639 9        56.587 9  27060914.795 9 108963024.514 9      2409.907 9        56.587 9  27060914.795 9 108963024.514 9      2409.907 9        56.587 9  27060915.007 9 107577900.479 9      2379.273 9        59.598 9  27060915.007 9 107577900.479 9      2379.273 9        59.598 9
E31  24975871.036 9 131249059.181 9     -1561.267 9        57.420 9  24975871.036 9 131249059.181 9     -1561.267 9        57.420 9  24975874.219 9  98010656.408 9     -1165.882 9        57.280 9  24975874.219 9  98010656.408 9     -1165.882 9        57.280 9  24975873.971 9 100567457.139 9     -1196.296 9        57.280 9  24975873.971 9 100567457.139 9     -1196.296 9        57.280 9  24975874.092 9  99289056.776 9     -1181.089 9        60.290 9  24975874.092 9  99289056.776 9     -1181.089 9        60.290 9
E15  27836179.659 9 146280064.722 9     -1869.374 9        56.360 9  27836179.659 9 146280064.722 9     -1869.374 9        56.360 9  27836184.790 9 109235105.736 9     -1395.962 9        56.220 9  27836184.790 9 109235105.736 9     -1395.962 9        56.220 9  27836184.390 9 112084718.801 9     -1432.379 9        56.220 9  27836184.390 9 112084718.801 9     -1432.379 9        56.220 9  27836184.586 9 110659912.274 9     -1414.170 9        59.230 9  27836184.586 9 110659912.274 9     -1414.170 9        59.230 9
E03  26312024.934 9 138270589.691 9      2458.261 9        56.977 9  26312024.934 9 138270589.691 9      2458.261 9        56.977 9  26312028.431 9 103254005.014 9      1835.715 9        56.837 9  26312028.431 9 103254005.014 9      1835.715 9        56.837 9  26312028.135 9 105947588.946 9      1883.603 9        56.837 9  26312028.135 9 105947588.946 9      1883.603 9        56.837 9  26312028.280 9 104600796.984 9      1859.659 9        59.847 9  26312028.280 9 104600796.984 9      1859.659 9        59.847 9
E24  24078448.260 9 126533075.883 9      1237.185 9        57.798 9  24078448.260 9 126533075.883 9      1237.185 9        57.798 9  24078449.277 9  94488975.160 9       923.872 9        57.658 9  24078449.277 9  94488975.160 9       923.872 9        57.658 9  24078449.074 9  96953905.766 9       947.973 9        57.658 9  24078449.074 9  96953905.766 9       947.973 9        57.658 9  24078449.173 9  95721440.466 9       935.923 9        60.668 9  24078449.173 9  95721440.466 9       935.923 9        60.668 9
> 2023 01 08 10 00 44.0000000  0 20       0.000000000000
G08  25077673.805 9 131784014.753 9     -1520.873 9        54.229 9  25077677.911 8 102688833.988 8     -1185.096 8        49.729 8  25077677.621 9  98410125.911 9     -1135.717 9        56.329 9
G13  20024051.207 9 105227078.303 9       562.624 9        56.114 9  20024050.242 8  81995111.409 8       438.409 8        51.614 8  20024052.792 9  78578656.146 9       420.142 9        58.214 9
G17  24954358.507 9 131135956.445 9      2935.329 9        54.189 9  24954361.425 8 102183832.467 8      2287.273 8        49.689 8  24954364.742 9  97926176.774 9      2191.970 9        56.289 9
G24  24509878.833 9 128800230.634 9      3539.322 9        54.419 9  24509882.574 8 100363805.200 8      2757.915 8        49.919 8  24509882.755 9  96181975.017 9      2643.002 9        56.519 9
G07  24614879.455 9 129352003.644 9     -2985.849 9        54.352 9  24614881.038 8 100793744.836 8     -2326.638 8        49.852 8  24614884.054 9  96594010.644 9     -2229.696 9        56.452 9
G18  24774397.090 9 130190289.824 9     -1385.141 9        54.334 9  24774398.270 8 101446960.934 8     -1079.331 8        49.834 8  24774400.531 9  97220008.117 9     -1034.359 9        56.434 9
G20  23535844.026 9 123681643.631 9     -3635.808 9        54.719 9  23535845.571 8  96375287.085 8     -2833.100 8        50.219 8  23535847.914 9  92359653.689 9     -2715.055 9        56.819 9
G14  20963005.739 9 110161314.183 9       106.664 9        55.781 9  20963005.712 8  85839972.615 8        83.114 8        51.281 8  20963007.588 9  82263311.775 9        79.651 9        57.881 9
G23  24851075.011 9 130593236.932 9      3209.072 9        54.297 9  24851076.075 8 101760946.176 8      2500.577 8        49.797 8  24851078.308 9  97520910.744 9      2396.387 9        56.397 9
G05  21756130.184 9 114329206.592 9     -2432.154 9        55.465 9  21756129.812 8  89087677.217 8     -1895.186 8        50.965 8  21756132.386 9  85375697.578 9     -1816.220 9        57.565 9
G30  21869628.054 9 114925642.121 9     -2279.272 9        55.471 9  21869630.561 8  89552444.057 8     -1776.057 8        50.971 8  21869630.242 9  85821087.803 9     -1702.055 9        57.571 9
G15  21105605.840 9 110910681.630 9      2280.712 9        55.716 9  21105605.342 8  86423892.793 8      1777.178 8        51.216 8  21105607.776 9  82822904.011 9      1703.129 9        57.816 9
E05  23311820.117 9 122504420.558 9       350.495 9        57.977 9  23311820.117 9 122504420.558 9       350.495 9        57.977 9  23311822.642 9  91480571.269 9       261.733 9        57.837 9  23311822.642 9  91480571.269 9       261.733 9        57.837 9  23311822.463 9  93867021.679 9       268.561 9        57.837 9  23311822.463 9  93867021.679 9       268.561 9        57.837 9  23311822.551 9  92673796.476 9       265.147 9        60.847 9  23311822.551 9  92673796.476 9       265.147 9        60.847 9
E09  25227098.658 9 132569266.019 9     -2098.521 9        57.361 9  25227098.658 9 132569266.019 9     -2098.521 9        57.361 9  25227101.586 9  98996522.239 9     -1567.079 9        57.222 9  25227101.586 9  98996522.239 9     -1567.079 9        57.222 9  25227101.310 9 101579041.321 9     -1607.959 9        57.222 9  25227101.310 9 101579041.321 9     -1607.959 9        57.222 9  25227101.445 9 100287781.784 9     -1587.519 9        60.232 9  25227101.445 9 100287781.784 9     -1587.519 9        60.232 9
E13  28145758.511 9 147906912.663 9       296.936 9        56.289 9  28145758.511 9 147906912.663 9       296.936 9        56.289 9  28145762.195 9 110449954.097 9       221.738 9        56.149 9  28145762.195 9 110449954.097 9       221.738 9        56.149 9  28145761.795 9 113331258.855 9       227.523 9        56.149 9  28145761.795 9 113331258.855 9       227.523 9        56.149 9  28145761.991 9 111890606.481 9       224.630 9        59.159 9  28145761.991 9 111890606.481 9       224.630 9        59.159 9
E25  27060311.905 9 142202848.414 9      3144.750 9        56.728 9  27060311.905 9 142202848.414 9      3144.750 9        56.728 9  27060316.764 9 106190427.941 9      2348.354 9        56.588 9  27060316.764 9 106190427.941 9      2348.354 9        56.588 9  27060316.332 9 108960614.757 9      2409.615 9        56.588 9  27060316.332 9 108960614.757 9      2409.615 9        56.588 9  27060316.544 9 107575521.354 9      2378.985 9        59.598 9  27060316.544 9 107575521.354 9      2378.985 9        59.598 9
E31  24976168.099 9 131250620.257 9     -1560.879 9        57.420 9  24976168.099 9 131250620.257 9     -1560.879 9        57.420 9  24976171.282 9  98011822.146 9     -1165.592 9        57.280 9  24976171.282 9  98011822.146 9     -1165.592 9        57.280 9  24976171.034 9 100568653.288 9     -1195.999 9        57.280 9  24976171.034 9 100568653.288 9     -1195.999 9        57.280 9  24976171.156 9  99290237.720 9     -1180.796 9        60.290 9  24976171.156 9  99290237.720 9     -1180.796 9        60.290 9
E15  27836535.546 9 146281934.916 9     -1871.017 9        56.359 9  27836535.546 9 146281934.916 9     -1871.017 9        56.359 9  27836540.677 9 109236502.309 9     -1397.189 9        56.220 9  27836540.677 9 109236502.309 9     -1397.189 9        56.220 9  27836540.277 9 112086151.806 9     -1433.638 9        56.220 9  27836540.277 9 112086151.806 9     -1433.638 9        56.220 9  27836540.473 9 110661327.063 9     -1415.413 9        59.230 9  27836540.473 9 110661327.063 9     -1415.413 9        59.230 9
E03  26311557.258 9 138268132.040 9      2457.046 9        56.977 9  26311557.258 9 138268132.040 9      2457.046 9        56.977 9  26311560.755 9 103252169.755 9      1834.808 9        56.837 9  26311560.755 9 103252169.755 9      1834.808 9        56.837 9  26311560.459 9 105945705.811 9      1882.673 9        56.837 9  26311560.459 9 105945705.811 9      1882.673 9        56.837 9  26311560.604 9 104598937.787 9      1858.740 9        59.847 9  26311560.604 9 104598937.787 9      1858.740 9        59.847 9
E24  24078212.836 9 126531838.724 9      1237.138 9        57.798 9  24078212.836 9 126531838.724 9      1237.138 9        57.798 9  24078213.853 9  94488051.309 9       923.837 9        57.658 9  24078213.853 9  94488051.309 9       923.837 9        57.658 9  24078213.650 9  96952957.814 9       947.937 9        57.658 9  24078213.650 9  96952957.814 9       947.937 9        57.658 9  24078213.750 9  95720504.564 9       935.887 9        60.668 9  24078213.750 9  95720504.564 9       935.887 9        60.668 9
