     3.03           OBSERVATION DATA    M: Mixed            RINEX VERSION / TYPE
CONVBIN 1.0.1 Emlid                     20230629 112543 UTC PGM / RUN BY / DATE 
log: reach-m2-01_raw_202306291111.23                        COMMENT             
format: u-blox                                              COMMENT             
                                                            MARKER NAME         
                                                            MARKER NUMBER       
                                                            MARKER TYPE         
                                                            OBSERVER / AGENCY   
                    EMLID REACH M2                          REC # / TYPE / VERS 
                                                            ANT # / TYPE        
  4157198.3767   671195.0626  4774772.0490                  APPROX POSITION XYZ 
        0.0000        0.0000        0.0000                  ANTENNA: DELTA H/E/N
G    8 C1C L1C D1C S1C C2X L2X D2X S2X                      SYS / # / OBS TYPES 
R    8 C1C L1C D1C S1C C2C L2C D2C S2C                      SYS / # / OBS TYPES 
E    8 C1X L1X D1X S1X C7X L7X D7X S7X                      SYS / # / OBS TYPES 
C    8 C2I L2I D2I S2I C7I L7I D7I S7I                      SYS / # / OBS TYPES 
  2023     6    29    11    11   42.6940000     GPS         TIME OF FIRST OBS   
  2023     6    29    11    26    0.8950000     GPS         TIME OF LAST OBS    
G                                                           SYS / PHASE SHIFT   
R                                                           SYS / PHASE SHIFT   
E                                                           SYS / PHASE SHIFT   
C                                                           SYS / PHASE SHIFT   
  0                                                         GLONASS SLOT / FRQ #
 C1C    0.000 C1P    0.000 C2C    0.000 C2P    0.000        GLONASS COD/PHS/BIS 
                                                            END OF HEADER       
> 2023  6 29 11 12 42.0940000  0 34                     
G 1  21487708.882 1 112918674.584 2                        40.000    21487713.779 1  87988604.556 2                        38.000  
G 2  20761663.692 1 109103276.995 1                        43.000                                                                  
G 8  18689403.653 1  98213476.439 1                        47.000    18689405.558 1  76529991.039 2                        41.000  
G10  19512480.874 1 102538779.135 1                        45.000    19512482.173 1  79900353.752 3                        36.000  
G14  23166247.311 1 121739443.799 2                        38.000    23166252.635 1  94861955.408 3                        36.000  
G16  23161989.349 1 121717063.393 2                        42.000                                                                  
G21  19709653.793 1 103574930.829 1                        43.000                                                                  
G22  22907375.346 1 120379083.113 3                        35.000                                                                  
G23  21777005.248 2 114438937.194 4                        34.000    21777008.515 1  89173206.531 3                        36.000  
G27  19251085.892 1 101165132.833 1                        44.000    19251087.099 1  78829982.522 3                        39.000  
G32  22057831.916 2 115914698.804 5                        29.000    22057841.349 2  90323248.875 4                        34.000  
R 1  21761825.907 2 116329404.708 4                        35.000    21761833.163 8               7                        27.000  
R 2  18723820.407 1  99913883.140 1                        44.000    18723823.026 1  77710796.201 2                        39.000  
R 3  19406988.439 1 103887134.001 1                        45.000    19406988.946 1  80801107.089 2                        40.000  
R 9  20392176.572 1 108893084.944 1                        44.000    20392179.021 2  84694630.833 2                        41.000  
R10  22152364.234 4                                        31.000                                                                  
R16  20801372.834 1 111117198.924 1                        44.000    20801377.631 1  86424505.205 2                        40.000  
R17  19056559.255 1 101975494.489 1                        46.000    19056559.678 2  79314331.097 2                        39.000  
R18  17838982.631 1  95225696.208 1                        46.000    17838984.665 1  74064438.204 1                        42.000  
R19  20121852.411 2 107638420.244 4                        35.000    20121854.536 1  83718720.566 2                        41.000  
E10  23291359.775 1 122396909.790 1                        41.000    23291363.886 1  93784670.238 1                        44.000  
E11  24678950.525 1 129688768.689 2                        38.000    24678954.762 1  99371926.114 3                        36.000  
E12  22036800.718 1 115804171.652 1                        42.000    22036801.388 1  88733066.434 2                        41.000  
E19  25687805.740 1 134990318.479 3                        34.000    25687812.671 1 103434175.936 3                        36.000  
E24  23422787.264 1 123087576.551 2                        41.000    23422791.213 1  94313871.851 1                        43.000  
E25  24943549.186 1 131079236.914 1                        43.000    24943555.014 1 100437354.615 2                        39.000  
E31  25214306.929 1 132502072.438 2                        42.000                                                                  
E33  22925075.565 1 120472088.562 1                        42.000    22925079.328 1  92309792.348 1                        42.000  
C20  24099470.416 1 125492274.797 2                        42.000                                                                  
C27  21682538.026 1 112906668.930 2                        41.000                                                                  
C29  22621530.812 1 117796249.954 1                        45.000                                                                  
C30  19870595.969 1 103471408.771 1                        47.000                                                                  
C32  21159168.654 1 110181345.681 1                        42.000                                                                  
C36  24634613.152 1 128278894.634 2                        42.000                                                                  
> 2023  6 29 11 12 42.1940000  0 34                     
G 1  21487657.776 1 112918406.005 2                        40.000    21487662.685 1  87988395.280 2                        38.000  
G 2  20761633.103 1 109103116.149 1                        43.000                                                                  
G 8  18689408.391 1  98213501.396 1                        47.000    18689410.307 1  76530010.486 2                        41.000  
G10  19512516.975 1 102538968.635 1                        45.000    19512518.240 1  79900501.405 3                        36.000  
G14  23166203.850 1 121739215.279 2                        38.000    23166209.118 1  94861777.350 3                        35.000  
G16  23162071.972 1 121717497.657 1                        42.000                                                                  
G21  19709634.899 1 103574831.408 1                        43.000                                                                  
G22  22907326.376 1 120378826.135 3                        35.000                                                                  
G23  21777076.208 2 114439310.376 4                        34.000    21777079.556 1  89173497.351 3                        36.000  
G27  19251136.365 1 101165398.003 1                        45.000    19251137.556 1  78830189.101 3                        39.000  
G32  22057789.739 2 115914477.435 5                        29.000    22057799.230 2  90323076.368 4                        34.000  
R 1  21761907.098 2 116329838.916 4                        35.000    21761914.857 8               7                        27.000  
R 2  18723837.197 1  99913972.689 1                        44.000    18723839.806 1  77710865.861 2                        39.000  
R 3  19406933.060 1 103886837.469 1                        45.000    19406933.562 1  80800876.469 2                        40.000  
R 9  20392187.262 1 108893142.046 1                        44.000    20392189.715 2  84694675.237 2                        41.000  
R10  22152323.359 4                                        31.000                                                                  
R16  20801447.449 1 111117597.549 1                        44.000    20801452.262 1  86424815.269 2                        40.000  
R17  19056611.210 1 101975772.348 1                        46.000    19056611.584 2  79314547.201 3                        39.000  
R18  17838978.671 1  95225674.821 1                        46.000    17838980.633 1  74064421.557 1                        42.000  
R19  20121806.700 2 107638175.610 4                        35.000    20121808.790 1  83718530.311 2                        41.000  
E10  23291336.191 1 122396786.323 1                        41.000    23291340.468 1  93784575.651 1                        44.000  
E11  24678915.110 1 129688582.383 2                        38.000    24678919.294 1  99371783.345 3                        36.000  
E12  22036796.543 1 115804149.480 1                        42.000    22036797.173 1  88733049.453 2                        41.000  
E19  25687761.699 1 134990087.350 3                        34.000    25687768.658 1 103433998.792 3                        36.000  
E24  23422825.585 1 123087777.837 2                        41.000    23422829.534 1  94314026.078 1                        43.000  
E25  24943534.340 1 131079158.015 1                        43.000    24943539.964 1 100437294.159 2                        39.000  
E31  25214376.432 1 132502437.300 2                        42.000                                                                  
E33  22925116.100 1 120472301.249 1                        42.000    22925119.831 1  92309955.307 1                        42.000  
C20  24099411.334 1 125491967.442 2                        42.000                                                                  
C27  21682591.530 1 112906947.836 2                        41.000                                                                  
C29  22621489.122 1 117796032.998 1                        46.000                                                                  
C30  19870600.499 1 103471432.614 1                        47.000                                                                  
C32  21159142.298 1 110181208.328 1                        42.000                                                                  
C36  24634676.507 1 128279224.541 2                        42.000                                                                  
> 2023  6 29 11 12 42.2940000  0 34                     
G 1  21487606.683 1 112918137.429 2                        40.000    21487611.576 1  87988185.995 2                        38.000  
G 2  20761602.495 1 109102955.296 1                        43.000                                                                  
G 8  18689413.105 1  98213526.332 1                        48.000    18689415.055 1  76530029.917 1                        41.000  
G10  19512553.008 1 102539158.112 1                        46.000    19512554.307 1  79900649.040 3                        37.000  
G14  23166160.371 1 121738986.725 3                        38.000    23166165.619 1  94861599.270 3                        35.000  
G16  23162154.621 1 121717931.948 2                        42.000                                                                  
G21  19709615.985 1 103574731.963 1                        44.000                                                                  
G22  22907277.456 1 120378569.116 4                        35.000                                                                  
G23  21777147.258 2 114439683.620 4                        34.000    21777150.614 1  89173788.183 3                        36.000  
G27  19251186.809 1 101165663.160 1                        45.000    19251188.013 1  78830395.738 3                        39.000  
G32  22057747.613 2 115914256.071 5                        30.000    22057757.119 2  90322903.857 4                        34.000  
R 1  21761988.352 2 116330273.061 4                        35.000    21761996.426 8               7                        27.000  
R 2  18723853.985 1  99914062.222 1                        44.000    18723856.579 1  77710935.489 2                        39.000  
R 3  19406877.666 1 103886540.942 1                        45.000    19406878.122 1  80800645.822 2                        40.000  
R 9  20392197.956 1 108893199.131 1                        44.000    20392200.408 1  84694719.633 2                        41.000  
R10  22152282.526 4               7                        31.000                                                                  
R16  20801522.083 1 111117996.193 1                        44.000    20801526.873 1  86425125.302 2                        40.000  
R17  19056663.130 1 101976050.212 1                        46.000    19056663.515 2  79314763.334 3                        39.000  
R18  17838974.650 1  95225653.429 1                        46.000    17838976.632 1  74064404.935 1                        42.000  
R19  20121760.982 2 107637930.987 4                        35.000    20121763.056 1  83718340.036 2                        41.000  
E10  23291312.707 1 122396662.878 1                        42.000    23291316.969 1  93784481.055 1                        44.000  
E11  24678879.756 1 129688396.058 2                        38.000    24678883.887 1  99371640.590 3                        36.000  
E12  22036792.279 1 115804127.295 1                        42.000    22036792.998 1  88733032.450 2                        41.000  
E19  25687717.732 1 134989856.168 4                        34.000    25687724.678 1 103433821.711 3                        36.000  
E24  23422863.797 1 123087979.112 2                        41.000    23422867.824 1  94314180.312 1                        43.000  
E25  24943519.315 1 131079079.092 1                        43.000    24943524.931 1 100437233.692 2                        39.000  
E31  25214445.953 1 132502802.160 2                        42.000                                                                  
E33  22925156.642 1 120472513.929 1                        43.000    22925160.303 1  92310118.289 1                        42.000  
C20  24099352.314 1 125491660.100 2                        42.000                                                                  
C27  21682645.157 1 112907226.744 2                        41.000                                                                  
C29  22621447.480 1 117795816.036 1                        46.000                                                                  
C30  19870605.086 1 103471456.428 1                        47.000                                                                  
C32  21159115.892 1 110181070.968 1                        42.000                                                                  
C36  24634739.898 1 128279554.420 2                        42.000                                                                  
> 2023  6 29 11 12 42.3940000  0 34                     
G 1  21487555.571 1 112917868.850 2                        41.000    21487560.469 1  87987976.731 2                        38.000  
G 2  20761571.858 1 109102794.457 1                        43.000                                                                  
G 8  18689417.891 1  98213551.290 1                        48.000    18689419.809 1  76530049.351 2                        41.000  
G10  19512589.063 1 102539347.597 1                        46.000    19512590.376 1  79900796.723 3                        37.000  
G14  23166116.879 1 121738758.210 3                        38.000    23166122.137 1  94861421.173 3                        35.000  
G16  23162237.232 1 121718366.238 2                        42.000                                                                  
G21  19709597.024 1 103574632.526 1                        44.000                                                                  
G22  22907228.569 1 120378312.021 4                        35.000                                                                  
G23  21777218.305 2 114440056.816 4                        34.000    21777221.633 1  89174079.001 3                        36.000  
G27  19251237.261 1 101165928.334 1                        45.000    19251238.470 1  78830602.352 3                        39.000  
G32  22057705.443 2 115914034.711 5                        30.000    22057715.022 2  90322731.377 5                        34.000  
R 1  21762069.576 2 116330707.241 4                        35.000    21762077.795 8               7                        27.000  
R 2  18723870.748 1  99914151.772 1                        45.000    18723873.370 1  77711005.122 2                        39.000  
R 3  19406822.286 1 103886244.401 1                        45.000    19406822.717 1  80800415.173 2                        40.000  
R 9  20392208.650 1 108893256.217 1                        44.000    20392211.128 1  84694764.042 2                        41.000  
R10  22152241.687 4                                        31.000                                                                  
R16  20801596.690 1 111118394.820 1                        44.000    20801601.529 1  86425435.348 2                        40.000  
R17  19056715.041 1 101976328.084 1                        46.000    19056715.421 2  79314979.439 3                        39.000  
R18  17838970.633 1  95225632.053 1                        46.000    17838972.632 1  74064388.295 1                        42.000  
R19  20121715.261 2 107637686.349 4                        35.000    20121717.302 1  83718149.775 2                        41.000  
E10  23291289.209 1 122396539.412 1                        42.000    23291293.445 1  93784386.456 1                        44.000  
E11  24678844.325 1 129688209.703 2                        38.000    24678848.439 1  99371497.812 3                        36.000  
E12  22036788.100 1 115804105.104 1                        42.000    22036788.782 1  88733015.439 2                        41.000  
E19  25687673.776 1 134989624.981 4                        34.000    25687680.626 1 103433644.562 3                        36.000  
E24  23422902.108 1 123088180.396 2                        41.000    23422906.115 1  94314334.533 1                        43.000  
E25  24943504.263 1 131079000.192 1                        43.000    24943509.887 1 100437173.216 2                        39.000  
E31  25214515.211 1 132503166.998 2                        42.000                                                                  
E33  22925197.109 1 120472726.627 1                        43.000    22925200.749 1  92310281.241 1                        42.000  
C20  24099293.311 1 125491352.757 2                        41.000                                                                  
C27  21682698.715 1 112907505.646 2                        40.000                                                                  
C29  22621405.833 1 117795599.065 1                        45.000                                                                  
C30  19870609.629 1 103471480.268 1                        47.000                                                                  
C32  21159089.515 1 110180933.587 1                        42.000                                                                  
C36  24634803.216 1 128279884.331 2                        41.000                                                                  
> 2023  6 29 11 12 42.4940000  0 34                     
G 1  21487504.470 1 112917600.282 2                        41.000    21487509.319 1  87987767.463 2                        38.000  
G 2  20761541.263 1 109102633.612 1                        43.000                                                                  
G 8  18689422.623 1  98213576.240 1                        48.000    18689424.544 1  76530068.812 2                        41.000  
G10  19512625.149 1 102539537.090 1                        46.000    19512626.376 1  79900944.351 3                        37.000  
G14  23166073.367 1 121738529.680 3                        38.000    23166078.659 1  94861243.090 3                        35.000  
G16  23162319.866 1 121718800.500 2                        42.000                                                                  
G21  19709578.081 1 103574533.092 1                        44.000                                                                  
G22  22907179.698 1 120378055.098 4                        35.000                                                                  
G23  21777289.275 2 114440430.052 4                        34.000    21777292.652 1  89174369.799 3                        36.000  
G27  19251287.746 1 101166193.487 1                        45.000    19251288.946 1  78830808.984 3                        39.000  
G32  22057663.277 2 115913813.328 5                        30.000    22057672.890 2  90322558.904 4                        33.000  
R 1  21762150.769 2 116331141.433 4                        35.000    21762159.238 8                                        27.000  
R 2  18723887.554 1  99914241.315 1                        45.000    18723890.148 1  77711074.785 2                        39.000  
R 3  19406766.898 1 103885947.881 1                        45.000    19406767.364 1  80800184.555 2                        40.000  
R 9  20392219.363 1 108893313.319 1                        44.000    20392221.827 1  84694808.447 2                        41.000  
R10  22152200.842 4               7                        31.000                                                                  
R16  20801671.372 1 111118793.461 1                        44.000    20801676.184 1  86425745.398 2                        40.000  
R17  19056766.974 1 101976605.952 1                        46.000    19056767.358 2  79315195.568 3                        39.000  
R18  17838966.616 1  95225610.667 1                        46.000    17838968.625 1  74064371.654 1                        42.000  
R19  20121669.508 2 107637441.731 4                        35.000    20121671.534 1  83717959.504 2                        41.000  
E10  23291265.644 1 122396415.932 1                        42.000    23291269.921 1  93784291.860 1                        44.000  
E11  24678808.844 1 129688023.398 3                        38.000    24678812.973 1  99371355.022 3                        36.000  
E12  22036783.927 1 115804082.928 1                        42.000    22036784.579 1  88732998.451 2                        41.000  
E19  25687629.793 1 134989393.823 4                        34.000    25687636.683 1 103433467.433 3                        35.000  
E24  23422940.394 1 123088381.673 2                        41.000    23422944.407 1  94314488.758 1                        43.000  
E25  24943489.218 1 131078921.272 1                        43.000    24943494.982 1 100437112.771 2                        39.000  
E31  25214584.640 1 132503531.846 2                        42.000                                                                  
E33  22925237.516 1 120472939.300 1                        43.000    22925241.216 1  92310444.198 1                        42.000  
C20  24099234.287 1 125491045.397 2                        41.000                                                                  
C27  21682752.258 1 112907784.543 2                        40.000                                                                  
C29  22621364.185 1 117795382.097 1                        45.000                                                                  
C30  19870614.219 1 103471504.095 1                        47.000                                                                  
C32  21159063.145 1 110180796.231 1                        42.000                                                                  
C36  24634866.565 1 128280214.229 2                        41.000                                                                  
> 2023  6 29 11 12 42.5940000  0 34                     
G 1  21487453.366 1 112917331.702 2                        41.000    21487458.200 1  87987558.139 2                        38.000  
G 2  20761510.648 1 109102472.773 1                        44.000                                                                  
G 8  18689427.375 1  98213601.212 1                        48.000    18689429.275 1  76530088.258 2                        41.000  
G10  19512661.179 1 102539726.580 1                        46.000    19512662.403 1  79901091.992 3                        37.000  
G14  23166029.864 1 121738301.132 3                        38.000    23166035.179 1  94861065.059 3                        35.000  
G16  23162402.526 1 121719234.789 2                        42.000                                                                  
G21  19709559.144 1 103574433.661 1                        44.000                                                                  
G22  22907130.707 1 120377797.982 4                        35.000                                                                  
G23  21777360.304 2 114440803.279 4                        34.000    21777363.699 1  89174660.661 3                        36.000  
G27  19251338.220 1 101166458.671 1                        45.000    19251339.411 1  78831015.600 3                        39.000  
G32  22057621.186 2 115913591.980 5                        34.000    22057630.769 2  90322386.407 5                        34.000  
R 1  21762232.013 2 116331575.607 4                        35.000    21762240.208 8                                        27.000  
R 2  18723904.345 1  99914330.890 1                        45.000    18723906.936 1  77711144.451 2                        39.000  
R 3  19406711.541 1 103885651.361 1                        45.000    19406711.975 1  80799953.925 2                        40.000  
R 9  20392230.072 1 108893370.443 1                        44.000    20392232.541 1  84694852.883 2                        41.000  
R10  22152159.908 4               7                        30.000                                                                  
R16  20801746.012 1 111119192.105 1                        44.000    20801750.797 1  86426055.465 2                        40.000  
R17  19056818.892 1 101976883.834 1                        46.000    19056819.284 2  79315411.705 3                        39.000  
R18  17838962.633 1  95225589.301 1                        46.000    17838964.609 1  74064355.044 2                        42.000  
R19  20121623.799 2 107637197.093 4                        35.000    20121625.799 1  83717769.235 2                        41.000  
E10  23291242.173 1 122396292.496 1                        42.000    23291246.454 1  93784197.261 2                        44.000  
E11  24678773.411 1 129687837.091 3                        38.000    24678777.525 1  99371212.285 3                        35.000  
E12  22036779.694 1 115804060.749 1                        42.000    22036780.344 1  88732981.465 2                        41.000  
E19  25687585.825 1 134989162.643 4                        34.000    25687592.709 1 103433290.336 3                        35.000  
E24  23422978.683 1 123088582.998 2                        41.000    23422982.705 1  94314643.010 1                        43.000  
E25  24943474.278 1 131078842.394 1                        43.000    24943479.974 1 100437052.293 2                        39.000  
E31  25214654.155 1 132503896.697 1                        42.000                                                                  
E33  22925278.009 1 120473152.002 1                        43.000    22925281.673 1  92310607.183 2                        42.000  
C20  24099175.248 1 125490738.048 2                        41.000                                                                  
C27  21682805.859 1 112908063.438 2                        40.000                                                                  
C29  22621322.516 1 117795165.142 1                        45.000                                                                  
C30  19870618.777 1 103471527.937 1                        47.000                                                                  
C32  21159036.762 1 110180658.870 1                        42.000                                                                  
C36  24634929.935 1 128280544.131 2                        41.000                                                                  
> 2023  6 29 11 12 42.6940000  0 34                     
G 1  21487402.266 1 112917063.132 1                        41.000    21487407.065 1  87987348.890 3                        38.000  
G 2  20761480.038 1 109102311.938 1                        44.000                                                                  
G 8  18689432.109 1  98213626.179 1                        48.000    18689434.016 1  76530107.719 2                        41.000  
G10  19512697.226 1 102539916.085 1                        46.000    19512698.477 1  79901239.682 3                        37.000  
G14  23165986.336 1 121738072.618 3                        38.000    23165991.668 1  94860886.973 3                        35.000  
G16  23162485.155 1 121719669.068 2                        42.000                                                                  
G21  19709540.216 1 103574334.226 1                        44.000                                                                  
G22  22907081.815 1 120377540.962 4                        34.000                                                                  
G23  21777431.319 2 114441176.535 4                        34.000    21777434.722 1  89174951.442 3                        36.000  
G27  19251388.685 1 101166723.834 1                        45.000    19251389.887 1  78831222.249 3                        39.000  
G32  22057579.054 2 115913370.634 5                        34.000    22057588.652 2  90322213.892 4                        34.000  
R 1  21762313.300 2 116332009.761 4                        35.000    21762321.795 8                                        27.000  
R 2  18723921.082 1  99914420.460 1                        45.000    18723923.733 1  77711214.103 2                        39.000  
R 3  19406656.133 1 103885354.833 1                        45.000    19406656.572 1  80799723.295 2                        40.000  
R 9  20392240.744 1 108893427.553 1                        44.000    20392243.248 1  84694897.298 2                        41.000  
R10  22152119.088 4               7                        30.000                                                                  
R16  20801820.646 1 111119590.747 1                        44.000    20801825.429 1  86426365.516 2                        40.000  
R17  19056870.816 1 101977161.720 1                        46.000    19056871.214 2  79315627.842 3                        39.000  
R18  17838958.610 1  95225567.926 1                        46.000    17838960.597 1  74064338.424 1                        42.000  
R19  20121578.048 2 107636952.466 3                        35.000    20121580.098 1  83717578.969 2                        41.000  
E10  23291218.634 1 122396169.040 1                        42.000    23291223.040 1  93784102.664 1                        44.000  
E11  24678737.906 1 129687650.748 3                        38.000    24678742.092 1  99371069.499 3                        35.000  
E12  22036775.439 1 115804038.573 1                        42.000    22036776.155 1  88732964.475 2                        41.000  
E19  25687541.874 1 134988931.504 4                        34.000    25687548.704 1 103433113.187 3                        35.000  
E24  23423017.017 1 123088784.274 2                        41.000    23423020.973 1  94314797.248 1                        43.000  
E25  24943459.213 1 131078763.485 1                        43.000    24943464.922 1 100436991.836 2                        39.000  
E31  25214723.573 1 132504261.557 1                        42.000                                                                  
E33  22925318.419 1 120473364.684 1                        43.000    22925322.146 1  92310770.148 2                        42.000  
C20  24099116.221 1 125490430.709 2                        41.000                                                                  
C27  21682859.395 1 112908342.357 2                        40.000                                                                  
C29  22621280.823 1 117794948.167 1                        45.000                                                                  
C30  19870623.320 1 103471551.765 1                        46.000                                                                  
C32  21159010.388 1 110180521.515 1                        42.000                                                                  
C36  24634993.290 1 128280874.019 2                        41.000                                                                  
> 2023  6 29 11 12 42.7940000  0 34                     
G 1  21487351.185 1 112916794.575 2                        41.000    21487355.943 1  87987139.615 3                        38.000  
G 2  20761449.443 1 109102151.114 1                        44.000                                                                  
G 8  18689436.893 1  98213651.169 1                        48.000    18689438.748 1  76530127.188 2                        41.000  
G10  19512733.292 1 102540105.611 1                        46.000    19512734.539 1  79901387.335 3                        37.000  
G14  23165942.858 1 121737844.123 3                        38.000    23165948.185 1  94860708.909 3                        35.000  
G16  23162567.805 1 121720103.342 2                        42.000                                                                  
G21  19709521.307 1 103574234.816 1                        44.000                                                                  
G22  22907032.924 1 120377283.989 4                        34.000                                                                  
G23  21777502.392 2 114441549.776 4                        34.000    21777505.725 1  89175242.290 3                        36.000  
G27  19251439.135 1 101166989.024 1                        45.000    19251440.362 1  78831428.882 2                        39.000  
G32  22057536.886 2 115913149.263 5                        34.000    22057546.545 2  90322041.419 4                        34.000  
R 1  21762394.556 2 116332443.994 4                        35.000    21762402.341 8                                        27.000  
R 2  18723937.869 1  99914510.047 1                        45.000    18723940.510 1  77711283.784 2                        39.000  
R 3  19406600.775 1 103885058.344 1                        45.000    19406601.183 1  80799492.698 2                        40.000  
R 9  20392251.433 1 108893484.685 1                        44.000    20392253.893 1  84694941.750 2                        41.000  
R10  22152078.198 4               7                        30.000                                                                  
R16  20801895.259 1 111119989.431 1                        44.000    20801900.064 1  86426675.587 2                        41.000  
R17  19056922.719 1 101977439.607 1                        46.000    19056923.144 2  79315843.974 3                        39.000  
R18  17838954.608 1  95225546.570 1                        46.000    17838956.609 1  74064321.812 1                        42.000  
R19  20121532.337 2 107636707.857 4                        35.000    20121534.384 1  83717388.711 2                        41.000  
E10  23291195.119 1 122396045.598 2                        42.000    23291199.555 1  93784008.080 1                        43.000  
E11  24678702.499 1 129687464.450 3                        39.000    24678706.661 1  99370926.747 3                        35.000  
E12  22036771.199 1 115804016.418 1                        42.000    22036771.957 1  88732947.500 2                        41.000  
E19  25687497.912 1 134988700.364 4                        34.000    25687504.688 1 103432936.086 3                        35.000  
E24  23423055.403 1 123088985.618 2                        41.000    23423059.306 1  94314951.510 1                        43.000  
E25  24943444.228 1 131078684.601 1                        43.000    24943449.951 1 100436931.403 2                        39.000  
E31  25214793.001 1 132504626.413 1                        42.000                                                                  
E33  22925358.898 1 120473577.374 1                        43.000    22925362.616 1  92310933.132 2                        42.000  
C20  24099057.210 1 125490123.363 2                        41.000                                                                  
C27  21682912.939 1 112908621.267 2                        40.000                                                                  
C29  22621239.148 1 117794731.229 1                        45.000                                                                  
C30  19870627.923 1 103471575.622 1                        46.000                                                                  
C32  21158984.000 1 110180384.168 1                        42.000                                                                  
C36  24635056.659 1 128281203.950 2                        41.000                                                                  
> 2023  6 29 11 12 42.8940000  0 34                     
G 1  21487300.077 1 112916526.019 2                        41.000    21487304.803 1  87986930.348 3                        38.000  
G 2  20761418.866 1 109101990.285 1                        44.000                                                                  
G 8  18689441.639 1  98213676.150 1                        47.000    18689443.491 1  76530146.641 2                        41.000  
G10  19512769.357 1 102540295.112 1                        45.000    19512770.595 1  79901535.013 3                        37.000  
G14  23165899.332 1 121737615.605 3                        38.000    23165904.727 1  94860530.861 3                        35.000  
G16  23162650.465 1 121720537.635 1                        41.000                                                                  
G21  19709502.350 1 103574135.372 1                        44.000                                                                  
G22  22906984.001 1 120377026.923 4                        34.000                                                                  
G23  21777573.424 2 114441922.993 4                        33.000    21777576.784 1  89175533.168 3                        36.000  
G27  19251489.578 1 101167254.225 1                        44.000    19251490.800 1  78831635.510 2                        38.000  
G32  22057494.708 2 115912927.919 4                        34.000    22057504.434 2  90321868.941 4                        34.000  
R 1  21762475.754 2 116332878.144 4                        34.000    21762483.859 8                                        27.000  
R 2  18723954.618 1  99914599.635 1                        45.000    18723957.287 1  77711353.464 2                        39.000  
R 3  19406545.330 1 103884761.831 1                        44.000    19406545.767 1  80799262.081 2                        40.000  
R 9  20392262.137 1 108893541.824 1                        43.000    20392264.612 1  84694986.187 2                        41.000  
R10  22152037.367 4                                        30.000                                                                  
R16  20801969.896 1 111120388.090 1                        44.000    20801974.722 1  86426985.661 2                        41.000  
R17  19056974.690 1 101977717.502 1                        45.000    19056975.122 2  79316060.114 3                        38.000  
R18  17838950.596 1  95225525.207 1                        46.000    17838952.618 1  74064305.189 2                        42.000  
R19  20121486.613 2 107636463.233 4                        35.000    20121488.658 1  83717198.454 2                        41.000  
E10  23291171.621 1 122395922.143 1                        42.000    23291176.021 1  93783913.498 1                        43.000  
E11  24678667.065 1 129687278.166 3                        38.000    24678671.208 1  99370784.003 3                        35.000  
E12  22036766.935 1 115803994.237 1                        42.000    22036767.769 1  88732930.512 2                        41.000  
E19  25687453.981 1 134988469.181 4                        34.000    25687460.671 1 103432758.963 3                        35.000  
E24  23423093.647 1 123089186.923 2                        41.000    23423097.624 1  94315105.765 1                        43.000  
E25  24943429.282 1 131078605.724 1                        43.000    24943434.956 1 100436870.961 2                        39.000  
E31  25214862.460 1 132504991.270 1                        42.000                                                                  
E33  22925399.345 1 120473790.085 1                        42.000    22925403.056 1  92311096.109 2                        42.000  
C20  24098998.181 1 125489816.026 2                        41.000                                                                  
C27  21682966.492 1 112908900.192 2                        39.000                                                                  
C29  22621197.492 1 117794514.284 1                        44.000                                                                  
C30  19870632.524 1 103471599.473 1                        46.000                                                                  
C32  21158957.650 1 110180246.840 1                        42.000                                                                  
C36  24635120.001 1 128281533.832 2                        41.000                                                                  
> 2023  6 29 11 12 42.9940000  0 34                     
G 1  21487248.962 1 112916257.442 2                        40.000    21487253.691 1  87986721.077 3                        38.000  
G 2  20761388.243 1 109101829.429 1                        43.000                                                                  
G 8  18689446.395 1  98213701.118 1                        46.000    18689448.283 1  76530166.102 2                        41.000  
G10  19512805.414 1 102540484.628 1                        45.000    19512806.672 1  79901682.687 3                        37.000  
G14  23165855.840 1 121737387.090 3                        38.000    23165861.234 1  94860352.780 4                        35.000  
G16  23162733.104 1 121720971.892 2                        41.000                                                                  
G21  19709483.402 1 103574035.961 1                        43.000                                                                  
G22  22906935.072 1 120376769.948 4                        34.000                                                                  
G23  21777644.430 2 114442296.232 5                        33.000    21777647.803 1  89175823.937 3                        36.000  
G27  19251540.039 1 101167519.403 1                        44.000    19251541.252 1  78831842.148 2                        38.000  
G32  22057452.532 2 115912706.586 5                        33.000    22057462.327 2  90321696.451 4                        33.000  
R 1  21762556.977 2 116333312.372 4                        34.000    21762566.100 8                                        26.000  
R 2  18723971.401 1  99914689.218 1                        44.000    18723974.059 1  77711423.158 2                        39.000  
R 3  19406489.949 1 103884465.325 1                        42.000    19406490.356 1  80799031.465 2                        40.000  
R 9  20392272.828 1 108893598.955 1                        42.000    20392275.257 1  84695030.620 2                        41.000  
R10  22151996.543 4                                        30.000                                                                  
R16  20802044.521 1 111120786.729 2                        43.000    20802049.358 1  86427295.712 2                        41.000  
R17  19057026.601 1 101977995.379 1                        45.000    19057027.048 2  79316276.231 3                        38.000  
R18  17838946.554 1  95225503.837 1                        45.000    17838948.599 1  74064288.567 2                        42.000  
R19  20121440.866 2 107636218.584 4                        35.000    20121442.943 1  83717008.190 2                        41.000  
E10  23291148.139 1 122395798.682 2                        42.000    23291152.500 1  93783818.902 1                        44.000  
E11  24678631.577 1 129687091.819 3                        38.000    24678635.779 1  99370641.228 3                        35.000  
E12  22036762.734 1 115803972.062 1                        42.000    22036763.501 1  88732913.507 2                        41.000  
E19  25687409.986 1 134988238.013 4                        34.000    25687416.591 1 103432581.827 3                        35.000  
E24  23423131.973 1 123089388.222 2                        40.000    23423135.937 1  94315260.009 1                        43.000  
E25  24943414.170 1 131078526.824 1                        42.000    24943419.960 1 100436810.522 2                        39.000  
E31  25214931.859 1 132505356.105 1                        41.000                                                                  
E33  22925439.810 1 120474002.774 2                        42.000    22925443.508 1  92311259.065 2                        42.000  
C20  24098939.135 1 125489508.656 2                        41.000                                                                  
C27  21683020.053 1 112909179.077 2                        39.000                                                                  
C29  22621155.835 1 117794297.298 1                        44.000                                                                  
C30  19870637.144 1 103471623.312 1                        45.000                                                                  
C32  21158931.284 1 110180109.495 1                        42.000                                                                  
C36  24635183.373 1 128281863.730 2                        41.000                                                                  
> 2023  6 29 11 12 43.0940000  0 34                     
G 1  21487197.844 1 112915988.849 2                        39.000    21487202.584 1  87986511.795 3                        38.000  
G 2  20761357.693 1 109101668.596 1                        43.000                                                                  
G 8  18689451.169 1  98213726.098 1                        46.000    18689453.029 1  76530185.571 2                        41.000  
G10  19512841.473 1 102540674.134 1                        45.000    19512842.713 1  79901830.356 3                        37.000  
G14  23165812.340 1 121737158.590 3                        38.000    23165817.768 1  94860174.699 4                        35.000  
G16  23162815.753 1 121721406.141 2                        41.000                                                                  
G21  19709464.479 1 103573936.533 1                        43.000                                                                  
G22  22906886.145 1 120376512.902 4                        34.000                                                                  
G23  21777715.413 2 114442669.436 5                        33.000    21777718.827 1  89176114.777 4                        36.000  
G27  19251590.525 1 101167784.572 1                        44.000    19251591.696 1  78832048.794 2                        38.000  
G32  22057410.463 2 115912485.204 5                        33.000    22057420.208 2  90321523.946 4                        34.000  
R 1  21762638.185 2 116333746.533 4                        34.000    21762647.602 8                                        26.000  
R 2  18723988.196 1  99914778.818 1                        44.000    18723990.856 1  77711492.840 2                        39.000  
R 3  19406434.514 1 103884168.807 1                        42.000    19406434.970 1  80798800.831 2                        40.000  
R 9  20392283.540 1 108893656.097 1                        42.000    20392285.972 1  84695075.065 2                        41.000  
R10  22151955.733 4                                        30.000                                                                  
R16  20802119.172 1 111121185.386 2                        42.000    20802123.991 1  86427605.772 2                        41.000  
R17  19057078.545 1 101978273.256 1                        45.000    19057079.009 2  79316492.382 3                        38.000  
R18  17838942.564 1  95225482.468 1                        45.000    17838944.600 1  74064271.952 2                        42.000  
R19  20121395.110 2 107635973.996 4                        35.000    20121397.186 1  83716817.911 2                        41.000  
E10  23291124.669 1 122395675.226 2                        40.000    23291129.008 1  93783724.298 1                        44.000  
E11  24678596.061 1 129686905.473 3                        38.000    24678600.332 1  99370498.456 3                        35.000  
E12  22036758.576 1 115803949.868 1                        42.000    22036759.285 1  88732896.509 2                        41.000  
E19  25687365.976 1 134988006.842 4                        33.000    25687372.538 1 103432404.696 3                        35.000  
E24  23423170.226 1 123089589.520 2                        40.000    23423174.249 1  94315414.255 1                        43.000  
E25  24943399.210 1 131078447.925 1                        42.000    24943404.907 1 100436750.063 2                        39.000  
E31  25215001.302 1 132505720.945 1                        41.000                                                                  
E33  22925480.294 1 120474215.440 1                        42.000    22925483.952 1  92311422.023 2                        42.000  
C20  24098880.116 1 125489201.305 2                        41.000                                                                  
C27  21683073.576 1 112909457.978 2                        39.000                                                                  
C29  22621114.160 1 117794080.332 1                        44.000                                                                  
C30  19870641.734 1 103471647.146 1                        45.000                                                                  
C32  21158904.872 1 110179972.127 1                        42.000                                                                  
C36  24635246.734 1 128282193.621 2                        41.000                                                                  
> 2023  6 29 11 12 43.1940000  0 34                     
G 1  21487146.759 1 112915720.278 2                        39.000    21487151.519 1  87986302.501 3                        38.000  
G 2  20761327.079 1 109101507.737 1                        43.000                                                                  
G 8  18689455.947 1  98213751.071 1                        46.000    18689457.769 1  76530205.024 2                        41.000  
G10  19512877.522 1 102540863.631 1                        45.000    19512878.756 1  79901978.040 3                        37.000  
G14  23165768.841 1 121736930.042 3                        38.000    23165774.281 1  94859996.663 4                        35.000  
G16  23162898.349 1 121721840.410 1                        41.000                                                                  
G21  19709445.510 1 103573837.090 1                        43.000                                                                  
G22  22906837.229 2 120376255.824 4                        33.000                                                                  
G23  21777786.479 2 114443042.603 5                        33.000    21777789.885 1  89176405.608 4                        36.000  
G27  19251640.964 1 101168049.754 1                        44.000    19251642.126 1  78832255.406 2                        38.000  
G32  22057368.339 2 115912263.830 4                        33.000    22057378.097 2  90321351.470 4                        34.000  
R 1  21762719.424 2 116334180.710 4                        34.000    21762728.982 8                                        26.000  
R 2  18724005.009 1  99914868.414 1                        44.000    18724007.650 1  77711562.509 2                        39.000  
R 3  19406379.121 1 103883872.302 1                        42.000    19406379.559 1  80798570.223 2                        40.000  
R 9  20392294.253 1 108893713.228 1                        42.000    20392296.673 1  84695119.499 2                        41.000  
R10  22151914.842 4                                        29.000                                                                  
R16  20802193.777 1 111121584.035 1                        43.000    20802198.619 1  86427915.849 2                        41.000  
R17  19057130.456 1 101978551.135 1                        45.000    19057130.950 2  79316708.496 3                        38.000  
R18  17838938.537 1  95225461.095 1                        45.000    17838940.591 1  74064255.340 2                        42.000  
R19  20121349.330 2 107635729.318 4                        35.000    20121351.475 1  83716627.633 2                        40.000  
E10  23291101.218 1 122395551.747 2                        40.000    23291105.541 1  93783629.685 1                        44.000  
E11  24678560.693 1 129686719.153 3                        38.000    24678564.888 1  99370355.679 3                        35.000  
E12  22036754.364 1 115803927.676 1                        42.000    22036755.081 1  88732879.510 2                        41.000  
E19  25687322.062 1 134987775.640 4                        33.000    25687328.562 1 103432227.560 3                        35.000  
E24  23423208.556 1 123089790.819 2                        40.000    23423212.553 1  94315568.507 1                        43.000  
E25  24943384.277 1 131078369.046 1                        42.000    24943389.854 1 100436689.610 2                        39.000  
E31  25215070.767 1 132506085.795 1                        41.000                                                                  
E33  22925520.775 1 120474428.107 1                        42.000    22925524.406 1  92311584.985 2                        42.000  
C20  24098821.128 1 125488893.928 2                        41.000                                                                  
C27  21683127.105 1 112909736.887 2                        39.000                                                                  
C29  22621072.476 1 117793863.340 1                        44.000                                                                  
C30  19870646.299 1 103471670.985 1                        45.000                                                                  
C32  21158878.513 1 110179834.788 2                        42.000                                                                  
C36  24635310.079 1 128282523.504 2                        41.000                                                                  
> 2023  6 29 11 12 43.2940000  0 34                     
G 1  21487095.665 1 112915451.706 2                        39.000    21487100.429 1  87986093.246 3                        38.000  
G 2  20761296.491 1 109101346.900 1                        43.000                                                                  
G 8  18689460.724 1  98213776.057 1                        46.000    18689462.501 1  76530224.506 2                        41.000  
G10  19512913.575 1 102541053.156 1                        45.000    19512914.831 1  79902125.693 3                        37.000  
G14  23165725.411 1 121736701.580 3                        38.000    23165730.794 2  94859818.614 4                        35.000  
G16  23162980.955 1 121722274.672 2                        41.000                                                                  
G21  19709426.589 1 103573737.674 1                        43.000                                                                  
G22  22906788.333 2 120375998.858 4                        33.000                                                                  
G23  21777857.503 2 114443415.887 5                        33.000    21777860.884 1  89176696.425 4                        36.000  
G27  19251691.430 1 101168314.965 1                        44.000    19251692.604 1  78832462.057 2                        38.000  
G32  22057326.242 2 115912042.466 4                        33.000    22057335.968 2  90321178.976 4                        34.000  
R 1  21762800.667 2 116334614.901 4                        34.000    21762809.911 8                                        26.000  
R 2  18724021.791 1  99914958.024 1                        44.000    18724024.445 1  77711632.224 2                        39.000  
R 3  19406323.741 1 103883575.808 1                        42.000    19406324.175 1  80798339.602 2                        40.000  
R 9  20392304.948 1 108893770.405 1                        42.000    20392307.347 1  84695163.964 2                        41.000  
R10  22151874.121 4                                        29.000                                                                  
R16  20802268.425 1 111121982.703 1                        43.000    20802273.267 1  86428225.924 2                        41.000  
R17  19057182.383 1 101978829.016 1                        45.000    19057182.874 2  79316924.621 3                        38.000  
R18  17838934.523 1  95225439.735 1                        45.000    17838936.544 1  74064238.710 2                        42.000  
R19  20121303.621 2 107635484.687 4                        35.000    20121305.749 1  83716437.359 2                        40.000  
E10  23291077.775 1 122395428.285 2                        41.000    23291082.087 1  93783535.090 1                        44.000  
E11  24678525.146 1 129686532.793 3                        38.000    24678529.458 1  99370212.870 3                        36.000  
E12  22036750.137 1 115803905.523 1                        42.000    22036750.877 1  88732862.519 2                        41.000  
E19  25687277.994 1 134987544.481 4                        33.000    25687284.579 1 103432050.431 3                        35.000  
E24  23423246.857 1 123089992.139 2                        40.000    23423250.842 1  94315722.741 1                        43.000  
E25  24943369.196 1 131078290.162 1                        42.000    24943374.879 1 100436629.163 2                        39.000  
E31  25215140.093 1 132506450.622 1                        41.000                                                                  
E33  22925561.220 1 120474640.813 2                        42.000    22925564.873 1  92311747.957 2                        42.000  
C20  24098762.107 1 125488586.563 2                        41.000                                                                  
C27  21683180.704 1 112910015.785 2                        39.000                                                                  
C29  22621030.779 1 117793646.380 1                        44.000                                                                  
C30  19870650.884 1 103471694.831 1                        45.000                                                                  
C32  21158852.130 1 110179697.449 2                        42.000                                                                  
C36  24635373.487 1 128282853.393 2                        41.000                                                                  
> 2023  6 29 11 12 43.3940000  0 34                     
G 1  21487044.569 1 112915183.118 2                        39.000    21487049.332 1  87985883.946 3                        38.000  
G 2  20761265.907 1 109101186.061 1                        43.000                                                                  
G 8  18689465.482 1  98213801.044 1                        46.000    18689467.230 1  76530243.975 2                        41.000  
G10  19512949.679 1 102541242.678 1                        44.000    19512950.913 1  79902273.385 3                        37.000  
G14  23165681.932 1 121736473.033 3                        38.000    23165687.291 2  94859640.547 4                        34.000  
G16  23163063.569 1 121722708.924 2                        41.000                                                                  
G21  19709407.676 1 103573638.231 1                        43.000                                                                  
G22  22906739.428 1 120375741.776 4                        33.000                                                                  
G23  21777928.501 2 114443789.150 5                        32.000    21777931.915 1  89176987.240 3                        36.000  
G27  19251741.895 1 101168580.123 1                        44.000    19251743.052 1  78832668.721 2                        38.000  
G32  22057284.212 2 115911821.111 4                        33.000    22057293.864 2  90321006.502 4                        34.000  
R 1  21762881.954 2 116335049.132 4                        34.000    21762891.321 8                                        27.000  
R 2  18724038.558 1  99915047.643 1                        44.000    18724041.262 1  77711701.905 2                        39.000  
R 3  19406268.373 1 103883279.314 1                        42.000    19406268.822 1  80798109.024 2                        40.000  
R 9  20392315.638 1 108893827.546 1                        42.000    20392318.025 1  84695208.411 2                        41.000  
R10  22151833.275 4                                        29.000                                                                  
R16  20802343.067 1 111122381.355 1                        43.000    20802347.890 1  86428535.979 2                        41.000  
R17  19057234.306 1 101979106.897 1                        45.000    19057234.815 2  79317140.750 3                        38.000  
R18  17838930.522 1  95225418.377 1                        45.000    17838932.533 1  74064222.108 2                        42.000  
R19  20121257.883 2 107635240.055 4                        35.000    20121259.983 1  83716247.085 2                        40.000  
E10  23291054.249 1 122395304.819 2                        41.000    23291058.617 1  93783440.487 1                        44.000  
E11  24678489.665 1 129686346.473 3                        38.000    24678494.013 1  99370070.132 3                        35.000  
E12  22036745.939 1 115803883.320 2                        42.000    22036746.629 1  88732845.517 2                        41.000  
E19  25687233.984 1 134987313.306 4                        33.000    25687240.543 1 103431873.306 3                        35.000  
E24  23423285.162 1 123090193.436 2                        40.000    23423289.164 1  94315877.009 1                        43.000  
E25  24943354.105 1 131078211.260 1                        42.000    24943359.884 1 100436568.725 2                        39.000  
E31  25215209.444 1 132506815.448 1                        41.000                                                                  
E33  22925601.623 1 120474853.484 2                        42.000    22925605.362 1  92311910.909 2                        42.000  
C20  24098703.053 1 125488279.209 2                        41.000                                                                  
C27  21683234.251 1 112910294.682 2                        39.000                                                                  
C29  22620989.093 1 117793429.394 1                        44.000                                                                  
C30  19870655.480 1 103471718.677 1                        45.000                                                                  
C32  21158825.734 1 110179560.105 2                        42.000                                                                  
C36  24635436.804 1 128283183.280 2                        41.000                                                                  
> 2023  6 29 11 12 43.4940000  0 34                     
G 1  21486993.471 1 112914914.541 2                        39.000    21486998.224 1  87985674.662 3                        38.000  
G 2  20761235.305 1 109101025.206 1                        42.000                                                                  
G 8  18689470.250 1  98213826.026 1                        46.000    18689471.982 1  76530263.447 2                        41.000  
G10  19512985.717 1 102541432.187 1                        44.000    19512986.975 1  79902421.048 3                        37.000  
G14  23165638.437 1 121736244.507 3                        38.000    23165643.836 1  94859462.492 4                        34.000  
G16  23163146.215 1 121723143.162 2                        41.000                                                                  
G21  19709388.764 1 103573538.791 1                        43.000                                                                  
G22  22906690.499 1 120375484.774 4                        33.000                                                                  
G23  21777999.551 2 114444162.289 5                        32.000    21778002.961 1  89177278.077 3                        35.000  
G27  19251792.378 1 101168845.320 1                        43.000    19251793.476 1  78832875.332 3                        38.000  
G32  22057242.129 2 115911599.719 4                        33.000    22057251.728 2  90320834.022 4                        34.000  
R 1  21762963.157 2 116335483.266 4                        33.000    21762972.203 8                                        27.000  
R 2  18724055.362 1  99915137.266 1                        44.000    18724058.025 1  77711771.618 2                        39.000  
R 3  19406212.997 1 103882982.801 1                        42.000    19406213.430 1  80797878.377 2                        40.000  
R 9  20392326.320 1 108893884.705 1                        42.000    20392328.687 1  84695252.858 2                        41.000  
R10  22151792.430 4                                        29.000                                                                  
R16  20802417.668 1 111122780.010 1                        43.000    20802422.528 1  86428846.043 2                        41.000  
R17  19057286.243 1 101979384.769 1                        45.000    19057286.753 2  79317356.877 3                        38.000  
R18  17838926.487 1  95225397.006 1                        45.000    17838928.530 1  74064205.487 2                        42.000  
R19  20121212.212 2 107634995.410 4                        35.000    20121214.264 1  83716056.806 2                        40.000  
E10  23291030.793 1 122395181.364 2                        40.000    23291035.177 1  93783345.883 1                        44.000  
E11  24678454.178 1 129686160.092 3                        38.000    24678458.498 1  99369927.282 3                        35.000  
E12  22036741.675 1 115803861.125 2                        41.000    22036742.345 1  88732828.510 2                        41.000  
E19  25687190.010 1 134987082.146 4                        33.000    25687196.547 1 103431696.164 3                        35.000  
E24  23423323.486 1 123090394.745 2                        40.000    23423327.439 1  94316031.262 1                        43.000  
E25  24943339.152 1 131078132.371 1                        42.000    24943344.900 1 100436508.272 2                        39.000  
E31  25215279.005 1 132507180.288 2                        41.000                                                                  
E33  22925642.121 1 120475066.160 2                        42.000    22925645.846 1  92312073.871 2                        42.000  
C20  24098643.988 1 125487971.816 2                        41.000                                                                  
C27  21683287.769 1 112910573.587 2                        39.000                                                                  
C29  22620947.401 1 117793212.397 1                        44.000                                                                  
C30  19870660.018 1 103471742.517 1                        45.000                                                                  
C32  21158799.379 1 110179422.757 2                        41.000                                                                  
C36  24635500.157 1 128283513.159 2                        41.000                                                                  
> 2023  6 29 11 12 43.5940000  0 34                     
G 1  21486942.340 1 112914645.941 2                        39.000    21486947.127 1  87985465.364 2                        38.000  
G 2  20761204.718 1 109100864.366 1                        42.000                                                                  
G 8  18689475.018 1  98213851.015 1                        46.000    18689476.754 1  76530282.893 2                        41.000  
G10  19513021.802 1 102541621.719 1                        44.000    19513023.039 1  79902568.718 3                        37.000  
G14  23165594.962 1 121736016.008 3                        38.000    23165600.340 1  94859284.421 4                        34.000  
G16  23163228.828 1 121723577.436 2                        41.000                                                                  
G21  19709369.839 1 103573439.372 1                        43.000                                                                  
G22  22906641.595 1 120375227.731 4                        33.000                                                                  
G23  21778070.596 2               6                        32.000    21778073.980 1  89177568.904 3                        35.000  
G27  19251842.825 1 101169110.518 1                        43.000    19251843.926 1  78833081.986 2                        38.000  
G32  22057200.026 2 115911378.368 5                        32.000    22057209.618 2  90320661.538 4                        33.000  
R 1  21763044.342 2 116335917.483 4                        33.000    21763053.416 8                                        27.000  
R 2  18724072.167 1  99915226.889 1                        44.000    18724074.792 1  77711841.315 2                        39.000  
R 3  19406157.632 1 103882686.323 1                        42.000    19406158.031 1  80797647.779 2                        40.000  
R 9  20392337.022 1 108893941.879 1                        42.000    20392339.411 1  84695297.321 2                        41.000  
R10  22151751.525 4                                        29.000                                                                  
R16  20802492.293 1 111123178.690 1                        43.000    20802497.142 1  86429156.126 2                        41.000  
R17  19057338.176 1 101979662.658 1                        45.000    19057338.691 2  79317572.990 3                        38.000  
R18  17838922.484 1  95225375.655 1                        45.000    17838924.546 1  74064188.861 2                        42.000  
R19  20121166.497 2 107634750.767 4                        34.000    20121168.543 1  83715866.513 2                        40.000  
E10  23291007.320 1 122395057.888 2                        40.000    23291011.642 1  93783251.259 1                        44.000  
E11  24678418.749 1 129685973.761 3                        38.000    24678423.017 1  99369784.534 3                        35.000  
E12  22036737.565 1 115803838.964 2                        41.000    22036738.177 1  88732811.524 2                        41.000  
E19  25687145.976 1 134986850.937 4                        33.000    25687152.556 1 103431519.048 3                        35.000  
E24  23423361.769 1 123090596.053 2                        40.000    23423365.744 1  94316185.501 1                        43.000  
E25  24943324.140 1 131078053.486 1                        42.000    24943329.872 1 100436447.844 2                        39.000  
E31  25215348.421 1 132507545.128 2                        41.000                                                                  
E33  22925682.559 1 120475278.823 2                        42.000    22925686.309 1  92312236.825 2                        41.000  
C20  24098584.951 1 125487664.455 2                        41.000                                                                  
C27  21683341.331 1 112910852.492 2                        39.000                                                                  
C29  22620905.710 1 117792995.433 1                        44.000                                                                  
C30  19870664.533 1 103471766.363 1                        45.000                                                                  
C32  21158772.981 1 110179285.433 2                        41.000                                                                  
C36  24635563.472 1 128283843.032 2                        41.000                                                                  
> 2023  6 29 11 12 43.6940000  0 34                     
G 1  21486891.230 1 112914377.351 2                        39.000    21486896.009 1  87985256.081 2                        38.000  
G 2  20761174.139 1 109100703.506 2                        42.000                                                                  
G 8  18689479.804 1  98213876.003 1                        46.000    18689481.546 1  76530302.381 2                        41.000  
G10  19513057.903 1 102541811.236 1                        44.000    19513059.103 1  79902716.393 3                        37.000  
G14  23165551.476 1 121735787.507 3                        37.000    23165556.803 2  94859106.361 4                        34.000  
G16  23163311.468 1 121724011.655 2                        41.000                                                                  
G21  19709350.908 1 103573339.940 1                        43.000                                                                  
G22  22906592.713 2 120374970.674 4                        33.000                                                                  
G23  21778141.623 2               6                        32.000    21778144.989 1  89177859.724 3                        35.000  
G27  19251893.295 1 101169375.693 1                        43.000    19251894.355 1  78833288.621 3                        38.000  
G32  22057157.970 2 115911156.986 5                        32.000    22057167.471 2  90320489.004 4                        33.000  
R 1  21763125.569 2 116336351.668 4                        33.000    21763134.479 8                                        27.000  
R 2  18724088.999 1  99915316.523 1                        44.000    18724091.569 1  77711911.024 2                        39.000  
R 3  19406102.245 1 103882389.822 1                        42.000    19406102.666 1  80797417.174 2                        40.000  
R 9  20392347.723 1 108893999.036 1                        42.000    20392350.095 1  84695341.772 2                        41.000  
R10  22151710.641 4               7                        29.000                                                                  
R16  20802566.903 1 111123577.349 1                        43.000    20802571.765 1  86429466.183 2                        40.000  
R17  19057390.092 1 101979940.524 1                        45.000    19057390.620 2  79317789.128 3                        38.000  
R18  17838918.485 1  95225354.282 1                        45.000    17838920.520 1  74064172.246 2                        42.000  
R19  20121120.752 2 107634506.126 4                        34.000    20121122.833 1  83715676.247 2                        40.000  
E10  23290983.792 1 122394934.414 2                        41.000    23290988.220 1  93783156.653 1                        44.000  
E11  24678383.199 1 129685787.413 3                        38.000    24678387.551 1  99369641.769 3                        35.000  
E12  22036733.357 1 115803816.769 2                        41.000    22036733.992 1  88732794.509 2                        41.000  
E19  25687101.963 1 134986619.797 4                        33.000    25687108.551 1 103431341.902 3                        35.000  
E24  23423400.120 1 123090797.376 2                        40.000    23423404.098 1  94316339.740 1                        43.000  
E25  24943309.077 1 131077974.590 2                        42.000    24943314.881 1 100436387.407 2                        38.000  
E31  25215417.766 1 132507909.946 2                        41.000                                                                  
E33  22925723.027 1 120475491.513 1                        42.000    22925726.748 1  92312399.781 2                        42.000  
C20  24098525.948 1 125487357.072 2                        41.000                                                                  
C27  21683394.931 1 112911131.405 2                        39.000                                                                  
C29  22620864.047 1 117792778.447 1                        44.000                                                                  
C30  19870669.114 1 103471790.207 1                        45.000                                                                  
C32  21158746.588 1 110179148.100 2                        41.000                                                                  
C36  24635626.809 1 128284172.923 2                        41.000                                                                  
> 2023  6 29 11 12 43.7940000  0 34                     
G 1  21486840.137 1 112914108.787 2                        39.000    21486844.906 1  87985046.780 2                        38.000  
G 2  20761143.523 1 109100542.659 1                        42.000                                                                  
G 8  18689484.565 1  98213900.994 1                        46.000    18689486.312 1  76530321.863 2                        41.000  
G10  19513093.971 1 102542000.758 1                        45.000    19513095.165 1  79902864.074 3                        37.000  
G14  23165508.008 1 121735559.000 3                        37.000    23165513.315 2  94858928.297 4                        34.000  
G16  23163394.115 1 121724445.914 2                        41.000                                                                  
G21  19709331.960 1 103573240.483 1                        43.000                                                                  
G22  22906543.771 2 120374713.639 5                        33.000                                                                  
G23  21778212.621 2               6                        32.000    21778216.000 1  89178150.536 3                        35.000  
G27  19251943.759 1 101169640.903 1                        43.000    19251944.834 1  78833495.268 3                        38.000  
G32  22057115.829 2 115910935.629 5                        32.000    22057125.370 2  90320316.511 4                        33.000  
R 1  21763206.765 2 116336785.832 4                        33.000    21763215.360 9                                        27.000  
R 2  18724105.785 1  99915406.142 1                        45.000    18724108.365 1  77711980.734 2                        39.000  
R 3  19406046.831 1 103882093.318 1                        43.000    19406047.276 1  80797186.576 2                        40.000  
R 9  20392358.429 1 108894056.210 1                        42.000    20392360.790 1  84695386.255 2                        41.000  
R10  22151669.751 4               7                        29.000                                                                  
R16  20802641.530 1 111123976.014 1                        43.000    20802646.392 1  86429776.260 2                        41.000  
R17  19057442.054 1 101980218.405 1                        45.000    19057442.548 2  79318005.246 3                        38.000  
R18  17838914.462 1  95225332.929 1                        45.000    17838916.481 1  74064155.650 2                        42.000  
R19  20121074.982 2 107634261.448 4                        35.000    20121077.103 1  83715485.959 2                        40.000  
E10  23290960.279 1 122394810.971 2                        41.000    23290964.693 1  93783062.053 1                        44.000  
E11  24678347.817 1 129685601.056 3                        38.000    24678352.071 1  99369498.959 3                        36.000  
E12  22036729.165 1 115803794.576 2                        41.000    22036729.734 1  88732777.512 2                        41.000  
E19  25687057.958 1 134986388.593 4                        33.000    25687064.607 1 103431164.737 3                        35.000  
E24  23423438.406 1 123090998.677 2                        40.000    23423442.403 1  94316493.981 1                        43.000  
E25  24943294.069 1 131077895.715 1                        42.000    24943299.851 1 100436326.972 2                        38.000  
E31  25215487.163 1 132508274.777 2                        41.000                                                                  
E33  22925763.492 1 120475704.165 2                        43.000    22925767.180 1  92312562.732 2                        42.000  
C20  24098466.909 1 125487049.693 2                        41.000                                                                  
C27  21683448.511 1 112911410.295 2                        39.000                                                                  
C29  22620822.375 1 117792561.457 1                        44.000                                                                  
C30  19870673.693 1 103471814.057 1                        46.000                                                                  
C32  21158720.210 1 110179010.744 2                        42.000                                                                  
C36  24635690.142 1 128284502.777 2                        41.000                                                                  
> 2023  6 29 11 12 43.8940000  0 34                     
G 1  21486788.996 1 112913840.166 2                        39.000    21486793.808 1  87984837.502 3                        38.000  
G 2  20761112.911 1 109100381.807 2                        42.000                                                                  
G 8  18689489.312 1  98213925.986 1                        47.000    18689491.028 1  76530341.325 2                        41.000  
G10  19513130.048 1 102542190.270 1                        45.000    19513131.229 1  79903011.736 3                        37.000  
G14  23165464.527 1 121735330.445 3                        37.000    23165469.834 2  94858750.212 4                        34.000  
G16  23163476.769 1 121724880.155 2                        41.000                                                                  
G21  19709313.067 1 103573141.076 1                        42.000                                                                  
G22  22906494.844 1 120374456.592 5                        33.000                                                                  
G23  21778283.658 2               6                        32.000    21778286.985 1  89178441.351 3                        35.000  
G27  19251994.217 1 101169906.072 1                        43.000    19251995.277 1  78833701.876 3                        38.000  
G32  22057073.704 2 115910714.279 5                        27.000    22057083.278 2  90320144.041 4                        33.000  
R 1  21763288.012 2 116337220.043 4                        33.000    21763296.801 9                                        27.000  
R 2  18724122.602 1  99915495.787 1                        45.000    18724125.172 1  77712050.453 2                        39.000  
R 3  19405991.390 1 103881796.816 1                        44.000    19405991.866 1  80796955.949 2                        40.000  
R 9  20392369.168 1 108894113.409 1                        42.000    20392371.470 1  84695430.726 2                        41.000  
R10  22151628.934 4               7                        29.000                                                                  
R16  20802716.109 1 111124374.665 1                        43.000    20802721.062 1  86430086.330 2                        41.000  
R17  19057493.969 1 101980496.276 1                        45.000    19057494.481 2  79318221.374 3                        38.000  
R18  17838910.454 1  95225311.550 1                        45.000    17838912.464 1  74064139.019 2                        42.000  
R19  20121029.232 2 107634016.840 4                        34.000    20121031.365 1  83715295.650 2                        40.000  
E10  23290936.799 1 122394687.470 2                        41.000    23290941.193 1  93782967.429 1                        44.000  
E11  24678312.359 1 129685414.703 3                        38.000    24678316.579 1  99369356.191 3                        36.000  
E12  22036724.891 1 115803772.379 2                        41.000    22036725.538 1  88732760.504 2                        41.000  
E19  25687013.989 1 134986157.395 4                        33.000    25687020.617 1 103430987.601 3                        35.000  
E24  23423476.688 1 123091199.996 2                        40.000    23423480.735 1  94316648.256 1                        43.000  
E25  24943279.010 1 131077816.834 1                        42.000    24943284.822 1 100436266.488 2                        38.000  
E31  25215556.607 1 132508639.598 2                        41.000                                                                  
E33  22925803.953 1 120475916.829 1                        43.000    22925807.719 1  92312725.672 2                        42.000  
C20  24098407.831 1 125486742.301 1                        41.000                                                                  
C27  21683502.104 1 112911689.145 2                        39.000                                                                  
C29  22620780.713 1 117792344.453 1                        44.000                                                                  
C30  19870678.306 1 103471837.883 1                        46.000                                                                  
C32  21158693.819 1 110178873.415 2                        41.000                                                                  
C36  24635753.478 1 128284832.659 2                        41.000                                                                  
> 2023  6 29 11 12 43.9940000  0 34                     
G 1  21486737.859 1 112913571.584 2                        39.000    21486742.654 1  87984628.189 3                        38.000  
G 2  20761082.305 1 109100220.945 1                        42.000                                                                  
G 8  18689494.099 1  98213950.977 1                        47.000    18689495.792 1  76530360.807 2                        41.000  
G10  19513166.131 1 102542379.783 1                        46.000    19513167.288 1  79903159.436 3                        37.000  
G14  23165421.046 1 121735101.977 3                        37.000    23165426.386 1  94858572.181 4                        34.000  
G16  23163559.395 1 121725314.381 2                        41.000                                                                  
G21  19709294.164 1 103573041.612 2                        42.000                                                                  
G22  22906445.932 1 120374199.542 5                        33.000                                                                  
G23  21778354.725 2               6                        32.000    21778358.012 1  89178732.195 3                        35.000  
G27  19252044.684 1 101170171.276 1                        43.000    19252045.756 1  78833908.562 3                        38.000  
G32  22057031.491 2 115910492.887 5                        27.000    22057041.178 2  90319971.549 4                        33.000  
R 1  21763369.204 2 116337654.213 4                        34.000    21763377.998 9                                        27.000  
R 2  18724139.409 1  99915585.428 1                        45.000    18724141.962 1  77712120.203 2                        39.000  
R 3  19405936.023 1 103881500.331 1                        44.000    19405936.487 1  80796725.335 2                        40.000  
R 9  20392379.846 1 108894170.576 2                        42.000    20392382.146 1  84695475.177 2                        41.000  
R10  22151588.104 4               7                        29.000                                                                  
R16  20802790.727 1 111124773.336 1                        43.000    20802795.721 1  86430396.404 2                        41.000  
R17  19057545.887 1 101980774.154 1                        45.000    19057546.396 2  79318437.471 3                        38.000  
R18  17838906.479 1  95225290.197 1                        45.000    17838908.437 1  74064122.405 2                        42.000  
R19  20120983.526 2 107633772.182 4                        34.000    20120985.618 1  83715105.407 2                        40.000  
E10  23290913.346 1 122394563.975 2                        41.000    23290917.698 1  93782872.837 1                        44.000  
E11  24678276.883 1 129685228.362 3                        38.000    24678281.117 1  99369213.365 3                        36.000  
E12  22036720.728 1 115803750.181 2                        41.000    22036721.325 1  88732743.511 2                        41.000  
E19  25686970.011 1 134985926.205 4                        33.000    25686976.620 1 103430810.437 3                        35.000  
E24  23423514.981 1 123091401.291 2                        40.000    23423518.960 1  94316802.490 2                        43.000  
E25  24943264.011 1 131077737.944 1                        42.000    24943269.829 1 100436206.075 2                        38.000  
E31  25215626.017 1 132509004.405 2                        41.000                                                                  
E33  22925844.432 1 120476129.484 1                        43.000    22925848.141 1  92312888.646 2                        42.000  
C20  24098348.807 1 125486434.926 2                        40.000                                                                  
C27  21683555.640 1 112911968.049 2                        39.000                                                                  
C29  22620739.005 1 117792127.478 1                        44.000                                                                  
C30  19870682.897 1 103471861.726 1                        46.000                                                                  
C32  21158667.487 1 110178736.056 2                        41.000                                                                  
C36  24635816.827 1 128285162.513 2                        41.000                                                                  
> 2023  6 29 11 12 44.0940000  0 34                     
G 1  21486686.732 1 112913302.956 2                        39.000    21486691.558 1  87984418.884 3                        38.000  
G 2  20761051.729 1 109100060.066 1                        42.000                                                                  
G 8  18689498.850 1  98213975.966 1                        47.000    18689500.556 1  76530380.260 2                        41.000  
G10  19513202.185 1 102542569.312 1                        46.000    19513203.334 1  79903307.073 3                        37.000  
G14  23165377.531 1 121734873.422 3                        37.000    23165382.873 1  94858394.074 4                        34.000  
G16  23163642.043 1 121725748.589 2                        41.000                                                                  
G21  19709275.249 1 103572942.166 1                        43.000                                                                  
G22  22906396.989 2 120373942.415 5                        33.000                                                                  
G23  21778425.766 2 114446401.516 5                        32.000    21778429.025 1  89179023.006 3                        35.000  
G27  19252095.098 1 101170436.440 1                        43.000    19252096.206 1  78834115.146 3                        38.000  
G32  22056989.341 2 115910271.417 5                        27.000    22056999.054 2  90319799.051 4                        33.000  
R 1  21763450.447 2 116338088.397 4                        34.000    21763459.686 9                                        27.000  
R 2  18724156.208 1  99915675.061 1                        45.000    18724158.741 1  77712189.893 2                        39.000  
R 3  19405880.657 1 103881203.824 1                        44.000    19405881.108 1  80796494.733 2                        40.000  
R 9  20392390.552 1 108894227.782 1                        42.000    20392392.857 1  84695519.693 2                        41.000  
R10  22151547.226 4               7                        29.000                                                                  
R16  20802865.348 1 111125171.998 1                        43.000    20802870.342 1  86430706.456 2                        41.000  
R17  19057597.824 1 101981052.030 1                        45.000    19057598.341 2  79318653.638 3                        38.000  
R18  17838902.499 1  95225268.823 1                        45.000    17838904.438 1  74064105.791 2                        42.000  
R19  20120937.815 2 107633527.492 4                        34.000    20120939.863 1  83714915.089 2                        39.000  
E10  23290889.867 1 122394440.524 2                        41.000    23290894.186 1  93782778.176 1                        44.000  
E11  24678241.454 1 129685041.974 3                        38.000    24678245.657 1  99369070.581 3                        36.000  
E12  22036716.465 1 115803727.978 2                        41.000    22036717.130 1  88732726.480 2                        41.000  
E19  25686926.008 1 134985695.019 4                        34.000    25686932.671 1 103430633.269 3                        35.000  
E24  23423553.320 1 123091602.628 2                        41.000    23423557.292 1  94316956.753 2                        43.000  
E25  24943249.016 1 131077659.057 1                        42.000    24943254.814 1 100436145.611 2                        37.000  
E31  25215695.493 1 132509369.206 2                        42.000                                                                  
E33  22925884.917 1 120476342.129 1                        44.000    22925888.712 1  92313051.564 2                        42.000  
C20  24098289.780 1 125486127.511 2                        40.000                                                                  
C27  21683609.217 1 112912246.927 2                        39.000                                                                  
C29  22620697.374 1 117791910.480 1                        44.000                                                                  
C30  19870687.513 1 103471885.552 1                        46.000                                                                  
C32  21158641.097 1 110178598.728 2                        41.000                                                                  
C36  24635880.185 1 128285492.354 2                        41.000                                                                  
> 2023  6 29 11 12 44.1940000  0 34                     
G 1  21486635.627 1 112913034.388 2                        39.000    21486640.434 1  87984209.599 3                        38.000  
G 2  20761021.094 1 109099899.214 2                        42.000                                                                  
G 8  18689503.604 1  98214000.948 1                        47.000    18689505.313 1  76530399.754 2                        40.000  
G10  19513238.258 1 102542758.816 1                        47.000    19513239.407 1  79903454.775 3                        37.000  
G14  23165334.039 1 121734644.920 3                        37.000    23165339.389 1  94858215.993 3                        34.000  
G16  23163724.702 1 121726182.821 2                        41.000                                                                  
G21  19709256.329 1 103572842.747 1                        44.000                                                                  
G22  22906348.082 2 120373685.360 5                        33.000                                                                  
G23  21778496.787 2 114446774.742 5                        35.000    21778500.059 1  89179313.831 3                        35.000  
G27  19252145.558 1 101170701.665 1                        43.000    19252146.659 1  78834321.801 3                        38.000  
G32  22056947.235 2               7                        27.000    22056956.925 2  90319626.516 4                        33.000  
R 1  21763531.655 2 116338522.598 4                        34.000    21763540.468 9                                        27.000  
R 2  18724173.014 1  99915764.730 1                        45.000    18724175.538 1  77712259.637 2                        39.000  
R 3  19405825.261 1 103880907.323 1                        44.000    19405825.730 2  80796264.109 3                        40.000  
R 9  20392401.271 1 108894284.970 1                        42.000    20392403.545 1  84695564.156 2                        41.000  
R10  22151506.438 4               7                        29.000                                                                  
R16  20802939.954 1 111125570.636 2                        43.000    20802944.969 1  86431016.561 2                        41.000  
R17  19057649.747 1 101981329.890 1                        45.000    19057650.300 2  79318869.733 3                        38.000  
R18  17838898.488 1  95225247.456 1                        45.000    17838900.457 1  74064089.165 2                        42.000  
R19  20120892.101 2 107633282.851 4                        34.000    20120894.169 1  83714724.810 3                        39.000  
E10  23290866.285 1 122394317.013 2                        41.000    23290870.724 1  93782683.571 2                        44.000  
E11  24678206.021 1 129684855.614 3                        38.000    24678210.187 1  99368927.788 3                        36.000  
E12  22036712.265 1 115803705.786 2                        42.000    22036712.890 1  88732709.482 2                        41.000  
E19  25686882.015 1 134985463.798 4                        34.000    25686888.656 1 103430456.121 3                        36.000  
E24  23423591.582 1 123091803.917 2                        41.000    23423595.555 1  94317110.964 2                        43.000  
E25  24943233.941 1 131077580.155 1                        42.000    24943239.764 1 100436085.199 2                        37.000  
E31  25215764.947 1 132509734.027 1                        42.000                                                                  
E33  22925925.390 1 120476554.788 1                        44.000    22925929.237 1  92313214.502 2                        42.000  
C20  24098230.784 1 125485820.118 2                        40.000                                                                  
C27  21683662.820 1 112912525.813 2                        39.000                                                                  
C29  22620655.675 1 117791693.454 1                        45.000                                                                  
C30  19870692.134 1 103471909.398 1                        46.000                                                                  
C32  21158614.714 1 110178461.383 2                        41.000                                                                  
C36  24635943.530 1 128285822.239 2                        41.000                                                                  
> 2023  6 29 11 12 44.2940000  0 34                     
G 1  21486584.490 1 112912765.761 2                        39.000    21486589.374 1  87984000.326 3                        38.000  
G 2  20760990.461 1 109099738.344 1                        42.000                                                                  
G 8  18689508.328 1  98214025.947 1                        47.000    18689510.091 1  76530419.218 2                        40.000  
G10  19513274.346 1 102542948.349 1                        46.000    19513275.477 1  79903602.462 3                        37.000  
G14  23165290.551 1 121734416.407 3                        37.000    23165295.961 2  94858037.993 4                        34.000  
G16  23163807.329 1 121726617.054 2                        41.000                                                                  
G21  19709237.418 1 103572743.307 1                        43.000                                                                  
G22  22906299.170 1 120373428.295 5                        33.000                                                                  
G23  21778567.825 2 114447147.962 5                        35.000    21778571.097 1  89179604.650 3                        35.000  
G27  19252196.047 1 101170966.842 1                        43.000    19252197.086 1  78834528.466 3                        38.000  
G32  22056905.160 2               7                        26.000    22056914.784 2  90319454.063 5                        33.000  
R 1  21763612.862 2 116338956.784 4                        34.000    21763621.713 9                                        27.000  
R 2  18724189.840 1  99915854.381 1                        45.000    18724192.317 1  77712329.390 2                        39.000  
R 3  19405769.893 1 103880610.845 1                        43.000    19405770.323 1  80796033.494 2                        39.000  
R 9  20392411.963 1 108894342.178 2                        42.000    20392414.204 1  84695608.674 2                        41.000  
R10  22151465.689 4               7                        29.000                                                                  
R16  20803014.578 1 111125969.337 2                        43.000    20803019.578 1  86431326.614 2                        41.000  
R17  19057701.685 1 101981607.778 1                        45.000    19057702.221 2  79319085.861 3                        37.000  
R18  17838894.503 1  95225226.109 1                        45.000    17838896.398 1  74064072.539 1                        42.000  
R19  20120846.345 2 107633038.193 4                        34.000    20120848.436 1  83714534.533 2                        39.000  
E10  23290842.678 1 122394193.512 2                        41.000    23290847.201 1  93782588.957 1                        44.000  
E11  24678170.525 1 129684669.261 3                        38.000    24678174.730 1  99368784.966 3                        36.000  
E12  22036708.059 1 115803683.579 2                        41.000    22036708.713 1  88732692.476 2                        41.000  
E19  25686838.047 1 134985232.589 4                        34.000    25686844.653 1 103430278.981 3                        36.000  
E24  23423629.962 1 123092005.229 2                        41.000    23423633.858 1  94317265.237 2                        43.000  
E25  24943218.885 1 131077501.269 1                        42.000    24943224.730 1 100436024.714 3                        37.000  
E31  25215834.382 1 132510098.831 2                        42.000                                                                  
E33  22925965.844 1 120476767.452 1                        44.000    22925969.742 1  92313377.471 2                        42.000  
C20  24098171.747 1 125485512.733 2                        40.000                                                                  
C27  21683716.373 1 112912804.678 2                        39.000                                                                  
C29  22620614.013 1 117791476.461 1                        44.000                                                                  
C30  19870696.739 1 103471933.235 1                        45.000                                                                  
C32  21158588.358 1 110178324.039 2                        41.000                                                                  
C36  24636006.894 1 128286152.078 2                        41.000                                                                  
> 2023  6 29 11 12 44.3940000  0 34                     
G 1  21486533.379 1 112912497.181 2                        39.000    21486538.237 1  87983790.988 3                        38.000  
G 2  20760959.873 1 109099577.469 1                        42.000                                                                  
G 8  18689513.087 1  98214050.949 1                        46.000    18689514.880 1  76530438.691 2                        40.000  
G10  19513310.442 1 102543137.875 1                        46.000    19513311.575 1  79903750.148 3                        37.000  
G14  23165247.037 1 121734187.864 3                        37.000    23165252.441 2  94857859.882 4                        34.000  
G16  23163889.948 1 121727051.239 2                        41.000                                                                  
G21  19709218.508 1 103572643.861 1                        42.000                                                                  
G22  22906250.280 1 120373171.245 5                        33.000                                                                  
G23  21778638.880 2 114447521.184 5                        37.000    21778642.122 1  89179895.439 4                        35.000  
G27  19252246.523 1 101171232.040 1                        43.000    19252247.527 1  78834735.082 3                        37.000  
G32  22056862.971 9                                        26.000    22056872.649 2  90319281.582 5                        33.000  
R 1  21763694.060 2 116339390.993 4                        34.000    21763702.758 9                                        27.000  
R 2  18724206.661 1  99915944.056 1                        45.000    18724209.083 1  77712399.125 2                        39.000  
R 3  19405714.502 1 103880314.348 1                        43.000    19405714.968 2  80795802.936 2                        37.000  
R 9  20392422.663 1 108894399.380 2                        42.000    20392424.923 1  84695653.140 2                        41.000  
R10  22151424.890 4               6                        30.000                                                                  
R16  20803089.238 1 111126367.982 2                        43.000    20803094.195 1  86431636.680 2                        41.000  
R17  19057753.630 1 101981885.651 1                        45.000    19057754.146 2  79319302.000 3                        37.000  
R18  17838890.474 1  95225204.745 1                        45.000    17838892.389 1  74064055.940 2                        42.000  
R19  20120800.565 2 107632793.520 4                        34.000    20120802.672 1  83714344.226 2                        39.000  
E10  23290819.220 1 122394070.036 2                        41.000    23290823.684 1  93782494.344 1                        44.000  
E11  24678135.025 1 129684482.881 3                        38.000    24678139.234 1  99368642.140 3                        35.000  
E12  22036703.812 1 115803661.367 2                        41.000    22036704.410 1  88732675.449 2                        41.000  
E19  25686794.131 1 134985001.418 4                        34.000    25686800.618 1 103430101.809 3                        35.000  
E24  23423668.215 1 123092206.539 2                        41.000    23423672.185 1  94317419.494 2                        43.000  
E25  24943203.882 1 131077422.389 1                        42.000    24943209.678 1 100435964.278 3                        39.000  
E31  25215903.829 1 132510463.625 2                        42.000                                                                  
E33  22926006.247 1 120476980.104 1                        43.000    22926010.223 1  92313540.410 2                        42.000  
C20  24098112.728 1 125485205.326 2                        40.000                                                                  
C27  21683769.906 1 112913083.555 2                        39.000                                                                  
C29  22620572.355 1 117791259.464 1                        44.000                                                                  
C30  19870701.276 1 103471957.072 1                        45.000                                                                  
C32  21158561.978 1 110178186.718 2                        41.000                                                                  
C36  24636070.237 1 128286481.940 2                        41.000                                                                  
> 2023  6 29 11 12 44.4940000  0 34                     
G 1  21486482.291 1 112912228.578 2                        40.000    21486487.149 1  87983581.707 3                        38.000  
G 2  20760929.287 1 109099416.610 1                        43.000                                                                  
G 8  18689517.860 1  98214075.955 1                        47.000    18689519.628 1  76530458.193 2                        40.000  
G10  19513346.482 1 102543327.408 1                        46.000    19513347.629 1  79903897.818 3                        37.000  
G14  23165203.566 1 121733959.360 3                        37.000    23165208.956 2  94857681.842 4                        34.000  
G16  23163972.585 1 121727485.452 2                        41.000                                                                  
G21  19709199.620 1 103572544.425 1                        43.000                                                                  
G22  22906201.339 1 120372914.186 5                        33.000                                                                  
G23  21778709.914 2 114447894.420 4                        37.000    21778713.119 1  89180186.244 4                        35.000  
G27  19252296.988 1 101171497.236 1                        43.000    19252297.987 1  78834941.744 3                        37.000  
G32  22056821.014 9                                        25.000    22056830.511 2  90319109.070 4                        33.000  
R 1  21763775.262 2 116339825.178 4                        34.000    21763784.147 9                                        27.000  
R 2  18724223.452 1  99916033.739 1                        45.000    18724225.884 1  77712468.861 2                        39.000  
R 3  19405659.104 1 103880017.874 1                        43.000    19405659.580 2  80795572.337 2                        37.000  
R 9  20392433.410 1 108894456.606 1                        42.000    20392435.668 1  84695697.655 2                        41.000  
R10  22151384.032 4               6                        30.000                                                                  
R16  20803163.863 1 111126766.649 2                        43.000    20803168.832 1  86431946.771 2                        41.000  
R17  19057805.569 1 101982163.527 1                        46.000    19057806.083 2  79319518.123 3                        37.000  
R18  17838886.467 1  95225183.383 1                        45.000    17838888.403 1  74064039.326 2                        42.000  
R19  20120754.821 2 107632548.858 4                        34.000    20120756.963 1  83714153.932 2                        39.000  
E10  23290795.663 1 122393946.541 2                        41.000    23290800.212 1  93782399.720 1                        44.000  
E11  24678099.586 1 129684296.517 3                        38.000    24678103.803 1  99368499.360 3                        36.000  
E12  22036699.558 1 115803639.196 2                        41.000    22036700.193 1  88732658.450 2                        41.000  
E19  25686750.112 1 134984770.187 4                        34.000    25686756.646 1 103429924.651 3                        35.000  
E24  23423706.543 1 123092407.842 2                        41.000    23423710.514 1  94317573.735 2                        43.000  
E25  24943188.913 1 131077343.505 1                        42.000    24943194.654 1 100435903.859 3                        38.000  
E31  25215973.261 1 132510828.436 2                        42.000                                                                  
E33  22926046.800 1 120477192.766 1                        43.000    22926050.692 1  92313703.337 2                        42.000  
C20  24098053.684 1 125484897.904 2                        40.000                                                                  
C27  21683823.504 1 112913362.432 2                        39.000                                                                  
C29  22620530.663 1 117791042.463 1                        44.000                                                                  
C30  19870705.844 1 103471980.920 1                        46.000                                                                  
C32  21158535.599 1 110178049.394 2                        41.000                                                                  
C36  24636133.595 1 128286811.787 2                        41.000                                                                  
> 2023  6 29 11 12 44.5940000  0 34                     
G 1  21486431.158 1 112911959.974 2                        40.000    21486436.017 1  87983372.405 3                        37.000  
G 2  20760898.694 1 109099255.754 1                        43.000                                                                  
G 8  18689522.607 1  98214100.954 1                        47.000    18689524.383 1  76530477.658 2                        40.000  
G10  19513382.540 1 102543516.944 1                        46.000    19513383.708 1  79904045.530 3                        37.000  
G14  23165160.104 1 121733730.863 3                        37.000    23165165.457 2  94857503.775 4                        34.000  
G16  23164055.205 1 121727919.668 2                        41.000                                                                  
G21  19709180.721 1 103572444.990 1                        43.000                                                                  
G22  22906152.405 1 120372657.071 5                        33.000                                                                  
G23  21778780.973 1 114448267.632 4                        38.000    21778784.148 1  89180477.052 3                        34.000  
G27  19252347.449 1 101171762.428 1                        43.000    19252348.428 1  78835148.384 3                        37.000  
G32  22056778.495 9                                        25.000    22056788.413 2  90318936.579 4                        33.000  
R 1  21763856.510 2 116340259.351 4                        34.000    21763865.656 9                                        27.000  
R 2  18724240.274 1  99916123.417 1                        45.000    18724242.723 1  77712538.607 2                        39.000  
R 3  19405603.693 1 103879721.399 1                        43.000    19405604.187 2  80795341.735 3                        37.000  
R 9  20392444.114 1 108894513.828 1                        42.000    20392446.400 1  84695742.157 2                        41.000  
R10  22151343.235 4               6                        31.000                                                                  
R16  20803238.494 1 111127165.336 2                        43.000    20803243.468 1  86432256.844 2                        41.000  
R17  19057857.538 1 101982441.413 1                        46.000    19057858.035 2  79319734.267 3                        37.000  
R18  17838882.483 1  95225162.032 1                        45.000    17838884.431 1  74064022.717 2                        42.000  
R19  20120709.071 2 107632304.203 4                        34.000    20120711.210 1  83713963.637 2                        39.000  
E10  23290772.162 1 122393823.060 2                        41.000    23290776.725 1  93782305.097 1                        44.000  
E11  24678064.177 1 129684110.141 3                        38.000    24678068.326 1  99368356.549 3                        36.000  
E12  22036695.312 1 115803616.981 2                        41.000    22036695.948 1  88732641.446 2                        41.000  
E19  25686706.149 1 134984539.014 4                        34.000    25686712.705 1 103429747.496 3                        35.000  
E24  23423744.865 1 123092609.160 2                        41.000    23423748.847 1  94317727.993 1                        43.000  
E25  24943173.962 1 131077264.635 1                        42.000    24943179.601 1 100435843.400 3                        38.000  
E31  25216042.667 1 132511193.235 2                        42.000                                                                  
E33  22926087.256 1 120477405.424 1                        43.000    22926091.159 1  92313866.290 2                        42.000  
C20  24097994.667 1 125484590.517 2                        41.000                                                                  
C27  21683877.066 1 112913641.328 2                        39.000                                                                  
C29  22620488.995 1 117790825.464 1                        44.000                                                                  
C30  19870710.435 1 103472004.762 1                        46.000                                                                  
C32  21158509.219 1 110177912.054 2                        41.000                                                                  
C36  24636196.916 1 128287141.651 2                        41.000                                                                  
> 2023  6 29 11 12 44.6940000  0 34                     
G 1  21486380.058 1 112911691.383 2                        40.000    21486384.866 1  87983163.119 3                        37.000  
G 2  20760868.042 1 109099094.884 1                        43.000                                                                  
G 8  18689527.375 1  98214125.968 1                        47.000    18689529.171 1  76530497.156 2                        40.000  
G10  19513418.576 1 102543706.487 1                        46.000    19513419.801 1  79904193.218 3                        37.000  
G14  23165116.648 1 121733502.332 2                        37.000    23165121.998 2  94857325.725 4                        34.000  
G16  23164137.869 1 121728353.879 2                        41.000                                                                  
G21  19709161.814 1 103572345.546 1                        43.000                                                                  
G22  22906103.520 1 120372399.987 4                        33.000                                                                  
G23  21778851.992 1 114448640.826 4                        38.000    21778855.198 1  89180767.878 3                        34.000  
G27  19252397.899 1 101172027.644 1                        43.000    19252398.916 1  78835355.047 3                        37.000  
G32  22056736.607 9                                        25.000    22056746.273 2  90318764.092 4                        33.000  
R 1  21763937.728 2 116340693.539 4                        34.000    21763947.074 9                                        27.000  
R 2  18724257.093 1  99916213.111 1                        45.000    18724259.519 1  77712608.384 2                        39.000  
R 3  19405548.307 1 103879424.933 1                        43.000    19405548.821 2  80795111.172 3                        36.000  
R 9  20392454.825 1 108894571.054 1                        42.000    20392457.122 1  84695786.663 2                        41.000  
R10  22151302.373 4               6                        31.000                                                                  
R16  20803313.137 1 111127564.005 2                        43.000    20803318.106 1  86432566.930 2                        40.000  
R17  19057909.457 1 101982719.296 1                        46.000    19057909.965 2  79319950.373 3                        38.000  
R18  17838878.501 1  95225140.665 1                        45.000    17838880.445 1  74064006.110 1                        42.000  
R19  20120663.374 2 107632059.521 4                        34.000    20120665.493 1  83713773.340 2                        39.000  
E10  23290748.597 1 122393699.568 2                        41.000    23290753.191 1  93782210.478 1                        44.000  
E11  24678028.666 1 129683923.759 3                        38.000    24678032.869 1  99368213.759 3                        35.000  
E12  22036691.097 1 115803594.784 2                        41.000    22036691.654 1  88732624.416 2                        41.000  
E19  25686662.112 1 134984307.809 4                        34.000    25686668.726 1 103429570.347 3                        35.000  
E24  23423783.233 1 123092810.480 2                        41.000    23423787.173 1  94317882.261 1                        43.000  
E25  24943158.868 1 131077185.757 1                        42.000    24943164.552 1 100435782.978 3                        38.000  
E31  25216112.058 1 132511558.040 2                        42.000                                                                  
E33  22926127.711 1 120477618.072 1                        42.000    22926131.612 1  92314029.234 2                        42.000  
C20  24097935.645 1 125484283.108 2                        41.000                                                                  
C27  21683930.614 1 112913920.224 2                        39.000                                                                  
C29  22620447.352 1 117790608.442 1                        44.000                                                                  
C30  19870715.008 1 103472028.603 1                        46.000                                                                  
C32  21158482.839 1 110177774.753 2                        41.000                                                                  
C36  24636260.267 1 128287471.496 2                        41.000                                                                  
> 2023  6 29 11 12 44.7940000  0 34                     
G 1  21486328.945 1 112911422.767 2                        40.000    21486333.766 1  87982953.812 3                        37.000  
G 2  20760837.435 1 109098934.055 1                        43.000                                                                  
G 8  18689532.149 1  98214150.986 1                        47.000    18689533.945 1  76530516.642 2                        40.000  
G10  19513454.647 1 102543896.046 1                        46.000    19513455.861 1  79904340.904 3                        37.000  
G14  23165073.143 1 121733273.863 2                        37.000    23165078.522 1  94857147.654 4                        34.000  
G16  23164220.522 1 121728788.116 2                        41.000                                                                  
G21  19709142.881 1 103572246.118 1                        43.000                                                                  
G22  22906054.583 2 120372142.945 5                        33.000                                                                  
G23  21778923.013 1 114449014.054 4                        38.000    21778926.233 1  89181058.707 3                        34.000  
G27  19252448.370 1 101172292.860 1                        43.000    19252449.400 1  78835561.704 3                        37.000  
G32  22056694.619 9                                        24.000    22056704.168 2  90318591.610 4                        33.000  
R 1  21764018.969 2 116341127.786 4                        34.000    21764027.909 9                                        27.000  
R 2  18724273.932 1  99916302.808 1                        45.000    18724276.308 1  77712678.150 2                        39.000  
R 3  19405492.971 1 103879128.469 1                        43.000    19405493.447 2  80794880.558 3                        36.000  
R 9  20392465.565 1 108894628.282 1                        43.000    20392467.894 1  84695831.218 2                        41.000  
R10  22151261.558 4               6                        31.000                                                                  
R16  20803387.761 1 111127962.699 2                        43.000    20803392.709 1  86432877.007 2                        41.000  
R17  19057961.391 1 101982997.189 1                        46.000    19057961.887 2  79320166.509 3                        38.000  
R18  17838874.526 1  95225119.333 1                        45.000    17838876.422 1  74063989.503 2                        42.000  
R19  20120617.634 2 107631814.861 4                        34.000    20120619.744 1  83713583.064 2                        39.000  
E10  23290725.149 1 122393576.095 2                        41.000    23290729.689 1  93782115.848 1                        44.000  
E11  24677993.206 1 129683737.371 3                        38.000    24677997.404 1  99368070.940 3                        35.000  
E12  22036686.877 1 115803572.577 2                        41.000    22036687.455 1  88732607.421 2                        41.000  
E19  25686618.067 1 134984076.586 4                        34.000    25686624.702 1 103429393.218 3                        35.000  
E24  23423821.508 1 123093011.803 2                        41.000    23423825.493 1  94318036.515 1                        43.000  
E25  24943143.906 1 131077106.885 1                        42.000    24943149.553 1 100435722.535 3                        38.000  
E31  25216181.406 1 132511922.846 2                        42.000                                                                  
E33  22926168.220 1 120477830.735 1                        42.000    22926172.097 1  92314192.191 2                        42.000  
C20  24097876.555 1 125483975.719 2                        41.000                                                                  
C27  21683984.137 1 112914199.122 2                        39.000                                                                  
C29  22620405.642 1 117790391.444 1                        44.000                                                                  
C30  19870719.539 1 103472052.462 1                        46.000                                                                  
C32  21158456.492 1 110177637.439 2                        41.000                                                                  
C36  24636323.637 1 128287801.358 2                        41.000                                                                  
> 2023  6 29 11 12 44.8940000  0 34                     
G 1  21486277.845 1 112911154.185 2                        40.000    21486282.656 1  87982744.509 3                        37.000  
G 2  20760806.839 1 109098773.176 1                        43.000                                                                  
G 8  18689536.917 1  98214176.009 1                        47.000    18689538.706 1  76530536.155 2                        40.000  
G10  19513490.720 1 102544085.597 1                        46.000    19513491.924 1  79904488.629 3                        37.000  
G14  23165029.660 1 121733045.371 2                        38.000    23165035.083 1  94856969.594 4                        34.000  
G16  23164303.120 1 121729222.322 2                        41.000                                                                  
G21  19709123.948 1 103572146.700 1                        43.000                                                                  
G22  22906005.670 2 120371885.850 5                        33.000                                                                  
G23  21778994.060 1 114449387.227 4                        38.000    21778997.211 1  89181349.512 3                        34.000  
G27  19252498.809 1 101172558.061 1                        43.000    19252499.875 1  78835768.352 3                        37.000  
G32  22056652.417 9                                        24.000    22056662.010 2  90318419.101 4                        33.000  
R 1  21764100.212 2 116341561.942 4                        34.000    21764109.846 9                                        27.000  
R 2  18724290.753 1  99916392.527 1                        45.000    18724293.151 1  77712747.942 2                        39.000  
R 3  19405437.600 1 103878832.006 1                        43.000    19405438.072 2  80794649.979 3                        37.000  
R 9  20392476.283 1 108894685.536 1                        43.000    20392478.634 1  84695875.712 2                        41.000  
R10  22151220.626 4               7                        31.000                                                                  
R16  20803462.392 1 111128361.386 2                        43.000    20803467.356 1  86433187.104 2                        41.000  
R17  19058013.302 1 101983275.080 1                        46.000    19058013.808 2  79320382.648 3                        38.000  
R18  17838870.551 1  95225097.977 1                        45.000    17838872.404 1  74063972.909 2                        42.000  
R19  20120571.906 2 107631570.170 4                        34.000    20120574.017 1  83713392.765 2                        39.000  
E10  23290701.604 1 122393452.586 2                        41.000    23290706.199 1  93782021.243 1                        44.000  
E11  24677957.715 1 129683551.014 3                        38.000    24677961.950 1  99367928.151 3                        35.000  
E12  22036682.724 1 115803550.400 2                        41.000    22036683.241 1  88732590.437 2                        41.000  
E19  25686574.056 1 134983845.420 4                        34.000    25686580.694 1 103429216.068 3                        35.000  
E24  23423859.811 1 123093213.139 2                        41.000    23423863.828 1  94318190.780 1                        43.000  
E25  24943128.955 1 131077028.035 1                        42.000    24943134.544 1 100435662.133 3                        38.000  
E31  25216250.869 1 132512287.649 2                        42.000                                                                  
E33  22926208.697 1 120478043.397 1                        43.000    22926212.628 1  92314355.144 2                        42.000  
C20  24097817.508 1 125483668.305 2                        41.000                                                                  
C27  21684037.714 1 112914478.010 2                        38.000                                                                  
C29  22620363.986 1 117790174.452 1                        44.000                                                                  
C30  19870724.130 1 103472076.308 1                        46.000                                                                  
C32  21158430.115 1 110177500.119 2                        41.000                                                                  
C36  24636387.021 1 128288131.240 2                        41.000                                                                  
> 2023  6 29 11 12 44.9940000  0 34                     
G 1  21486226.738 1 112910885.589 2                        40.000    21486231.571 1  87982535.214 3                        37.000  
G 2  20760776.230 1 109098612.333 2                        43.000                                                                  
G 8  18689541.662 1  98214201.040 1                        47.000    18689543.487 1  76530555.650 2                        40.000  
G10  19513526.798 1 102544275.151 1                        46.000    19513528.019 1  79904636.334 3                        37.000  
G14  23164986.202 1 121732816.821 3                        38.000    23164991.577 2  94856791.578 4                        34.000  
G16  23164385.750 1 121729656.514 2                        41.000                                                                  
G21  19709105.037 1 103572047.270 1                        43.000                                                                  
G22  22905956.696 1 120371628.729 4                        33.000                                                                  
G23  21779065.101 1 114449760.481 4                        36.000    21779068.242 1  89181640.339 3                        34.000  
G27  19252549.273 1 101172823.285 1                        43.000    19252550.342 1  78835975.021 3                        37.000  
G32  22056610.802 9                                        24.000    22056619.879 2  90318246.633 4                        33.000  
R 1  21764181.423 2 116341996.171 4                        34.000    21764191.040 8                                        27.000  
R 2  18724307.579 1  99916482.256 1                        45.000    18724309.929 1  77712817.692 2                        39.000  
R 3  19405382.241 1 103878535.550 1                        43.000    19405382.704 2  80794419.447 3                        37.000  
R 9  20392486.979 1 108894742.797 1                        43.000    20392489.368 1  84695920.262 2                        41.000  
R10  22151179.793 4               7                        31.000                                                                  
R16  20803537.021 1 111128760.054 2                        43.000    20803541.999 1  86433497.196 2                        41.000  
R17  19058065.241 1 101983552.964 1                        46.000    19058065.734 2  79320598.764 3                        38.000  
R18  17838866.552 1  95225076.637 1                        45.000    17838868.404 1  74063956.286 2                        42.000  
R19  20120526.211 2 107631325.590 4                        34.000    20120528.277 1  83713202.501 2                        39.000  
E10  23290678.155 1 122393329.111 2                        41.000    23290682.689 1  93781926.619 1                        44.000  
E11  24677922.245 1 129683364.618 3                        38.000    24677926.485 1  99367785.355 3                        35.000  
E12  22036678.437 1 115803528.177 2                        41.000    22036679.021 1  88732573.412 2                        41.000  
E19  25686530.050 1 134983614.209 4                        34.000    25686536.759 1 103429038.924 3                        35.000  
E24  23423898.153 1 123093414.475 2                        41.000    23423902.157 1  94318345.050 1                        43.000  
E25  24943113.865 1 131076949.173 1                        42.000    24943119.552 1 100435601.675 3                        38.000  
E31  25216320.319 1 132512652.453 2                        42.000                                                                  
E33  22926249.227 1 120478256.065 1                        43.000    22926253.093 1  92314518.063 2                        42.000  
C20  24097758.405 1 125483360.890 2                        41.000                                                                  
C27  21684091.270 1 112914756.905 2                        38.000                                                                  
C29  22620322.308 1 117789957.443 1                        44.000                                                                  
C30  19870728.742 1 103472100.160 1                        46.000                                                                  
C32  21158403.761 1 110177362.846 2                        41.000                                                                  
C36  24636450.371 1 128288461.083 2                        41.000                                                                  
> 2023  6 29 11 12 45.0940000  0 34                     
G 1  21486175.625 1 112910616.952 2                        40.000    21486180.463 1  87982325.895 3                        37.000  
G 2  20760745.626 1 109098451.468 2                        43.000                                                                  
G 8  18689546.401 1  98214226.073 1                        47.000    18689548.274 1  76530575.146 2                        40.000  
G10  19513562.867 1 102544464.726 1                        46.000    19513564.090 1  79904784.029 2                        37.000  
G14  23164942.739 1 121732588.385 3                        38.000    23164948.086 2  94856613.519 4                        34.000  
G16  23164468.370 1 121730090.732 2                        41.000                                                                  
G21  19709086.107 1 103571947.808 1                        43.000                                                                  
G22  22905907.788 1 120371371.665 4                        33.000                                                                  
G23  21779136.132 1 114450133.721 4                        35.000    21779139.235 1  89181931.140 3                        34.000  
G27  19252599.745 1 101173088.458 1                        43.000    19252600.814 1  78836181.665 3                        37.000  
G32  22056568.780 9                                        24.000    22056577.758 2  90318074.116 4                        33.000  
R 1  21764262.658 2 116342430.368 4                        34.000    21764272.417 8                                        27.000  
R 2  18724324.411 1  99916571.980 1                        45.000    18724326.751 1  77712887.491 2                        39.000  
R 3  19405326.863 1 103878239.107 1                        43.000    19405327.311 2  80794188.864 3                        37.000  
R 9  20392497.696 1 108894800.038 1                        43.000    20392500.086 1  84695964.766 2                        41.000  
R10  22151138.969 4               6                        31.000                                                                  
R16  20803611.691 1 111129158.777 2                        43.000    20803616.616 1  86433807.275 2                        41.000  
R17  19058117.150 1 101983830.836 1                        46.000    19058117.676 2  79320814.915 3                        38.000  
R18  17838862.575 1  95225055.303 1                        45.000    17838864.392 1  74063939.695 2                        42.000  
R19  20120480.445 2 107631080.886 5                        34.000    20120482.536 1  83713012.185 2                        39.000  
E10  23290654.618 1 122393205.635 2                        41.000    23290659.230 1  93781831.988 1                        44.000  
E11  24677886.778 1 129683178.251 3                        38.000    24677891.022 1  99367642.526 3                        35.000  
E12  22036674.318 1 115803505.998 2                        42.000    22036674.843 1  88732556.403 2                        41.000  
E19  25686486.026 1 134983383.020 4                        34.000    25686492.788 1 103428861.782 3                        35.000  
E24  23423936.414 1 123093615.795 2                        40.000    23423940.472 1  94318499.325 1                        43.000  
E25  24943098.788 1 131076870.305 1                        42.000    24943104.542 1 100435541.236 3                        38.000  
E31  25216389.725 1 132513017.233 2                        42.000                                                                  
E33  22926289.720 1 120478468.719 1                        43.000    22926293.495 1  92314681.005 2                        42.000  
C20  24097699.367 1 125483053.482 2                        41.000                                                                  
C27  21684144.851 1 112915035.834 2                        39.000                                                                  
C29  22620280.649 1 117789740.439 1                        45.000                                                                  
C30  19870733.323 1 103472124.001 1                        46.000                                                                  
C32  21158377.417 1 110177225.506 2                        41.000                                                                  
C36  24636513.707 1 128288790.927 2                        41.000                                                                  
> 2023  6 29 11 12 45.1940000  0 34                     
G 1  21486124.514 1 112910348.337 2                        39.000    21486129.373 1  87982116.604 3                        37.000  
G 2  20760715.025 1 109098290.587 2                        42.000                                                                  
G 8  18689551.200 1  98214251.089 1                        47.000    18689553.024 1  76530594.655 2                        40.000  
G10  19513598.945 1 102544654.272 1                        45.000    19513600.216 1  79904931.778 2                        37.000  
G14  23164899.217 1 121732359.860 3                        38.000    23164904.633 2  94856435.468 4                        34.000  
G16  23164551.016 1 121730524.925 2                        41.000                                                                  
G21  19709067.234 1 103571848.407 2                        43.000                                                                  
G22  22905858.871 1 120371114.586 5                        33.000                                                                  
G23  21779207.161 1 114450506.959 4                        35.000    21779210.256 1  89182221.917 3                        34.000  
G27  19252650.227 1 101173353.704 1                        43.000    19252651.279 1  78836388.378 3                        37.000  
G32  22056527.025 9                                        24.000    22056535.635 2  90317901.631 4                        33.000  
R 1  21764343.869 2 116342864.583 4                        34.000    21764353.634 8                                        27.000  
R 2  18724341.226 1  99916661.695 1                        45.000    18724343.552 1  77712957.305 2                        39.000  
R 3  19405271.497 1 103877942.628 1                        43.000    19405271.938 2  80793958.272 3                        37.000  
R 9  20392508.385 1 108894857.294 1                        43.000    20392510.785 1  84696009.317 2                        41.000  
R10  22151098.123 4               7                        31.000                                                                  
R16  20803686.320 1 111129557.444 2                        43.000    20803691.251 1  86434117.370 2                        41.000  
R17  19058169.089 1 101984108.729 1                        46.000    19058169.617 2  79321031.043 3                        38.000  
R18  17838858.562 1  95225033.943 1                        45.000    17838860.374 1  74063923.083 2                        42.000  
R19  20120434.720 2 107630836.247 5                        34.000    20120436.811 1  83712821.877 2                        39.000  
E10  23290631.041 1 122393082.115 2                        41.000    23290635.717 1  93781737.384 1                        44.000  
E11  24677851.291 1 129682991.877 3                        38.000    24677855.507 1  99367499.707 3                        35.000  
E12  22036670.110 1 115803483.806 2                        42.000    22036670.613 1  88732539.377 2                        41.000  
E19  25686442.051 1 134983151.824 4                        34.000    25686448.806 1 103428684.616 3                        35.000  
E24  23423974.751 1 123093817.124 2                        40.000    23423978.815 1  94318653.578 2                        43.000  
E25  24943083.764 1 131076791.437 1                        42.000    24943089.571 1 100435480.805 3                        38.000  
E31  25216459.189 1 132513382.049 2                        42.000                                                                  
E33  22926330.163 1 120478681.349 1                        43.000    22926333.965 1  92314843.978 2                        42.000  
C20  24097640.331 1 125482746.040 2                        41.000                                                                  
C27  21684198.335 1 112915314.658 2                        39.000                                                                  
C29  22620238.969 1 117789523.408 1                        44.000                                                                  
C30  19870737.853 1 103472147.868 1                        46.000                                                                  
C32  21158351.047 1 110177088.182 2                        41.000                                                                  
C36  24636577.044 1 128289120.778 2                        41.000                                                                  
> 2023  6 29 11 12 45.2940000  0 34                     
G 1  21486073.431 1 112910079.749 2                        40.000    21486078.281 1  87981907.296 3                        37.000  
G 2  20760684.410 1 109098129.732 2                        42.000                                                                  
G 8  18689555.927 1  98214276.109 1                        47.000    18689557.794 1  76530614.146 2                        40.000  
G10  19513635.005 1 102544843.805 1                        45.000    19513636.250 1  79905079.453 2                        37.000  
G14  23164855.729 1 121732131.361 3                        38.000    23164861.130 2  94856257.390 4                        34.000  
G16  23164633.625 1 121730959.095 2                        41.000                                                                  
G21  19709048.293 1 103571748.953 2                        43.000                                                                  
G22  22905809.942 1 120370857.496 5                        34.000                                                                  
G23  21779278.227 1 114450880.186 4                        35.000    21779281.306 1  89182512.752 3                        35.000  
G27  19252700.714 1 101173618.905 2                        43.000    19252701.738 1  78836594.984 3                        37.000  
G32  22056484.951 9                                        24.000    22056493.492 2  90317729.125 4                        33.000  
R 1  21764425.095 2 116343298.780 4                        34.000    21764435.376 9                                        27.000  
R 2  18724358.023 1  99916751.418 1                        45.000    18724360.358 1  77713027.072 2                        39.000  
R 3  19405216.127 1 103877646.169 1                        43.000    19405216.547 2  80793727.701 3                        39.000  
R 9  20392519.100 1 108894914.562 1                        43.000    20392521.506 1  84696053.855 2                        41.000  
R10  22151057.350 4               7                        30.000                                                                  
R16  20803760.973 1 111129956.116 2                        43.000    20803765.886 1  86434427.460 2                        41.000  
R17  19058221.025 1 101984386.616 1                        46.000    19058221.527 2  79321247.192 3                        38.000  
R18  17838854.555 1  95225012.592 1                        45.000    17838856.407 1  74063906.476 2                        42.000  
R19  20120388.962 2 107630591.528 5                        34.000    20120391.095 1  83712631.580 2                        39.000  
E10  23290607.554 1 122392958.616 2                        41.000    23290612.239 1  93781642.734 1                        44.000  
E11  24677815.729 1 129682805.462 3                        38.000    24677820.055 1  99367356.907 3                        35.000  
E12  22036665.908 1 115803461.581 2                        42.000    22036666.327 1  88732522.359 2                        41.000  
E19  25686398.033 1 134982920.608 4                        34.000    25686404.850 1 103428507.458 3                        35.000  
E24  23424013.012 1 123094018.443 2                        40.000    23424017.105 1  94318807.836 1                        43.000  
E25  24943068.759 1 131076712.575 1                        42.000    24943074.569 1 100435420.414 2                        38.000  
E31  25216528.632 1 132513746.824 2                        42.000                                                                  
E33  22926370.705 1 120478894.006 1                        43.000    22926374.389 1  92315006.909 2                        42.000  
C20  24097581.307 1 125482438.614 2                        41.000                                                                  
C27  21684251.883 1 112915593.564 2                        39.000                                                                  
C29  22620197.273 1 117789306.376 1                        44.000                                                                  
C30  19870742.482 1 103472171.704 1                        47.000                                                                  
C32  21158324.671 1 110176950.883 2                        41.000                                                                  
C36  24636640.362 1 128289450.606 2                        41.000                                                                  
> 2023  6 29 11 12 45.3940000  0 34                     
G 1  21486022.301 1 112909811.121 2                        40.000    21486027.158 1  87981697.980 3                        37.000  
G 2  20760653.769 1 109097968.832 2                        42.000                                                                  
G 8  18689560.683 1  98214301.122 1                        47.000    18689562.558 1  76530633.642 2                        40.000  
G10  19513671.086 1 102545033.352 1                        45.000    19513672.310 1  79905227.182 2                        37.000  
G14  23164812.223 1 121731902.837 3                        38.000    23164817.657 2  94856079.344 4                        34.000  
G16  23164716.244 1 121731393.300 2                        41.000                                                                  
G21  19709029.401 1 103571649.493 2                        43.000                                                                  
G22  22905760.992 1 120370600.360 5                        34.000                                                                  
G23  21779349.213 1 114451253.363 4                        35.000    21779352.333 1  89182803.539 3                        35.000  
G27  19252751.186 1 101173884.101 2                        43.000    19252752.199 1  78836801.651 3                        37.000  
G32  22056443.425 9                                        24.000    22056451.375 2  90317556.628 4                        33.000  
R 1  21764506.299 2 116343732.969 5                        34.000    21764516.441 8                                        27.000  
R 2  18724374.852 1  99916841.152 1                        44.000    18724377.191 2  77713096.881 2                        39.000  
R 3  19405160.736 1 103877349.705 1                        43.000    19405161.200 2  80793497.128 2                        39.000  
R 9  20392529.802 1 108894971.814 1                        43.000    20392532.223 1  84696098.373 2                        41.000  
R10  22151016.524 4               7                        30.000                                                                  
R16  20803835.622 1 111130354.794 2                        43.000    20803840.514 1  86434737.538 2                        40.000  
R17  19058272.964 1 101984664.493 1                        46.000    19058273.443 2  79321463.297 3                        38.000  
R18  17838850.560 1  95224991.236 1                        45.000    17838852.379 1  74063889.877 2                        42.000  
R19  20120343.219 2 107630346.860 4                        34.000    20120345.374 1  83712441.272 2                        39.000  
E10  23290584.086 1 122392835.122 2                        41.000    23290588.716 1  93781548.099 1                        44.000  
E11  24677780.213 1 129682619.085 3                        38.000    24677784.568 1  99367214.075 3                        36.000  
E12  22036661.634 1 115803439.357 2                        42.000    22036662.113 1  88732505.342 2                        41.000  
E19  25686354.001 1 134982689.419 4                        34.000    25686360.894 1 103428330.285 3                        35.000  
E24  23424051.295 1 123094219.761 2                        40.000    23424055.464 1  94318962.093 1                        43.000  
E25  24943053.735 1 131076633.701 1                        42.000    24943059.574 1 100435359.955 2                        38.000  
E31  25216597.992 1 132514111.601 2                        42.000                                                                  
E33  22926411.188 1 120479106.642 1                        43.000    22926414.874 1  92315169.830 2                        42.000  
C20  24097522.288 1 125482131.183 2                        41.000                                                                  
C27  21684305.482 1 112915872.434 3                        39.000                                                                  
C29  22620155.595 1 117789089.378 1                        45.000                                                                  
C30  19870747.048 1 103472195.545 1                        47.000                                                                  
C32  21158298.291 1 110176813.549 2                        41.000                                                                  
C36  24636703.683 1 128289780.454 2                        41.000                                                                  
> 2023  6 29 11 12 45.4940000  0 34                     
G 1  21485971.174 1 112909542.500 2                        39.000    21485976.043 1  87981488.656 3                        37.000  
G 2  20760623.147 1 109097807.961 2                        42.000                                                                  
G 8  18689565.457 1  98214326.147 1                        46.000    18689567.299 1  76530653.139 2                        40.000  
G10  19513707.145 1 102545222.893 1                        44.000    19513708.367 1  79905374.870 2                        37.000  
G14  23164768.747 1 121731674.358 3                        38.000    23164774.187 2  94855901.297 4                        34.000  
G16  23164798.882 1 121731827.468 2                        41.000                                                                  
G21  19709010.480 1 103571550.062 2                        42.000                                                                  
G22  22905712.070 1 120370343.285 5                        34.000                                                                  
G23  21779420.260 1 114451626.627 4                        31.000    21779423.333 1  89183094.339 3                        35.000  
G27  19252801.668 1 101174149.327 2                        43.000    19252802.668 1  78837008.320 3                        37.000  
G32  22056401.533 9                                        24.000    22056409.243 2  90317384.101 4                        33.000  
R 1  21764587.509 2 116344167.153 4                        33.000    21764597.637 8                                        27.000  
R 2  18724391.666 1  99916930.884 1                        44.000    18724394.016 1  77713166.683 2                        39.000  
R 3  19405105.350 1 103877053.243 1                        43.000    19405105.841 2  80793266.532 2                        39.000  
R 9  20392540.546 1 108895029.085 1                        43.000    20392542.898 1  84696142.899 2                        41.000  
R10  22150975.621 4               7                        30.000                                                                  
R16  20803910.245 1 111130753.487 2                        43.000    20803915.145 1  86435047.620 2                        40.000  
R17  19058324.873 1 101984942.368 1                        45.000    19058325.357 2  79321679.431 3                        38.000  
R18  17838846.572 1  95224969.880 1                        45.000    17838848.349 1  74063873.261 2                        42.000  
R19  20120297.426 2 107630102.158 5                        34.000    20120299.672 1  83712250.978 2                        39.000  
E10  23290560.602 1 122392711.598 2                        41.000    23290565.242 1  93781453.462 1                        43.000  
E11  24677744.732 1 129682432.676 3                        38.000    24677749.149 1  99367071.248 3                        36.000  
E12  22036657.401 1 115803417.152 2                        40.000    22036657.827 1  88732488.338 2                        41.000  
E19  25686310.025 1 134982458.185 4                        34.000    25686316.914 1 103428153.144 4                        35.000  
E24  23424089.589 1 123094421.089 2                        40.000    23424093.789 1  94319116.350 1                        43.000  
E25  24943038.690 1 131076554.819 2                        42.000    24943044.504 1 100435299.505 3                        38.000  
E31  25216667.449 1 132514476.375 2                        42.000                                                                  
E33  22926451.630 1 120479319.266 1                        41.000    22926455.336 1  92315332.755 2                        42.000  
C20  24097463.269 1 125481823.750 2                        41.000                                                                  
C27  21684359.065 1 112916151.302 3                        39.000                                                                  
C29  22620113.872 1 117788872.339 1                        44.000                                                                  
C30  19870751.640 1 103472219.399 1                        46.000                                                                  
C32  21158271.932 1 110176676.251 2                        41.000                                                                  
C36  24636767.002 1 128290110.292 2                        40.000                                                                  
> 2023  6 29 11 12 45.5940000  0 34                     
G 1  21485920.095 1 112909273.906 2                        38.000    21485924.988 1  87981279.377 3                        37.000  
G 2  20760592.540 1 109097647.112 2                        42.000                                                                  
G 8  18689570.216 1  98214351.188 1                        45.000    18689572.072 1  76530672.655 2                        40.000  
G10  19513743.216 1 102545412.461 1                        43.000    19513744.417 1  79905522.571 3                        37.000  
G14  23164725.264 1 121731445.863 3                        37.000    23164730.725 2  94855723.264 4                        34.000  
G16  23164881.497 1 121732261.651 2                        39.000                                                                  
G21  19708991.545 1 103571450.637 2                        41.000                                                                  
G22  22905663.099 2 120370086.186 5                        34.000                                                                  
G23  21779491.263 1 114451999.762 4                        31.000    21779494.351 1  89183385.166 3                        35.000  
G27  19252852.133 1 101174414.547 2                        42.000    19252853.144 1  78837214.983 3                        37.000  
G32  22056359.626 9                                        23.000    22056367.106 2  90317211.623 4                        33.000  
R 1  21764668.731 2 116344601.382 4                        33.000    21764678.641 8                                        27.000  
R 2  18724408.462 1  99917020.629 1                        43.000    18724410.853 1  77713236.491 2                        39.000  
R 3  19405049.985 1 103876756.803 1                        43.000    19405050.457 2  80793035.978 2                        39.000  
R 9  20392551.251 1 108895086.364 1                        43.000    20392553.659 1  84696187.478 2                        41.000  
R10  22150934.833 4                                        30.000                                                                  
R16  20803984.856 1 111131152.170 1                        42.000    20803989.815 1  86435357.724 2                        40.000  
R17  19058376.804 1 101985220.265 1                        45.000    19058377.325 2  79321895.554 3                        38.000  
R18  17838842.560 1  95224948.536 1                        45.000    17838844.369 1  74063856.663 2                        42.000  
R19  20120251.678 2 107629857.511 4                        34.000    20120253.965 1  83712060.673 2                        39.000  
E10  23290537.159 1 122392588.086 2                        41.000    23290541.732 1  93781358.830 2                        43.000  
E11  24677709.256 1 129682246.309 3                        38.000    24677713.672 1  99366928.417 3                        36.000  
E12  22036653.183 1 115803394.941 2                        40.000    22036653.592 1  88732471.311 2                        39.000  
E19  25686265.969 1 134982226.983 4                        34.000    25686272.929 1 103427975.981 4                        35.000  
E24  23424127.901 1 123094622.427 2                        39.000    23424132.093 1  94319270.633 1                        43.000  
E25  24943023.695 1 131076475.966 2                        41.000    24943029.500 1 100435239.100 3                        38.000  
E31  25216736.882 1 132514841.149 2                        40.000                                                                  
E33  22926492.231 1 120479531.916 2                        41.000    22926495.816 1  92315495.704 2                        41.000  
C20  24097404.267 1 125481516.335 2                        39.000                                                                  
C27  21684412.591 1 112916430.187 3                        39.000                                                                  
C29  22620072.183 1 117788655.295 1                        43.000                                                                  
C30  19870756.231 1 103472243.242 1                        45.000                                                                  
C32  21158245.583 1 110176538.947 2                        41.000                                                                  
C36  24636830.382 1 128290440.105 2                        40.000                                                                  
> 2023  6 29 11 12 45.6940000  0 34                     
G 1  21485868.986 1 112909005.305 2                        38.000    21485873.882 1  87981070.055 3                        37.000  
G 2  20760561.910 1 109097486.233 2                        42.000                                                                  
G 8  18689574.950 1  98214376.232 1                        45.000    18689576.849 1  76530692.170 2                        40.000  
G10  19513779.284 1 102545602.035 1                        43.000    19513780.515 1  79905670.283 3                        37.000  
G14  23164681.780 1 121731217.361 3                        37.000    23164687.245 2  94855545.186 4                        34.000  
G16  23164964.144 1 121732695.845 2                        39.000                                                                  
G21  19708972.604 1 103571351.191 2                        41.000                                                                  
G22  22905614.173 2 120369829.085 5                        34.000                                                                  
G23  21779562.264 1 114452372.978 4                        31.000    21779565.370 1  89183675.972 3                        35.000  
G27  19252902.547 1 101174679.766 2                        42.000    19252903.623 1  78837421.657 3                        37.000  
G32  22056317.548 9                                        23.000    22056324.999 2  90317039.126 5                        33.000  
R 1  21764749.944 2 116345035.588 5                        33.000    21764759.945 8                                        27.000  
R 2  18724425.266 1  99917110.406 1                        43.000    18724427.677 1  77713306.298 2                        39.000  
R 3  19404994.591 1 103876460.367 1                        43.000    19404995.074 2  80792805.429 2                        39.000  
R 9  20392561.984 1 108895143.661 1                        43.000    20392564.384 2  84696232.028 2                        41.000  
R10  22150894.050 4                                        30.000                                                                  
R16  20804059.505 1 111131550.871 2                        42.000    20804064.439 1  86435667.800 2                        40.000  
R17  19058428.703 1 101985498.141 1                        45.000    19058429.240 2  79322111.693 3                        38.000  
R18  17838838.562 1  95224927.204 1                        45.000    17838840.347 1  74063840.077 1                        42.000  
R19  20120205.938 2 107629612.840 5                        34.000    20120208.232 1  83711870.364 2                        39.000  
E10  23290513.724 1 122392464.610 2                        41.000    23290518.227 1  93781264.214 1                        43.000  
E11  24677673.819 1 129682059.884 3                        38.000    24677678.239 1  99366785.611 3                        35.000  
E12  22036648.940 1 115803372.759 2                        40.000    22036649.364 1  88732454.280 2                        39.000  
E19  25686221.953 1 134981995.809 4                        33.000    25686228.939 1 103427798.848 4                        35.000  
E24  23424166.192 1 123094823.763 2                        39.000    23424170.366 1  94319424.896 1                        43.000  
E25  24943008.671 1 131076397.116 2                        41.000    24943014.504 1 100435178.651 3                        38.000  
E31  25216806.294 1 132515205.959 2                        40.000                                                                  
E33  22926532.627 1 120479744.564 2                        41.000    22926536.288 1  92315658.637 2                        41.000  
C20  24097345.238 1 125481208.895 2                        39.000                                                                  
C27  21684466.123 1 112916709.056 2                        39.000                                                                  
C29  22620030.512 1 117788438.315 1                        43.000                                                                  
C30  19870760.803 1 103472267.111 1                        45.000                                                                  
C32  21158219.206 1 110176401.652 2                        40.000                                                                  
C36  24636893.743 1 128290769.961 2                        40.000                                                                  
> 2023  6 29 11 12 45.7940000  0 34                     
G 1  21485817.833 1 112908736.656 2                        38.000    21485822.743 1  87980860.746 3                        37.000  
G 2  20760531.286 1 109097325.355 2                        42.000                                                                  
G 8  18689579.699 1  98214401.263 1                        46.000    18689581.621 1  76530711.662 2                        40.000  
G10  19513815.303 1 102545791.565 1                        43.000    19513816.589 1  79905818.011 3                        37.000  
G14  23164638.307 1 121730988.843 3                        37.000    23164643.786 2  94855367.129 4                        34.000  
G16  23165046.780 1 121733130.004 2                        40.000                                                                  
G21  19708953.679 1 103571251.748 2                        41.000                                                                  
G22  22905565.247 1 120369571.972 4                        34.000                                                                  
G23  21779633.244 1 114452746.182 4                        31.000    21779636.414 1  89183966.751 3                        35.000  
G27  19252952.995 1 101174944.967 2                        42.000    19252954.069 1  78837628.293 2                        37.000  
G32  22056274.868 9                                        23.000    22056282.881 2  90316866.622 5                        33.000  
R 1  21764831.108 2 116345469.786 5                        33.000    21764840.874 8                                        26.000  
R 2  18724442.072 1  99917200.149 1                        43.000    18724444.487 1  77713376.109 2                        39.000  
R 3  19404939.189 1 103876163.907 1                        43.000    19404939.699 2  80792574.828 2                        39.000  
R 9  20392572.706 1 108895200.930 1                        43.000    20392575.140 1  84696276.576 2                        41.000  
R10  22150853.237 4                                        30.000                                                                  
R16  20804134.130 1 111131949.545 2                        42.000    20804139.078 1  86435977.881 2                        40.000  
R17  19058480.611 1 101985776.011 1                        46.000    19058481.167 2  79322327.815 3                        38.000  
R18  17838834.528 1  95224905.844 1                        45.000    17838836.324 1  74063823.456 1                        42.000  
R19  20120160.226 2 107629368.146 4                        34.000    20120162.498 1  83711680.077 2                        39.000  
E10  23290490.199 1 122392341.093 2                        41.000    23290494.660 1  93781169.564 1                        43.000  
E11  24677638.313 1 129681873.462 3                        37.000    24677642.721 1  99366642.750 3                        36.000  
E12  22036644.688 1 115803350.538 2                        40.000    22036645.160 1  88732437.282 2                        39.000  
E19  25686177.897 1 134981764.558 4                        33.000    25686184.915 1 103427621.658 4                        35.000  
E24  23424204.506 1 123095025.077 2                        39.000    23424208.610 1  94319579.149 1                        43.000  
E25  24942993.687 1 131076318.245 2                        41.000    24942999.471 1 100435118.228 2                        38.000  
E31  25216875.756 1 132515570.715 2                        40.000                                                                  
E33  22926573.022 1 120479957.179 2                        41.000    22926576.751 1  92315821.546 2                        41.000  
C20  24097286.175 1 125480901.452 2                        40.000                                                                  
C27  21684519.681 1 112916987.924 2                        39.000                                                                  
C29  22619988.849 1 117788221.263 1                        43.000                                                                  
C30  19870765.382 1 103472290.947 1                        46.000                                                                  
C32  21158192.838 1 110176264.338 2                        40.000                                                                  
C36  24636957.076 1 128291099.774 2                        40.000                                                                  
> 2023  6 29 11 12 45.8940000  0 34                     
G 1  21485766.704 1 112908468.065 2                        38.000    21485771.618 1  87980651.429 3                        37.000  
G 2  20760500.689 1 109097164.479 2                        42.000                                                                  
G 8  18689584.463 1  98214426.308 1                        46.000    18689586.364 1  76530731.182 2                        40.000  
G10  19513851.386 1 102545981.148 1                        44.000    19513852.679 1  79905965.745 3                        36.000  
G14  23164594.833 1 121730760.362 3                        37.000    23164600.295 1  94855189.073 4                        34.000  
G16  23165129.399 1 121733564.185 2                        40.000                                                                  
G21  19708934.761 1 103571152.312 2                        41.000                                                                  
G22  22905516.318 1 120369314.891 5                        34.000                                                                  
G23  21779704.266 1 114453119.384 4                        31.000    21779707.452 1  89184257.619 3                        35.000  
G27  19253003.486 1 101175210.204 2                        42.000    19253004.539 1  78837834.981 2                        38.000  
G32  22056233.196 9                                        23.000    22056240.754 2  90316694.143 5                        33.000  
R 1  21764912.365 2 116345903.996 5                        33.000    21764922.214 8                                        26.000  
R 2  18724458.887 1  99917289.919 1                        43.000    18724461.358 1  77713445.936 2                        39.000  
R 3  19404883.818 1 103875867.470 1                        43.000    19404884.358 2  80792344.280 2                        39.000  
R 9  20392583.443 1 108895258.239 1                        43.000    20392585.857 1  84696321.156 2                        41.000  
R10  22150812.386 4                                        30.000                                                                  
R16  20804208.763 1 111132348.245 2                        42.000    20804213.724 1  86436287.988 2                        40.000  
R17  19058532.550 1 101986053.908 1                        46.000    19058533.090 2  79322543.962 3                        38.000  
R18  17838830.514 1  95224884.519 1                        45.000    17838832.332 1  74063806.882 2                        42.000  
R19  20120114.488 2 107629123.463 4                        34.000    20120116.745 1  83711489.731 2                        39.000  
E10  23290466.658 1 122392217.589 2                        41.000    23290471.177 1  93781074.929 1                        43.000  
E11  24677602.857 1 129681687.087 3                        37.000    24677607.302 1  99366499.944 3                        35.000  
E12  22036640.437 1 115803328.328 2                        40.000    22036640.951 1  88732420.255 2                        39.000  
E19  25686133.967 1 134981533.336 4                        33.000    25686140.894 1 103427444.497 4                        35.000  
E24  23424242.718 1 123095226.418 2                        39.000    23424246.982 1  94319733.426 1                        43.000  
E25  24942978.662 1 131076239.387 2                        41.000    24942984.510 1 100435057.823 2                        38.000  
E31  25216945.183 1 132515935.501 2                        41.000                                                                  
E33  22926613.524 1 120480169.826 2                        41.000    22926617.208 1  92315984.494 2                        41.000  
C20  24097227.138 1 125480594.022 2                        40.000                                                                  
C27  21684573.267 1 112917266.804 2                        39.000                                                                  
C29  22619947.154 1 117788004.242 1                        44.000                                                                  
C30  19870769.956 1 103472314.808 1                        46.000                                                                  
C32  21158166.489 1 110176127.038 2                        40.000                                                                  
C36  24637020.454 1 128291429.603 2                        40.000                                                                  
> 2023  6 29 11 12 45.9940000  0 34                     
G 1  21485715.583 1 112908199.444 2                        38.000    21485720.490 1  87980442.106 3                        37.000  
G 2  20760470.067 1 109097003.608 1                        42.000                                                                  
G 8  18689589.247 1  98214451.368 1                        46.000    18689591.140 1  76530750.716 2                        40.000  
G10  19513887.446 1 102546170.726 1                        44.000    19513888.730 1  79906113.429 3                        36.000  
G14  23164551.378 1 121730531.862 3                        37.000    23164556.826 1  94855011.042 4                        34.000  
G16  23165212.042 1 121733998.376 2                        40.000                                                                  
G21  19708915.830 1 103571052.882 2                        41.000                                                                  
G22  22905467.360 1 120369057.760 5                        33.000                                                                  
G23  21779775.340 2 114453492.601 4                        31.000    21779778.480 1  89184548.394 3                        35.000  
G27  19253053.935 1 101175475.434 2                        42.000    19253055.046 1  78838041.662 2                        38.000  
G32  22056191.494 9                                        23.000    22056198.627 2  90316521.654 4                        34.000  
R 1  21764993.582 2 116346338.259 5                        33.000    21765003.539 8                                        26.000  
R 2  18724475.715 1  99917379.709 1                        43.000    18724478.206 1  77713515.777 2                        39.000  
R 3  19404828.444 1 103875571.037 1                        43.000    19404828.981 2  80792113.719 2                        39.000  
R 9  20392594.175 1 108895315.551 1                        43.000    20392596.555 1  84696365.720 2                        41.000  
R10  22150771.568 4                                        30.000                                                                  
R16  20804283.391 1 111132746.941 2                        42.000    20804288.364 1  86436598.080 2                        40.000  
R17  19058584.505 1 101986331.796 1                        46.000    19058584.990 2  79322760.096 2                        38.000  
R18  17838826.504 1  95224863.176 1                        45.000    17838828.361 1  74063790.274 2                        42.000  
R19  20120068.795 2 107628878.800 4                        34.000    20120071.004 1  83711299.455 2                        39.000  
E10  23290443.154 1 122392094.081 2                        41.000    23290447.705 1  93780980.300 1                        43.000  
E11  24677567.416 1 129681500.681 3                        37.000    24677571.800 1  99366357.120 3                        35.000  
E12  22036636.225 1 115803306.113 2                        40.000    22036636.711 1  88732403.237 2                        40.000  
E19  25686089.995 1 134981302.151 4                        33.000    25686096.873 1 103427267.338 4                        35.000  
E24  23424280.935 1 123095427.764 2                        39.000    23424285.371 1  94319887.707 1                        43.000  
E25  24942963.599 1 131076160.542 2                        41.000    24942969.468 1 100434997.408 2                        38.000  
E31  25217014.587 1 132516300.287 2                        41.000                                                                  
E33  22926653.921 1 120480382.467 2                        41.000    22926657.693 1  92316147.428 2                        41.000  
C20  24097168.135 1 125480286.579 2                        40.000                                                                  
C27  21684626.841 1 112917545.682 2                        39.000                                                                  
C29  22619905.502 1 117787787.220 1                        44.000                                                                  
C30  19870774.589 1 103472338.665 1                        46.000                                                                  
C32  21158140.148 1 110175989.756 2                        40.000                                                                  
C36  24637083.775 1 128291759.433 2                        40.000                                                                  
> 2023  6 29 11 12 46.0940000  0 34                     
G 1  21485664.480 1 112907930.811 2                        38.000    21485669.396 1  87980232.810 3                        37.000  
G 2  20760439.450 1 109096842.730 1                        42.000                                                                  
G 8  18689594.023 1  98214476.398 1                        46.000    18689595.878 1  76530770.234 2                        40.000  
G10  19513923.533 1 102546360.285 1                        44.000    19513924.790 1  79906261.166 3                        36.000  
G14  23164507.866 1 121730303.354 3                        37.000    23164513.302 1  94854832.992 4                        34.000  
G16  23165294.677 1 121734432.519 2                        40.000                                                                  
G21  19708896.909 1 103570953.433 2                        42.000                                                                  
G22  22905418.443 1 120368800.655 4                        33.000                                                                  
G23  21779846.354 1 114453865.768 4                        31.000    21779849.475 1  89184839.218 3                        35.000  
G27  19253104.401 1 101175740.649 2                        42.000    19253105.484 1  78838248.321 2                        38.000  
G32  22056149.448 9                                        23.000    22056156.488 2  90316349.128 4                        34.000  
R 1  21765074.804 2 116346772.397 5                        33.000    21765084.571 8                                        26.000  
R 2  18724492.533 1  99917469.473 1                        43.000    18724495.040 1  77713585.593 2                        39.000  
R 3  19404773.050 1 103875274.581 1                        44.000    19404773.612 2  80791883.133 2                        39.000  
R 9  20392604.917 1 108895372.835 1                        43.000    20392607.265 1  84696410.281 2                        41.000  
R10  22150730.729 4               7                        30.000                                                                  
R16  20804358.037 1 111133145.632 1                        42.000    20804363.019 1  86436908.168 2                        40.000  
R17  19058636.444 1 101986609.664 1                        46.000    19058636.922 2  79322976.217 2                        38.000  
R18  17838822.505 1  95224841.829 1                        45.000    17838824.382 1  74063773.669 1                        42.000  
R19  20120023.084 2 107628634.141 4                        34.000    20120025.291 1  83711109.145 2                        39.000  
E10  23290419.608 1 122391970.562 2                        41.000    23290424.261 1  93780885.655 1                        44.000  
E11  24677531.960 1 129681314.256 3                        37.000    24677536.333 1  99366214.259 3                        36.000  
E12  22036631.878 1 115803283.906 2                        41.000    22036632.473 1  88732386.229 2                        40.000  
E19  25686045.994 1 134981070.898 4                        33.000    25686052.858 1 103427090.166 4                        35.000  
E24  23424319.243 1 123095629.089 2                        40.000    23424323.654 1  94320041.974 1                        43.000  
E25  24942948.497 1 131076081.678 2                        41.000    24942954.449 1 100434936.966 2                        39.000  
E31  25217083.984 1 132516665.037 2                        41.000                                                                  
E33  22926694.300 1 120480595.089 2                        41.000    22926698.157 1  92316310.338 2                        42.000  
C20  24097109.104 1 125479979.116 2                        40.000                                                                  
C27  21684680.420 1 112917824.564 2                        39.000                                                                  
C29  22619863.861 1 117787570.171 1                        44.000                                                                  
C30  19870779.198 1 103472362.508 1                        46.000                                                                  
C32  21158113.805 1 110175852.448 2                        40.000                                                                  
C36  24637147.113 1 128292089.254 2                        40.000                                                                  
> 2023  6 29 11 12 46.1940000  0 34                     
G 1  21485613.330 1 112907662.178 2                        38.000    21485618.287 1  87980023.489 3                        38.000  
G 2  20760408.837 1 109096681.852 2                        42.000                                                                  
G 8  18689598.791 1  98214501.442 1                        46.000    18689600.672 1  76530789.734 2                        40.000  
G10  19513959.591 1 102546549.845 1                        44.000    19513960.860 1  79906408.877 3                        36.000  
G14  23164464.397 1 121730074.842 3                        37.000    23164469.814 1  94854654.940 4                        34.000  
G16  23165377.294 1 121734866.683 2                        40.000                                                                  
G21  19708877.983 1 103570853.994 2                        42.000                                                                  
G22  22905369.522 1 120368543.521 4                        33.000                                                                  
G23  21779917.397 1 114454238.952 4                        31.000    21779920.495 1  89185129.996 3                        35.000  
G27  19253154.853 1 101176005.873 2                        42.000    19253155.958 1  78838454.979 2                        38.000  
G32  22056107.527 9                                        23.000    22056114.349 2  90316176.645 4                        34.000  
R 1  21765156.088 2 116347206.600 5                        33.000    21765165.520 8                                        26.000  
R 2  18724509.378 1  99917559.260 1                        43.000    18724511.855 1  77713655.427 2                        39.000  
R 3  19404717.675 1 103874978.140 1                        44.000    19404718.243 2  80791652.590 2                        39.000  
R 9  20392615.644 1 108895430.130 1                        43.000    20392618.006 1  84696454.848 2                        41.000  
R10  22150689.941 4               7                        30.000                                                                  
R16  20804432.676 1 111133544.318 1                        43.000    20804437.659 1  86437218.274 2                        40.000  
R17  19058688.394 1 101986887.540 1                        46.000    19058688.871 2  79323192.343 2                        38.000  
R18  17838818.513 1  95224820.481 1                        45.000    17838820.379 1  74063757.072 1                        42.000  
R19  20119977.327 2 107628389.393 4                        34.000    20119979.552 1  83710918.819 2                        40.000  
E10  23290396.038 1 122391847.044 2                        41.000    23290400.775 1  93780791.009 1                        44.000  
E11  24677496.474 1 129681127.843 3                        37.000    24677500.868 1  99366071.447 3                        36.000  
E12  22036627.589 1 115803261.673 2                        41.000    22036628.248 1  88732369.191 2                        40.000  
E19  25686002.021 1 134980839.686 4                        33.000    25686008.816 1 103426912.974 4                        35.000  
E24  23424357.588 1 123095830.431 2                        40.000    23424361.978 1  94320196.225 1                        43.000  
E25  24942933.410 1 131076002.812 2                        41.000    24942939.461 1 100434876.534 2                        39.000  
E31  25217153.435 1 132517029.796 2                        41.000                                                                  
E33  22926734.822 1 120480807.710 2                        41.000    22926738.607 1  92316473.246 2                        42.000  
C20  24097050.024 1 125479671.679 2                        40.000                                                                  
C27  21684733.956 1 112918103.423 2                        39.000                                                                  
C29  22619822.220 1 117787353.128 1                        44.000                                                                  
C30  19870783.777 1 103472386.350 1                        46.000                                                                  
C32  21158087.410 1 110175715.142 1                        40.000                                                                  
C36  24637210.467 1 128292419.073 2                        40.000                                                                  
> 2023  6 29 11 12 46.2940000  0 34                     
G 1  21485562.181 1 112907393.598 2                        38.000    21485567.190 1  87979814.186 3                        37.000  
G 2  20760378.215 1 109096520.979 1                        42.000                                                                  
G 8  18689603.567 1  98214526.515 1                        46.000    18689605.434 1  76530809.276 2                        40.000  
G10  19513995.684 1 102546739.446 1                        44.000    19513996.938 1  79906556.603 3                        36.000  
G14  23164420.929 1 121729846.387 3                        37.000    23164426.352 1  94854476.888 4                        35.000  
G16  23165459.941 1 121735300.867 2                        40.000                                                                  
G21  19708859.074 1 103570754.571 2                        42.000                                                                  
G22  22905320.609 1 120368286.405 4                        33.000                                                                  
G23  21779988.404 1 114454612.184 4                        31.000    21779991.526 1  89185420.813 3                        36.000  
G27  19253205.314 1 101176271.115 2                        42.000    19253206.434 1  78838661.669 2                        38.000  
G32  22056065.648 9                                        24.000    22056072.245 2  90316004.182 4                        34.000  
R 1  21765237.320 2 116347640.853 5                        33.000    21765246.489 8                                        26.000  
R 2  18724526.190 1  99917649.063 1                        43.000    18724528.678 1  77713725.274 2                        39.000  
R 3  19404662.305 1 103874681.728 1                        44.000    19404662.870 2  80791422.038 2                        39.000  
R 9  20392626.354 1 108895487.476 1                        43.000    20392628.774 1  84696499.432 2                        41.000  
R10  22150649.072 4                                        30.000                                                                  
R16  20804507.335 1 111133943.026 1                        43.000    20804512.313 1  86437528.380 2                        40.000  
R17  19058740.343 1 101987165.444 1                        46.000    19058740.812 2  79323408.490 2                        38.000  
R18  17838814.531 1  95224799.165 1                        45.000    17838816.382 1  74063740.487 2                        43.000  
R19  20119931.579 2 107628144.741 4                        34.000    20119933.803 1  83710728.541 2                        40.000  
E10  23290372.541 1 122391723.537 2                        42.000    23290377.275 1  93780696.373 1                        44.000  
E11  24677461.034 1 129680941.466 3                        38.000    24677465.415 1  99365928.636 3                        36.000  
E12  22036623.389 1 115803239.481 2                        41.000    22036624.050 1  88732352.183 2                        40.000  
E19  25685958.020 1 134980608.471 4                        34.000    25685964.850 1 103426735.862 4                        35.000  
E24  23424395.811 1 123096031.779 2                        41.000    23424400.304 1  94320350.525 1                        43.000  
E25  24942918.400 1 131075923.977 2                        42.000    24942924.518 1 100434816.157 2                        39.000  
E31  25217222.908 1 132517394.590 2                        41.000                                                                  
E33  22926775.362 1 120481020.351 2                        41.000    22926779.081 1  92316636.207 2                        42.000  
C20  24096990.924 1 125479364.240 2                        41.000                                                                  
C27  21684787.502 1 112918382.317 2                        40.000                                                                  
C29  22619780.523 1 117787136.115 1                        44.000                                                                  
C30  19870788.324 1 103472410.214 1                        47.000                                                                  
C32  21158061.028 1 110175577.850 2                        41.000                                                                  
C36  24637273.799 1 128292748.905 2                        41.000                                                                  
> 2023  6 29 11 12 46.3940000  0 34                     
G 1  21485511.041 1 112907124.953 2                        39.000    21485516.094 1  87979604.855 3                        37.000  
G 2  20760347.582 1 109096360.119 2                        42.000                                                                  
G 8  18689608.338 1  98214551.570 1                        47.000    18689610.204 1  76530828.796 2                        40.000  
G10  19514031.732 1 102546929.024 1                        45.000    19514033.026 1  79906704.330 3                        36.000  
G14  23164377.451 1 121729617.890 3                        37.000    23164382.895 1  94854298.873 3                        34.000  
G16  23165542.565 1 121735735.027 2                        41.000                                                                  
G21  19708840.130 1 103570655.127 2                        42.000                                                                  
G22  22905271.641 1 120368029.313 4                        34.000                                                                  
G23  21780059.436 1 114454985.370 5                        32.000    21780062.560 1  89185711.636 3                        36.000  
G27  19253255.781 1 101176536.339 2                        43.000    19253256.909 1  78838868.332 2                        38.000  
G32  22056024.169 9                                        23.000    22056030.104 2  90315831.654 4                        34.000  
R 1  21765318.555 2 116348075.067 5                        33.000    21765327.785 9                                        26.000  
R 2  18724543.010 1  99917738.868 1                        43.000    18724545.511 1  77713795.105 2                        39.000  
R 3  19404606.930 1 103874385.290 1                        44.000    19404607.504 2  80791191.472 2                        39.000  
R 9  20392637.112 1 108895544.792 1                        43.000    20392639.524 1  84696544.026 2                        41.000  
R10  22150608.265 4               7                        30.000                                                                  
R16  20804581.968 1 111134341.736 1                        43.000    20804586.967 1  86437838.479 2                        40.000  
R17  19058792.252 1 101987443.339 1                        46.000    19058792.740 2  79323624.630 2                        38.000  
R18  17838810.543 1  95224777.836 1                        45.000    17838812.389 1  74063723.893 2                        43.000  
R19  20119885.796 2 107627900.044 4                        34.000    20119888.062 1  83710538.223 2                        40.000  
E10  23290349.035 1 122391600.033 2                        41.000    23290353.757 1  93780601.750 1                        44.000  
E11  24677425.566 1 129680755.041 3                        38.000    24677429.968 1  99365785.783 3                        36.000  
E12  22036619.089 1 115803217.275 2                        41.000    22036619.796 1  88732335.173 2                        40.000  
E19  25685913.999 1 134980377.243 4                        34.000    25685920.840 1 103426558.667 4                        35.000  
E24  23424434.146 1 123096233.134 2                        41.000    23424438.551 1  94320504.804 1                        43.000  
E25  24942903.323 1 131075845.131 2                        42.000    24942909.579 1 100434755.723 2                        39.000  
E31  25217292.338 1 132517759.351 2                        41.000                                                                  
E33  22926815.918 1 120481232.990 2                        41.000    22926819.518 1  92316799.117 2                        42.000  
C20  24096931.873 1 125479056.786 2                        41.000                                                                  
C27  21684841.043 1 112918661.195 2                        40.000                                                                  
C29  22619738.865 1 117786919.071 1                        44.000                                                                  
C30  19870792.914 1 103472434.089 1                        47.000                                                                  
C32  21158034.637 1 110175440.585 2                        41.000                                                                  
C36  24637337.172 1 128293078.732 2                        41.000                                                                  
> 2023  6 29 11 12 46.4940000  0 34                     
G 1  21485459.942 1 112906856.339 2                        39.000    21485464.993 1  87979395.548 2                        37.000  
G 2  20760316.979 1 109096199.238 2                        42.000                                                                  
G 8  18689613.111 1  98214576.637 1                        47.000    18689614.995 1  76530848.321 2                        41.000  
G10  19514067.844 1 102547118.610 1                        45.000    19514069.114 1  79906852.060 3                        36.000  
G14  23164333.969 1 121729389.400 3                        37.000    23164339.388 1  94854120.818 3                        35.000  
G16  23165625.168 1 121736169.184 2                        41.000                                                                  
G21  19708821.205 1 103570555.703 1                        42.000                                                                  
G22  22905222.718 1 120367772.184 4                        34.000                                                                  
G23  21780130.468 2 114455358.607 5                        32.000    21780133.584 1  89186002.452 3                        36.000  
G27  19253306.261 1 101176801.587 1                        43.000    19253307.367 1  78839075.013 2                        38.000  
G32  22055982.059 9                                        23.000    22055987.965 2  90315659.176 4                        34.000  
R 1  21765399.762 2 116348509.267 5                        33.000    21765408.888 8                                        26.000  
R 2  18724559.857 1  99917828.669 1                        43.000    18724562.338 1  77713864.966 2                        39.000  
R 3  19404551.538 1 103874088.863 1                        44.000    19404552.133 2  80790960.927 2                        39.000  
R 9  20392647.799 1 108895602.130 1                        43.000    20392650.259 1  84696588.623 2                        41.000  
R10  22150567.470 4               7                        30.000                                                                  
R16  20804656.592 1 111134740.443 1                        43.000    20804661.620 1  86438148.594 2                        40.000  
R17  19058844.194 1 101987721.221 1                        46.000    19058844.678 2  79323840.756 2                        39.000  
R18  17838806.528 1  95224756.495 1                        45.000    17838808.392 1  74063707.310 2                        43.000  
R19  20119840.060 2 107627655.373 4                        34.000    20119842.328 1  83710347.899 2                        40.000  
E10  23290325.530 1 122391476.519 2                        41.000    23290330.292 1  93780507.100 1                        44.000  
E11  24677390.050 1 129680568.643 3                        38.000    24677394.491 1  99365642.960 3                        36.000  
E12  22036614.868 1 115803195.062 2                        41.000    22036615.553 1  88732318.149 2                        40.000  
E19  25685869.956 1 134980146.010 4                        34.000    25685876.872 1 103426381.487 3                        35.000  
E24  23424472.436 1 123096434.467 2                        41.000    23424476.869 1  94320659.086 1                        43.000  
E25  24942888.324 1 131075766.277 1                        42.000    24942894.569 1 100434695.309 2                        39.000  
E31  25217361.716 1 132518124.108 2                        41.000                                                                  
E33  22926856.361 1 120481445.616 2                        41.000    22926859.943 1  92316962.033 2                        42.000  
C20  24096872.794 1 125478749.351 2                        41.000                                                                  
C27  21684894.622 1 112918940.072 2                        40.000                                                                  
C29  22619697.241 1 117786702.039 1                        44.000                                                                  
C30  19870797.475 1 103472457.940 1                        47.000                                                                  
C32  21158008.279 1 110175303.296 2                        41.000                                                                  
C36  24637400.491 1 128293408.552 2                        41.000                                                                  
> 2023  6 29 11 12 46.5940000  0 34                     
G 1  21485408.823 1 112906587.702 2                        39.000    21485413.914 1  87979186.249 3                        37.000  
G 2  20760286.363 1 109096038.365 2                        42.000                                                                  
G 8  18689617.859 1  98214601.701 1                        47.000    18689619.772 1  76530867.865 2                        41.000  
G10  19514103.957 1 102547308.197 1                        45.000    19514105.165 1  79906999.770 3                        36.000  
G14  23164290.478 1 121729160.932 3                        37.000    23164295.912 1  94853942.769 3                        35.000  
G16  23165707.829 1 121736603.346 2                        41.000                                                                  
G21  19708802.269 1 103570456.283 1                        42.000                                                                  
G22  22905173.831 1 120367515.068 4                        34.000                                                                  
G23  21780201.477 2 114455731.801 5                        32.000    21780204.604 1  89186293.240 3                        36.000  
G27  19253356.756 1 101177066.808 1                        43.000    19253357.839 1  78839281.708 2                        38.000  
G32  22055939.692 9                                        23.000    22055945.854 2  90315486.670 4                        34.000  
R 1  21765481.011 2 116348943.500 5                        33.000    21765489.961 8                                        26.000  
R 2  18724576.705 1  99917918.498 1                        43.000    18724579.178 1  77713934.829 2                        39.000  
R 3  19404496.115 1 103873792.444 1                        44.000    19404496.762 1  80790730.386 2                        39.000  
R 9  20392658.550 1 108895659.470 1                        43.000    20392660.980 1  84696633.216 2                        41.000  
R10  22150526.660 4               7                        31.000                                                                  
R16  20804731.195 1 111135139.142 2                        43.000    20804736.276 1  86438458.678 2                        40.000  
R17  19058896.117 1 101987999.112 1                        46.000    19058896.625 2  79324056.905 2                        39.000  
R18  17838802.537 1  95224735.171 1                        45.000    17838804.390 1  74063690.717 1                        43.000  
R19  20119794.364 2 107627410.696 4                        34.000    20119796.566 1  83710157.594 2                        40.000  
E10  23290301.951 1 122391353.010 2                        41.000    23290306.753 1  93780412.463 1                        44.000  
E11  24677354.571 1 129680382.219 3                        38.000    24677359.037 1  99365500.119 3                        36.000  
E12  22036610.683 1 115803172.830 2                        41.000    22036611.315 1  88732301.128 2                        40.000  
E19  25685825.893 1 134979914.805 4                        34.000    25685832.895 1 103426204.332 3                        35.000  
E24  23424510.788 1 123096635.829 2                        41.000    23424515.183 1  94320813.366 1                        43.000  
E25  24942873.405 1 131075687.448 1                        42.000    24942879.527 1 100434634.907 2                        39.000  
E31  25217431.096 1 132518488.882 2                        41.000                                                                  
E33  22926896.831 1 120481658.245 2                        41.000    22926900.404 1  92317124.966 2                        42.000  
C20  24096813.736 1 125478441.891 2                        41.000                                                                  
C27  21684948.189 1 112919218.948 2                        40.000                                                                  
C29  22619655.593 1 117786485.011 1                        44.000                                                                  
C30  19870802.036 1 103472481.802 1                        47.000                                                                  
C32  21157981.958 1 110175166.009 2                        41.000                                                                  
C36  24637463.887 1 128293738.372 2                        41.000                                                                  
> 2023  6 29 11 12 46.6940000  0 34                     
G 1  21485357.698 1 112906319.099 2                        41.000    21485362.805 1  87978976.922 2                        37.000  
G 2  20760255.752 1 109095877.481 1                        43.000                                                                  
G 8  18689622.630 1  98214626.766 1                        48.000    18689624.515 1  76530887.383 2                        41.000  
G10  19514140.021 1 102547497.778 1                        46.000    19514141.267 1  79907147.511 3                        36.000  
G14  23164247.002 1 121728932.424 3                        37.000    23164252.416 1  94853764.728 3                        35.000  
G16  23165790.469 1 121737037.483 2                        42.000                                                                  
G21  19708783.354 1 103570356.832 1                        42.000                                                                  
G22  22905124.907 1 120367257.957 4                        34.000                                                                  
G23  21780272.508 2 114456105.017 5                        32.000    21780275.640 1  89186584.058 3                        36.000  
G27  19253407.233 1 101177332.061 1                        44.000    19253408.307 1  78839488.367 2                        38.000  
G32  22055897.285 9                                        24.000    22055903.732 2  90315314.171 4                        34.000  
R 1  21765562.270 2 116349377.746 5                        33.000    21765571.173 8                                        26.000  
R 2  18724593.545 1  99918008.317 1                        44.000    18724596.012 1  77714004.678 2                        39.000  
R 3  19404440.746 1 103873496.021 1                        44.000    19404441.360 2  80790499.810 2                        39.000  
R 9  20392669.265 1 108895716.812 1                        43.000    20392671.741 1  84696677.812 2                        41.000  
R10  22150485.830 4               7                        31.000                                                                  
R16  20804805.840 1 111135537.840 1                        43.000    20804810.918 1  86438768.782 2                        40.000  
R17  19058948.044 1 101988276.995 1                        46.000    19058948.508 2  79324273.041 2                        39.000  
R18  17838798.534 1  95224713.837 1                        45.000    17838800.404 1  74063674.119 1                        43.000  
R19  20119748.616 2 107627166.006 3                        34.000    20119750.831 1  83709967.274 2                        40.000  
E10  23290278.370 1 122391229.485 2                        42.000    23290283.222 1  93780317.811 1                        44.000  
E11  24677319.061 1 129680195.805 3                        38.000    24677323.516 1  99365357.277 3                        36.000  
E12  22036606.459 1 115803150.630 2                        43.000    22036607.063 1  88732284.102 2                        41.000  
E19  25685781.912 1 134979683.562 4                        34.000    25685788.917 1 103426027.141 3                        35.000  
E24  23424549.062 1 123096837.165 2                        41.000    23424553.541 1  94320967.636 1                        43.000  
E25  24942858.350 1 131075608.590 1                        43.000    24942864.476 1 100434574.484 2                        39.000  
E31  25217500.561 1 132518853.636 2                        43.000                                                                  
E33  22926937.204 1 120481870.864 2                        41.000    22926940.861 1  92317287.883 2                        42.000  
C20  24096754.700 1 125478134.421 2                        41.000                                                                  
C27  21685001.735 1 112919497.834 2                        40.000                                                                  
C29  22619613.905 1 117786267.956 1                        44.000                                                                  
C30  19870806.617 1 103472505.664 1                        47.000                                                                  
C32  21157955.585 1 110175028.731 1                        41.000                                                                  
C36  24637527.216 1 128294068.173 2                        41.000                                                                  
> 2023  6 29 11 12 46.7940000  0 34                     
G 1  21485306.586 1 112906050.438 2                        41.000    21485311.683 1  87978767.590 2                        38.000  
G 2  20760225.176 1 109095716.589 1                        43.000                                                                  
G 8  18689627.403 1  98214651.817 1                        48.000    18689629.258 1  76530906.917 2                        41.000  
G10  19514176.097 1 102547687.352 1                        46.000    19514177.333 1  79907295.216 3                        37.000  
G14  23164203.535 1 121728703.932 2                        38.000    23164208.919 1  94853586.657 3                        35.000  
G16  23165873.105 1 121737471.633 2                        42.000                                                                  
G21  19708764.398 1 103570257.386 1                        44.000                                                                  
G22  22905075.961 1 120367000.780 4                        34.000                                                                  
G23  21780343.530 1 114456478.195 5                        32.000    21780346.678 1  89186874.847 3                        36.000  
G27  19253457.725 1 101177597.276 1                        44.000    19253458.781 1  78839695.047 2                        39.000  
G32  22055854.849 9                                        24.000    22055861.600 2  90315141.669 4                        34.000  
R 1  21765643.526 2 116349811.938 5                        33.000    21765652.286 8                                        26.000  
R 2  18724610.349 1  99918098.110 1                        44.000    18724612.871 1  77714074.546 2                        39.000  
R 3  19404385.359 1 103873199.585 1                        44.000    19404385.998 2  80790269.276 2                        39.000  
R 9  20392680.045 1 108895774.137 1                        43.000    20392682.417 1  84696722.408 2                        41.000  
R10  22150445.041 4               7                        31.000                                                                  
R16  20804880.468 1 111135936.529 1                        43.000    20804885.560 1  86439078.880 2                        40.000  
R17  19058999.979 1 101988554.871 1                        46.000    19059000.417 2  79324489.149 2                        38.000  
R18  17838794.500 1  95224692.485 1                        45.000    17838796.388 1  74063657.521 1                        43.000  
R19  20119702.887 2 107626921.310 3                        34.000    20119705.052 1  83709776.947 2                        40.000  
E10  23290254.845 1 122391105.947 1                        43.000    23290259.733 1  93780223.158 1                        44.000  
E11  24677283.515 1 129680009.375 3                        39.000    24677288.036 1  99365214.424 3                        36.000  
E12  22036602.245 1 115803128.398 2                        43.000    22036602.828 1  88732267.068 2                        41.000  
E19  25685737.930 1 134979452.346 3                        35.000    25685744.927 1 103425849.951 3                        35.000  
E24  23424587.472 1 123097038.500 2                        43.000    23424591.859 1  94321121.911 1                        43.000  
E25  24942843.391 1 131075529.734 1                        44.000    24942849.504 1 100434514.061 2                        39.000  
E31  25217569.934 1 132519218.372 2                        43.000                                                                  
E33  22926977.608 1 120482083.472 1                        43.000    22926981.319 1  92317450.789 2                        42.000  
C20  24096695.660 1 125477826.949 2                        42.000                                                                  
C27  21685055.279 1 112919776.683 2                        41.000                                                                  
C29  22619572.245 1 117786050.901 1                        46.000                                                                  
C30  19870811.166 1 103472529.496 1                        48.000                                                                  
C32  21157929.213 1 110174891.439 1                        42.000                                                                  
C36  24637590.533 1 128294397.986 2                        42.000                                                                  
> 2023  6 29 11 12 46.8940000  0 34                     
G 1  21485255.488 1 112905781.818 2                        41.000    21485260.551 1  87978558.258 3                        38.000  
G 2  20760194.586 1 109095555.710 1                        43.000                                                                  
G 8  18689632.181 1  98214676.891 1                        48.000    18689634.068 1  76530926.454 2                        41.000  
G10  19514212.186 1 102547876.946 1                        46.000    19514213.394 1  79907442.935 3                        36.000  
G14  23164160.069 1 121728475.458 2                        38.000    23164165.456 1  94853408.660 3                        35.000  
G16  23165955.727 1 121737905.775 2                        42.000                                                                  
G21  19708745.497 1 103570157.952 1                        44.000                                                                  
G22  22905027.004 1 120366743.668 4                        34.000                                                                  
G23  21780414.554 1 114456851.418 5                        33.000    21780417.693 1  89187165.661 3                        36.000  
G27  19253508.216 1 101177862.517 1                        44.000    19253509.264 1  78839901.736 2                        39.000  
G32  22055813.230 9               7                        25.000    22055819.477 2  90314969.167 4                        34.000  
R 1  21765724.790 2 116350246.178 5                        33.000    21765733.774 8                                        26.000  
R 2  18724627.202 1  99918187.960 1                        44.000    18724629.676 1  77714144.404 2                        39.000  
R 3  19404330.004 1 103872903.171 1                        44.000    19404330.627 1  80790038.712 2                        40.000  
R 9  20392690.813 1 108895831.498 1                        43.000    20392693.143 1  84696767.011 2                        41.000  
R10  22150404.237 4               6                        31.000                                                                  
R16  20804955.102 1 111136335.234 1                        43.000    20804960.180 1  86439388.979 2                        40.000  
R17  19059051.896 1 101988832.762 1                        46.000    19059052.358 2  79324705.299 2                        38.000  
R18  17838790.502 1  95224671.166 1                        45.000    17838792.412 1  74063640.930 1                        43.000  
R19  20119657.140 2 107626676.596 3                        34.000    20119659.297 1  83709586.648 2                        40.000  
E10  23290231.368 1 122390982.433 1                        43.000    23290236.235 1  93780128.511 1                        44.000  
E11  24677248.044 1 129679822.919 3                        39.000    24677252.591 1  99365071.574 3                        36.000  
E12  22036598.041 1 115803106.171 1                        43.000    22036598.596 1  88732250.047 2                        41.000  
E19  25685693.932 1 134979221.088 3                        35.000    25685700.920 1 103425672.801 3                        35.000  
E24  23424625.792 1 123097239.851 2                        43.000    23424630.138 1  94321276.185 1                        44.000  
E25  24942828.430 1 131075450.894 1                        44.000    24942834.537 1 100434453.644 2                        39.000  
E31  25217639.349 1 132519583.138 1                        43.000                                                                  
E33  22927018.116 1 120482296.083 1                        43.000    22927021.747 1  92317613.701 2                        42.000  
C20  24096636.641 1 125477519.493 2                        43.000                                                                  
C27  21685108.823 1 112920055.555 2                        42.000                                                                  
C29  22619530.559 1 117785833.856 1                        46.000                                                                  
C30  19870815.715 1 103472553.364 1                        49.000                                                                  
C32  21157902.861 1 110174754.150 1                        43.000                                                                  
C36  24637653.854 1 128294727.792 1                        43.000                                                                  
> 2023  6 29 11 12 46.9940000  0 34                     
G 1  21485204.380 1 112905513.172 2                        41.000    21485209.473 1  87978348.938 3                        38.000  
G 2  20760163.985 1 109095394.817 1                        43.000                                                                  
G 8  18689636.934 1  98214701.950 1                        48.000    18689638.836 1  76530945.971 2                        41.000  
G10  19514248.276 1 102548066.522 1                        46.000    19514249.450 1  79907590.691 3                        36.000  
G14  23164116.596 1 121728246.938 2                        38.000    23164121.943 1  94853230.585 3                        35.000  
G16  23166038.334 1 121738339.899 2                        42.000                                                                  
G21  19708726.579 1 103570058.498 1                        44.000                                                                  
G22  22904978.065 1 120366486.510 4                        34.000                                                                  
G23  21780485.563 1 114457224.583 4                        33.000    21780488.702 1  89187456.446 3                        36.000  
G27  19253558.660 1 101178127.753 1                        44.000    19253559.720 1  78840108.400 2                        39.000  
G32  22055771.449 9               7                        25.000    22055777.339 2  90314796.660 4                        34.000  
R 1  21765806.011 2 116350680.356 5                        33.000    21765814.988 8                                        26.000  
R 2  18724644.044 1  99918277.794 1                        44.000    18724646.541 1  77714214.279 2                        39.000  
R 3  19404274.618 1 103872606.752 1                        44.000    19404275.288 2  80789808.148 2                        40.000  
R 9  20392701.568 1 108895888.837 1                        43.000    20392703.926 1  84696811.616 2                        41.000  
R10  22150363.466 4               6                        31.000                                                                  
R16  20805029.766 1 111136733.933 1                        43.000    20805034.810 1  86439699.079 2                        40.000  
R17  19059103.834 1 101989110.639 1                        46.000    19059104.256 2  79324921.419 2                        38.000  
R18  17838786.514 1  95224649.830 1                        45.000    17838788.420 1  74063624.338 1                        43.000  
R19  20119611.393 2 107626431.917 3                        34.000    20119613.540 1  83709396.304 2                        40.000  
E10  23290207.844 1 122390858.901 1                        43.000    23290212.699 1  93780033.857 1                        44.000  
E11  24677212.574 1 129679636.500 3                        39.000    24677217.083 1  99364928.701 3                        36.000  
E12  22036593.882 1 115803083.945 1                        43.000    22036594.333 1  88732233.002 2                        41.000  
E19  25685649.941 1 134978989.870 3                        35.000    25685656.880 1 103425495.606 3                        35.000  
E24  23424664.144 1 123097441.193 2                        43.000    23424668.435 1  94321430.454 1                        44.000  
E25  24942813.358 1 131075372.035 1                        44.000    24942819.519 1 100434393.220 2                        39.000  
E31  25217708.721 1 132519947.872 2                        43.000                                                                  
E33  22927058.582 1 120482508.702 1                        43.000    22927062.220 1  92317776.619 2                        42.000  
C20  24096577.565 1 125477212.016 2                        43.000                                                                  
C27  21685162.387 1 112920334.426 2                        42.000                                                                  
C29  22619488.880 1 117785616.793 1                        46.000                                                                  
C30  19870820.307 1 103472577.214 1                        49.000                                                                  
C32  21157876.482 1 110174616.863 1                        43.000                                                                  
C36  24637717.221 1 128295057.571 1                        43.000                                                                  
> 2023  6 29 11 12 47.0940000  0 34                     
G 1  21485153.268 1 112905244.538 2                        41.000    21485158.374 1  87978139.598 3                        38.000  
G 2  20760133.353 1 109095233.920 1                        43.000                                                                  
G 8  18689641.742 1  98214727.008 1                        48.000    18689643.578 1  76530965.514 2                        41.000  
G10  19514284.349 1 102548256.105 1                        46.000    19514285.511 1  79907738.397 3                        36.000  
G14  23164073.097 1 121728018.451 2                        38.000    23164078.443 1  94853052.532 3                        35.000  
G16  23166120.940 1 121738774.035 2                        42.000                                                                  
G21  19708707.663 1 103569959.053 1                        44.000                                                                  
G22  22904929.128 1 120366229.376 3                        34.000                                                                  
G23  21780556.569 1 114457597.784 4                        33.000    21780559.722 1  89187747.234 3                        36.000  
G27  19253609.127 1 101178392.984 1                        44.000    19253610.190 1  78840315.081 2                        39.000  
G32  22055729.099 9               7                        25.000    22055735.201 1  90314624.151 3                        34.000  
R 1  21765887.223 2 116351114.588 5                        33.000    21765896.208 8                                        26.000  
R 2  18724660.888 1  99918367.620 1                        44.000    18724663.418 1  77714284.140 2                        39.000  
R 3  19404219.205 1 103872310.317 1                        44.000    19404219.923 2  80789577.605 2                        40.000  
R 9  20392712.299 1 108895946.187 1                        43.000    20392714.685 1  84696856.225 2                        41.000  
R10  22150322.680 4               6                        31.000                                                                  
R16  20805104.372 1 111137132.625 1                        43.000    20805109.442 1  86440009.172 2                        40.000  
R17  19059155.770 1 101989388.517 1                        46.000    19059156.189 2  79325137.542 2                        38.000  
R18  17838782.530 1  95224628.488 1                        45.000    17838784.436 1  74063607.738 1                        43.000  
R19  20119565.626 2 107626187.195 3                        34.000    20119567.812 1  83709205.986 2                        40.000  
E10  23290184.290 1 122390735.351 1                        43.000    23290189.143 1  93779939.199 1                        44.000  
E11  24677177.054 1 129679450.032 3                        39.000    24677181.559 1  99364785.840 3                        36.000  
E12  22036589.585 1 115803061.712 1                        43.000    22036590.100 1  88732215.981 2                        41.000  
E19  25685605.956 1 134978758.619 4                        35.000    25685612.834 1 103425318.421 3                        36.000  
E24  23424702.412 1 123097642.516 2                        43.000    23424706.732 1  94321584.739 1                        44.000  
E25  24942798.400 1 131075293.190 1                        44.000    24942804.506 1 100434332.815 2                        39.000  
E31  25217778.136 1 132520312.609 1                        43.000                                                                  
E33  22927099.043 1 120482721.308 1                        43.000    22927102.658 1  92317939.511 2                        42.000  
C20  24096518.499 1 125476904.528 1                        43.000                                                                  
C27  21685215.934 1 112920613.272 2                        42.000                                                                  
C29  22619447.222 1 117785399.728 1                        46.000                                                                  
C30  19870824.882 1 103472601.049 1                        49.000                                                                  
C32  21157850.120 1 110174479.562 1                        43.000                                                                  
C36  24637780.514 1 128295387.384 1                        43.000                                                                  
> 2023  6 29 11 12 47.1940000  0 34                     
G 1  21485102.162 1 112904975.899 2                        41.000    21485107.285 1  87977930.285 2                        38.000  
G 2  20760102.741 1 109095073.038 1                        43.000                                                                  
G 8  18689646.555 1  98214752.095 1                        48.000    18689648.325 1  76530985.049 2                        41.000  
G10  19514320.415 1 102548445.705 1                        46.000    19514321.612 1  79907886.176 3                        36.000  
G14  23164029.603 1 121727789.961 2                        38.000    23164034.949 1  94852874.519 3                        35.000  
G16  23166203.589 1 121739208.179 2                        42.000                                                                  
G21  19708688.738 1 103569859.619 1                        44.000                                                                  
G22  22904880.237 1 120365972.213 3                        34.000                                                                  
G23  21780627.576 1 114457970.976 4                        33.000    21780630.751 1  89188038.047 3                        36.000  
G27  19253659.605 1 101178658.235 1                        44.000    19253660.695 1  78840521.770 2                        39.000  
G32  22055686.623 9               7                        26.000    22055693.069 1  90314451.662 3                        34.000  
R 1  21765968.449 2 116351548.804 4                        33.000    21765977.709 8                                        25.000  
R 2  18724677.741 1  99918457.463 1                        44.000    18724680.275 1  77714354.017 2                        39.000  
R 3  19404163.841 1 103872013.903 1                        44.000    19404164.530 2  80789347.067 2                        39.000  
R 9  20392723.036 1 108896003.550 1                        43.000    20392725.460 1  84696900.841 2                        41.000  
R10  22150281.834 4               6                        31.000                                                                  
R16  20805179.019 1 111137531.333 1                        43.000    20805184.070 1  86440319.281 2                        40.000  
R17  19059207.700 1 101989666.408 1                        46.000    19059208.119 2  79325353.694 2                        39.000  
R18  17838778.511 1  95224607.166 1                        45.000    17838780.447 1  74063591.163 1                        43.000  
R19  20119519.860 2 107625942.502 3                        34.000    20119522.072 1  83709015.654 2                        40.000  
E10  23290160.857 1 122390611.837 1                        43.000    23290165.660 1  93779844.553 1                        44.000  
E11  24677141.579 1 129679263.608 3                        39.000    24677146.084 1  99364643.007 3                        36.000  
E12  22036585.392 1 115803039.499 1                        43.000    22036585.867 1  88732198.955 2                        41.000  
E19  25685561.951 1 134978527.398 3                        35.000    25685568.834 1 103425141.240 3                        36.000  
E24  23424740.798 1 123097843.887 2                        43.000    23424745.075 1  94321739.018 1                        44.000  
E25  24942783.392 1 131075214.351 1                        44.000    24942789.532 1 100434272.404 2                        39.000  
E31  25217847.548 1 132520677.365 1                        43.000                                                                  
E33  22927139.451 1 120482933.918 1                        43.000    22927143.115 1  92318102.437 1                        43.000  
C20  24096459.480 1 125476597.057 1                        43.000                                                                  
C27  21685269.452 1 112920892.149 2                        42.000                                                                  
C29  22619405.558 1 117785182.681 1                        46.000                                                                  
C30  19870829.471 1 103472624.919 1                        49.000                                                                  
C32  21157823.752 1 110174342.301 1                        43.000                                                                  
C36  24637843.822 1 128295717.188 2                        43.000                                                                  
> 2023  6 29 11 12 47.2940000  0 34                     
G 1  21485051.052 1 112904707.273 2                        41.000    21485056.146 1  87977720.959 2                        38.000  
G 2  20760072.097 1 109094912.145 1                        43.000                                                                  
G 8  18689651.311 1  98214777.171 1                        48.000    18689653.127 1  76531004.580 2                        41.000  
G10  19514356.487 1 102548635.300 1                        46.000    19514357.679 1  79908033.878 3                        36.000  
G14  23163986.146 1 121727561.490 2                        38.000    23163991.467 1  94852696.440 3                        35.000  
G16  23166286.209 1 121739642.305 1                        42.000                                                                  
G21  19708669.791 1 103569760.185 1                        44.000                                                                  
G22  22904831.324 1 120365715.087 3                        34.000                                                                  
G23  21780698.580 1 114458344.174 4                        33.000    21780701.777 1  89188328.836 3                        36.000  
G27  19253710.085 1 101178923.481 1                        44.000    19253711.153 1  78840728.430 2                        39.000  
G32  22055644.989 9               7                        26.000    22055650.950 1  90314279.202 4                        34.000  
R 1  21766049.644 2 116351983.012 4                        33.000    21766059.126 8                                        25.000  
R 2  18724694.573 1  99918547.328 1                        44.000    18724697.124 1  77714423.926 2                        39.000  
R 3  19404108.452 1 103871717.487 1                        44.000    19404109.135 2  80789116.519 2                        39.000  
R 9  20392733.750 1 108896060.933 1                        43.000    20392736.229 1  84696945.476 1                        41.000  
R10  22150241.034 4               7                        31.000                                                                  
R16  20805253.670 1 111137930.043 1                        43.000    20805258.714 1  86440629.395 2                        40.000  
R17  19059259.664 1 101989944.301 1                        46.000    19059260.022 2  79325569.825 2                        39.000  
R18  17838774.520 1  95224585.839 1                        45.000    17838776.401 1  74063574.572 1                        43.000  
R19  20119474.094 2 107625697.811 3                        34.000    20119476.325 1  83708825.348 2                        40.000  
E10  23290137.293 1 122390488.312 1                        43.000    23290142.161 1  93779749.909 1                        44.000  
E11  24677106.146 1 129679077.171 3                        39.000    24677110.652 1  99364500.133 3                        36.000  
E12  22036581.138 1 115803017.283 1                        43.000    22036581.640 1  88732181.942 2                        41.000  
E19  25685517.898 1 134978296.161 3                        35.000    25685524.832 1 103424964.067 3                        36.000  
E24  23424779.075 1 123098045.229 2                        42.000    23424783.395 1  94321893.297 1                        44.000  
E25  24942768.353 1 131075135.509 1                        44.000    24942774.501 1 100434211.988 2                        39.000  
E31  25217916.930 1 132521042.109 1                        44.000                                                                  
E33  22927179.876 1 120483146.540 1                        43.000    22927183.502 1  92318265.351 2                        43.000  
C20  24096400.433 1 125476289.580 1                        43.000                                                                  
C27  21685323.019 1 112921171.023 2                        42.000                                                                  
C29  22619363.920 1 117784965.619 1                        46.000                                                                  
C30  19870834.084 1 103472648.770 1                        49.000                                                                  
C32  21157797.417 1 110174205.018 1                        43.000                                                                  
C36  24637907.165 1 128296046.987 2                        43.000                                                                  
> 2023  6 29 11 12 47.3940000  0 34                     
G 1  21484999.941 1 112904438.637 2                        41.000    21485005.056 1  87977511.638 2                        38.000  
G 2  20760041.503 1 109094751.266 1                        43.000                                                                  
G 8  18689656.080 1  98214802.266 1                        48.000    18689657.887 1  76531024.128 2                        41.000  
G10  19514392.553 1 102548824.899 1                        46.000    19514393.745 1  79908181.642 3                        36.000  
G14  23163942.672 1 121727333.003 2                        38.000    23163948.000 1  94852518.434 3                        35.000  
G16  23166368.853 1 121740076.442 1                        42.000                                                                  
G21  19708650.868 1 103569660.747 1                        44.000                                                                  
G22  22904782.351 1 120365457.923 4                        34.000                                                                  
G23  21780769.583 1 114458717.340 4                        33.000    21780772.809 1  89188619.649 3                        36.000  
G27  19253760.558 1 101179188.735 1                        44.000    19253761.632 1  78840935.138 2                        39.000  
G32  22055602.714 9               7                        26.000    22055608.827 1  90314106.697 3                        34.000  
R 1  21766130.863 2 116352417.263 4                        33.000    21766140.502 8                                        25.000  
R 2  18724711.389 1  99918637.194 1                        44.000    18724713.954 1  77714493.802 2                        39.000  
R 3  19404053.111 1 103871421.089 1                        44.000    19404053.772 2  80788885.993 2                        39.000  
R 9  20392744.469 1 108896118.309 1                        43.000    20392746.980 1  84696990.109 1                        41.000  
R10  22150200.195 4               6                        31.000                                                                  
R16  20805328.310 1 111138328.760 1                        43.000    20805333.354 1  86440939.491 2                        40.000  
R17  19059311.566 1 101990222.195 1                        46.000    19059311.929 2  79325785.965 2                        39.000  
R18  17838770.539 1  95224564.516 1                        45.000    17838772.422 1  74063557.990 1                        43.000  
R19  20119428.362 2 107625453.098 3                        34.000    20119430.568 1  83708635.015 2                        40.000  
E10  23290113.785 1 122390364.784 1                        43.000    23290118.642 1  93779655.247 1                        44.000  
E11  24677070.726 1 129678890.757 3                        39.000    24677075.196 1  99364357.310 3                        36.000  
E12  22036576.971 1 115802995.059 1                        43.000    22036577.464 1  88732164.907 2                        41.000  
E19  25685473.951 1 134978064.917 4                        35.000    25685480.746 1 103424786.906 3                        36.000  
E24  23424817.454 1 123098246.591 2                        42.000    23424821.686 1  94322047.582 1                        44.000  
E25  24942753.376 1 131075056.684 1                        44.000    24942759.470 1 100434151.587 2                        39.000  
E31  25217986.389 1 132521406.855 1                        44.000                                                                  
E33  22927220.380 1 120483359.157 1                        43.000    22927223.967 1  92318428.257 1                        43.000  
C20  24096341.397 1 125475982.108 1                        43.000                                                                  
C27  21685376.585 1 112921449.883 2                        42.000                                                                  
C29  22619322.243 1 117784748.561 1                        46.000                                                                  
C30  19870838.658 1 103472672.634 1                        49.000                                                                  
C32  21157771.053 1 110174067.771 1                        43.000                                                                  
C36  24637970.494 1 128296376.793 2                        43.000                                                                  
> 2023  6 29 11 12 47.4940000  0 34                     
G 1  21484948.843 1 112904170.016 2                        41.000    21484953.936 1  87977302.301 2                        38.000  
G 2  20760010.917 1 109094590.392 1                        43.000                                                                  
G 8  18689660.849 1  98214827.350 1                        47.000    18689662.701 1  76531043.687 2                        41.000  
G10  19514428.640 1 102549014.513 1                        46.000    19514429.811 1  79908329.386 3                        36.000  
G14  23163899.192 1 121727104.530 2                        38.000    23163904.551 1  94852340.374 3                        35.000  
G16  23166451.428 1 121740510.561 2                        42.000                                                                  
G21  19708631.930 1 103569561.327 1                        44.000                                                                  
G22  22904733.411 1 120365200.799 4                        34.000                                                                  
G23  21780840.596 1 114459090.552 4                        33.000    21780843.826 1  89188910.464 3                        36.000  
G27  19253811.028 1 101179453.977 1                        44.000    19253812.120 1  78841141.823 2                        39.000  
G32  22055560.641 9               7                        26.000    22055566.699 1  90313934.227 3                        34.000  
R 1  21766212.083 2 116352851.467 4                        32.000    21766222.052 8                                        25.000  
R 2  18724728.210 1  99918727.064 1                        43.000    18724730.813 1  77714563.706 2                        39.000  
R 3  19403997.779 1 103871124.690 1                        44.000    19403998.387 2  80788655.446 2                        39.000  
R 9  20392755.217 1 108896175.706 1                        43.000    20392757.719 1  84697034.735 1                        41.000  
R10  22150159.390 2               6                        31.000                                                                  
R16  20805402.947 1 111138727.472 1                        43.000    20805408.004 1  86441249.610 2                        40.000  
R17  19059363.481 1 101990500.083 1                        46.000    19059363.860 2  79326002.090 2                        39.000  
R18  17838766.532 1  95224543.202 1                        45.000    17838768.412 1  74063541.411 1                        43.000  
R19  20119382.577 2 107625208.374 3                        34.000    20119384.847 1  83708444.725 2                        40.000  
E10  23290090.321 1 122390241.243 1                        43.000    23290095.107 1  93779560.598 1                        44.000  
E11  24677035.224 1 129678704.307 3                        39.000    24677039.737 1  99364214.458 3                        36.000  
E12  22036572.743 1 115802972.830 1                        43.000    22036573.288 1  88732147.876 2                        41.000  
E19  25685429.916 1 134977833.693 4                        35.000    25685436.760 1 103424609.713 3                        36.000  
E24  23424855.794 1 123098447.966 2                        42.000    23424860.030 1  94322201.867 1                        44.000  
E25  24942738.331 1 131074977.842 1                        44.000    24942744.471 1 100434091.176 2                        40.000  
E31  25218055.792 1 132521771.606 1                        43.000                                                                  
E33  22927260.761 1 120483571.766 1                        43.000    22927264.415 1  92318591.182 1                        43.000  
C20  24096282.344 1 125475674.627 1                        43.000                                                                  
C27  21685430.134 1 112921728.763 2                        42.000                                                                  
C29  22619280.562 1 117784531.510 1                        46.000                                                                  
C30  19870843.273 1 103472696.497 1                        49.000                                                                  
C32  21157744.675 1 110173930.502 2                        43.000                                                                  
C36  24638033.844 1 128296706.587 2                        43.000                                                                  
> 2023  6 29 11 12 47.5940000  0 34                     
G 1  21484897.734 1 112903901.351 2                        41.000    21484902.798 1  87977092.975 2                        38.000  
G 2  20759980.278 1 109094429.497 1                        43.000                                                                  
G 8  18689665.629 1  98214852.422 1                        47.000    18689667.493 1  76531063.224 2                        41.000  
G10  19514464.724 1 102549204.107 1                        46.000    19514465.904 1  79908477.102 3                        36.000  
G14  23163855.735 1 121726876.025 2                        38.000    23163861.070 1  94852162.316 3                        36.000  
G16  23166533.992 1 121740944.676 1                        42.000                                                                  
G21  19708612.991 1 103569461.877 1                        44.000                                                                  
G22  22904684.456 1 120364943.627 4                        35.000                                                                  
G23  21780911.616 1 114459463.735 4                        33.000    21780914.844 1  89189201.251 3                        37.000  
G27  19253861.502 1 101179719.221 1                        44.000    19253862.559 1  78841348.487 2                        39.000  
G32  22055518.496 9               7                        26.000    22055524.600 1  90313761.703 4                        34.000  
R 1  21766293.354 2 116353285.725 4                        33.000    21766303.621 8                                        25.000  
R 2  18724745.097 1  99918816.924 1                        43.000    18724747.668 1  77714633.606 2                        39.000  
R 3  19403942.420 1 103870828.275 1                        44.000    19403942.991 2  80788424.919 2                        39.000  
R 9  20392765.967 1 108896233.077 1                        43.000    20392768.474 1  84697079.373 1                        41.000  
R10  22150118.625 2 118072532.414 5                        31.000                                                                  
R16  20805477.619 1 111139126.183 1                        43.000    20805482.650 1  86441559.708 2                        40.000  
R17  19059415.402 1 101990777.976 1                        47.000    19059415.798 2  79326218.218 2                        39.000  
R18  17838762.541 1  95224521.865 1                        45.000    17838764.402 1  74063524.814 1                        43.000  
R19  20119336.858 2 107624963.709 3                        34.000    20119339.087 1  83708254.359 2                        39.000  
E10  23290066.838 1 122390117.709 1                        43.000    23290071.556 1  93779465.931 1                        44.000  
E11  24676999.701 1 129678517.859 3                        39.000    24677004.327 1  99364071.579 3                        36.000  
E12  22036568.570 1 115802950.611 1                        43.000    22036569.051 1  88732130.838 2                        41.000  
E19  25685385.942 1 134977602.431 4                        35.000    25685392.782 1 103424432.516 3                        36.000  
E24  23424894.100 1 123098649.296 2                        42.000    23424898.362 1  94322356.160 1                        44.000  
E25  24942723.366 1 131074899.010 1                        44.000    24942729.492 1 100434030.769 2                        40.000  
E31  25218125.156 1 132522136.326 1                        43.000                                                                  
E33  22927301.265 1 120483784.377 1                        43.000    22927304.855 1  92318754.065 1                        43.000  
C20  24096223.289 1 125475367.140 1                        43.000                                                                  
C27  21685483.711 1 112922007.624 2                        42.000                                                                  
C29  22619238.920 1 117784314.438 1                        46.000                                                                  
C30  19870847.848 1 103472720.349 1                        49.000                                                                  
C32  21157718.299 1 110173793.206 2                        43.000                                                                  
C36  24638097.192 1 128297036.372 2                        43.000                                                                  
> 2023  6 29 11 12 47.6940000  0 34                     
G 1  21484846.643 1 112903632.711 2                        41.000    21484851.689 1  87976883.639 2                        38.000  
G 2  20759949.653 1 109094268.591 1                        44.000                                                                  
G 8  18689670.389 1  98214877.497 1                        47.000    18689672.246 1  76531082.769 2                        41.000  
G10  19514500.806 1 102549393.693 1                        46.000    19514501.956 1  79908624.837 3                        37.000  
G14  23163812.252 1 121726647.547 2                        38.000    23163817.620 1  94851984.307 3                        36.000  
G16  23166616.599 1 121741378.799 2                        42.000                                                                  
G21  19708594.092 1 103569362.426 1                        44.000                                                                  
G22  22904635.505 1 120364686.446 4                        35.000                                                                  
G23  21780982.658 1 114459836.922 4                        33.000    21780985.852 1  89189492.056 3                        37.000  
G27  19253911.957 1 101179984.457 1                        44.000    19253913.060 1  78841555.185 2                        39.000  
G32  22055476.408 9                                        26.000    22055482.496 1  90313589.203 3                        34.000  
R 1  21766374.562 2 116353719.923 4                        33.000    21766384.628 8                                        25.000  
R 2  18724761.915 1  99918906.798 1                        43.000    18724764.492 1  77714703.501 2                        39.000  
R 3  19403887.058 1 103870531.859 1                        44.000    19403887.604 2  80788194.358 2                        39.000  
R 9  20392776.727 1 108896290.451 1                        43.000    20392779.242 1  84697123.994 1                        41.000  
R10  22150077.817 2 118072314.890 5                        31.000                                                                  
R16  20805552.231 1 111139524.885 1                        43.000    20805557.258 1  86441869.802 2                        40.000  
R17  19059467.333 1 101991055.851 1                        47.000    19059467.738 2  79326434.370 2                        39.000  
R18  17838758.531 1  95224500.547 1                        45.000    17838760.435 1  74063508.217 1                        43.000  
R19  20119291.123 2 107624718.962 3                        34.000    20119293.342 1  83708064.008 2                        39.000  
E10  23290043.319 1 122389994.153 1                        43.000    23290048.062 1  93779371.268 1                        44.000  
E11  24676964.234 1 129678331.422 3                        39.000    24676968.808 1  99363928.712 3                        36.000  
E12  22036564.351 1 115802928.369 1                        43.000    22036564.825 1  88732113.795 2                        41.000  
E19  25685341.981 1 134977371.199 4                        35.000    25685348.750 1 103424255.296 3                        36.000  
E24  23424932.437 1 123098850.636 2                        42.000    23424936.724 1  94322510.425 1                        44.000  
E25  24942708.351 1 131074820.154 1                        44.000    24942714.491 1 100433970.351 2                        40.000  
E31  25218194.576 1 132522501.052 1                        43.000                                                                  
E33  22927341.653 1 120483996.970 1                        43.000    22927345.370 1  92318916.972 2                        43.000  
C20  24096164.229 1 125475059.635 1                        43.000                                                                  
C27  21685537.244 1 112922286.477 2                        42.000                                                                  
C29  22619197.223 1 117784097.360 1                        46.000                                                                  
C30  19870852.436 1 103472744.207 1                        49.000                                                                  
C32  21157691.912 1 110173655.934 1                        43.000                                                                  
C36  24638160.531 1 128297366.159 1                        43.000                                                                  
> 2023  6 29 11 12 47.7940000  0 34                     
G 1  21484795.526 1 112903364.059 2                        41.000    21484800.529 1  87976674.307 2                        38.000  
G 2  20759919.026 1 109094107.702 1                        43.000                                                                  
G 8  18689675.203 1  98214902.585 1                        47.000    18689677.009 1  76531102.312 2                        41.000  
G10  19514536.892 1 102549583.315 1                        46.000    19514538.039 1  79908772.629 3                        37.000  
G14  23163768.797 1 121726419.070 2                        38.000    23163774.115 1  94851806.245 3                        36.000  
G16  23166699.235 1 121741812.915 2                        42.000                                                                  
G21  19708575.148 1 103569262.987 1                        44.000                                                                  
G22  22904586.585 1 120364429.286 3                        35.000                                                                  
G23  21781053.653 1 114460210.121 4                        33.000    21781056.860 1  89189782.845 3                        37.000  
G27  19253962.392 1 101180249.715 1                        44.000    19253963.543 1  78841761.856 2                        39.000  
G32  22055434.306 8                                        26.000    22055440.365 1  90313416.708 4                        34.000  
R 1  21766455.765 2 116354154.129 4                        33.000    21766465.352 8                                        25.000  
R 2  18724778.756 1  99918996.672 1                        43.000    18724781.302 1  77714773.393 2                        39.000  
R 3  19403831.683 1 103870235.463 1                        44.000    19403832.243 2  80787963.843 2                        39.000  
R 9  20392787.444 1 108896347.853 1                        44.000    20392789.996 1  84697168.649 2                        41.000  
R10  22150037.020 2 118072097.320 5                        31.000                                                                  
R16  20805626.889 1 111139923.592 1                        43.000    20805631.926 1  86442179.919 2                        40.000  
R17  19059519.277 1 101991333.741 1                        47.000    19059519.662 1  79326650.486 2                        39.000  
R18  17838754.547 1  95224479.217 1                        44.000    17838756.479 1  74063491.647 1                        43.000  
R19  20119245.421 2 107624474.265 3                        34.000    20119247.642 1  83707873.704 2                        39.000  
E10  23290019.861 1 122389870.620 1                        43.000    23290024.540 1  93779276.609 1                        44.000  
E11  24676928.717 1 129678144.951 3                        39.000    24676933.293 1  99363785.860 3                        36.000  
E12  22036560.112 1 115802906.129 1                        43.000    22036560.590 1  88732096.753 2                        41.000  
E19  25685297.905 1 134977139.931 3                        35.000    25685304.759 1 103424078.147 3                        36.000  
E24  23424970.828 1 123099052.003 2                        42.000    23424974.999 1  94322664.714 1                        44.000  
E25  24942693.408 1 131074741.330 1                        44.000    24942699.514 1 100433909.928 2                        40.000  
E31  25218263.967 1 132522865.782 1                        43.000                                                                  
E33  22927382.159 1 120484209.577 1                        43.000    22927385.847 1  92319079.877 1                        43.000  
C20  24096105.144 1 125474752.156 1                        43.000                                                                  
C27  21685590.798 1 112922565.344 2                        42.000                                                                  
C29  22619155.505 1 117783880.294 1                        46.000                                                                  
C30  19870857.004 1 103472768.066 1                        49.000                                                                  
C32  21157665.530 1 110173518.660 2                        43.000                                                                  
C36  24638223.899 1 128297695.950 2                        43.000                                                                  
> 2023  6 29 11 12 47.8940000  0 34                     
G 1  21484744.391 1 112903095.409 2                        41.000    21484749.416 1  87976464.972 2                        38.000  
G 2  20759888.390 1 109093946.793 1                        43.000                                                                  
G 8  18689679.962 1  98214927.672 1                        47.000    18689681.781 1  76531121.854 2                        41.000  
G10  19514572.967 1 102549772.907 1                        46.000    19514574.124 1  79908920.314 3                        37.000  
G14  23163725.311 1 121726190.572 2                        38.000    23163730.628 1  94851628.199 3                        36.000  
G16  23166781.803 1 121742247.016 2                        42.000                                                                  
G21  19708556.214 1 103569163.536 1                        44.000                                                                  
G22  22904537.662 1 120364172.136 4                        35.000                                                                  
G23  21781124.665 1 114460583.310 4                        33.000    21781127.876 1  89190073.635 3                        37.000  
G27  19254012.868 1 101180514.965 1                        44.000    19254014.023 1  78841968.547 2                        39.000  
G32  22055392.388 8                                        26.000    22055398.259 2  90313244.212 4                        34.000  
R 1  21766537.024 2 116354588.372 4                        33.000    21766546.609 8                                        25.000  
R 2  18724795.604 1  99919086.541 1                        43.000    18724798.134 1  77714843.296 2                        39.000  
R 3  19403776.318 1 103869939.050 1                        44.000    19403776.881 2  80787733.290 2                        39.000  
R 9  20392798.206 1 108896405.251 1                        44.000    20392800.747 1  84697213.283 2                        41.000  
R10  22149996.169 4 118071879.778 5                        31.000                                                                  
R16  20805701.500 1 111140322.296 1                        43.000    20805706.558 1  86442490.024 2                        40.000  
R17  19059571.200 1 101991611.615 1                        47.000    19059571.582 1  79326866.614 2                        39.000  
R18  17838750.498 1  95224457.895 1                        44.000    17838752.492 1  74063475.045 1                        43.000  
R19  20119199.655 2 107624229.516 3                        34.000    20119201.893 1  83707683.360 2                        39.000  
E10  23289996.304 1 122389747.072 1                        43.000    23290001.041 1  93779181.946 1                        44.000  
E11  24676893.151 1 129677958.500 3                        39.000    24676897.790 1  99363642.993 3                        36.000  
E12  22036555.840 1 115802883.899 1                        43.000    22036556.374 1  88732079.725 2                        41.000  
E19  25685253.920 1 134976908.674 3                        35.000    25685260.799 1 103423900.942 3                        35.000  
E24  23425009.103 1 123099253.347 2                        42.000    23425013.258 1  94322818.988 1                        44.000  
E25  24942678.288 1 131074662.487 1                        44.000    24942684.504 1 100433849.534 2                        40.000  
E31  25218333.361 1 132523230.499 1                        43.000                                                                  
E33  22927422.562 1 120484422.159 1                        43.000    22927426.317 1  92319242.778 1                        43.000  
C20  24096046.152 1 125474444.637 2                        43.000                                                                  
C27  21685644.353 1 112922844.200 2                        42.000                                                                  
C29  22619113.831 1 117783663.219 1                        46.000                                                                  
C30  19870861.588 1 103472791.910 1                        49.000                                                                  
C32  21157639.191 1 110173381.393 2                        43.000                                                                  
C36  24638287.275 1 128298025.722 2                        43.000                                                                  
> 2023  6 29 11 12 47.9940000  0 34                     
G 1  21484693.284 1 112902826.744 2                        41.000    21484698.271 1  87976255.611 2                        38.000  
G 2  20759857.768 1 109093785.881 1                        43.000                                                                  
G 8  18689684.739 1  98214952.744 1                        47.000    18689686.537 1  76531141.396 2                        41.000  
G10  19514609.039 1 102549962.505 1                        46.000    19514610.209 1  79909068.053 3                        37.000  
G14  23163681.795 1 121725962.067 2                        38.000    23163687.138 1  94851450.143 3                        35.000  
G16  23166864.407 1 121742681.095 2                        42.000                                                                  
G21  19708537.309 1 103569064.084 1                        44.000                                                                  
G22  22904488.682 1 120363914.949 4                        35.000                                                                  
G23  21781195.695 1 114460956.455 4                        33.000    21781198.879 1  89190364.429 3                        37.000  
G27  19254063.346 1 101180780.180 1                        44.000    19254064.512 1  78842175.219 2                        39.000  
G32  22055350.242 8               7                        26.000    22055356.131 1  90313071.687 4                        34.000  
R 1  21766618.219 2 116355022.574 4                        33.000    21766627.629 8                                        25.000  
R 2  18724812.433 1  99919176.425 1                        43.000    18724814.956 1  77714913.202 2                        39.000  
R 3  19403720.937 1 103869642.634 1                        44.000    19403721.497 2  80787502.741 2                        39.000  
R 9  20392809.007 1 108896462.643 1                        44.000    20392811.520 1  84697257.914 1                        41.000  
R10  22149955.341 4               6                        31.000                                                                  
R16  20805776.134 1 111140721.000 1                        43.000    20805781.239 1  86442800.111 2                        40.000  
R17  19059623.115 1 101991889.500 1                        47.000    19059623.539 1  79327082.746 2                        39.000  
R18  17838746.477 1  95224436.561 1                        44.000    17838748.482 1  74063458.448 1                        43.000  
R19  20119153.921 2 107623984.796 3                        34.000    20119156.134 1  83707493.004 2                        39.000  
E10  23289972.755 1 122389623.513 1                        43.000    23289977.509 1  93779087.266 1                        44.000  
E11  24676857.692 1 129677772.011 3                        39.000    24676862.341 1  99363500.071 3                        36.000  
E12  22036551.607 1 115802861.643 1                        43.000    22036552.156 1  88732062.677 2                        42.000  
E19  25685209.917 1 134976677.406 3                        35.000    25685216.833 1 103423723.724 3                        35.000  
E24  23425047.436 1 123099454.689 2                        42.000    23425051.556 1  94322973.265 1                        44.000  
E25  24942663.206 1 131074583.628 1                        44.000    24942669.516 1 100433789.103 2                        40.000  
E31  25218402.688 1 132523595.216 1                        43.000                                                                  
E33  22927462.961 1 120484634.744 1                        43.000    22927466.749 1  92319405.646 1                        43.000  
C20  24095987.080 1 125474137.122 2                        43.000                                                                  
C27  21685697.902 1 112923123.051 2                        42.000                                                                  
C29  22619072.108 1 117783446.128 1                        46.000                                                                  
C30  19870866.174 1 103472815.757 1                        49.000                                                                  
C32  21157612.825 1 110173244.110 2                        43.000                                                                  
C36  24638350.587 1 128298355.493 2                        43.000                                                                  
> 2023  6 29 11 12 48.0940000  0 34                     
G 1  21484642.135 1 112902558.088 2                        41.000    21484647.143 1  87976046.280 2                        38.000  
G 2  20759827.152 1 109093624.985 1                        43.000                                                                  
G 8  18689689.504 1  98214977.835 1                        48.000    18689691.299 1  76531160.954 2                        41.000  
G10  19514645.123 1 102550152.112 1                        46.000    19514646.326 1  79909215.829 3                        37.000  
G14  23163638.331 1 121725733.573 2                        38.000    23163643.675 1  94851272.106 3                        35.000  
G16  23166947.030 1 121743115.210 2                        42.000                                                                  
G21  19708518.400 1 103568964.635 1                        44.000                                                                  
G22  22904439.724 1 120363657.763 3                        35.000                                                                  
G23  21781266.731 1 114461329.664 4                        33.000    21781269.878 1  89190655.209 3                        37.000  
G27  19254113.853 1 101181045.450 1                        44.000    19254114.991 1  78842381.901 2                        39.000  
G32  22055308.375 8                                        26.000    22055314.038 2  90312899.170 4                        34.000  
R 1  21766699.498 2 116355456.774 4                        33.000    21766708.382 8                                        25.000  
R 2  18724829.284 1  99919266.309 1                        43.000    18724831.799 1  77714983.110 2                        39.000  
R 3  19403665.582 1 103869346.241 1                        44.000    19403666.126 2  80787272.209 2                        39.000  
R 9  20392819.771 1 108896520.045 1                        44.000    20392822.291 1  84697302.573 1                        41.000  
R10  22149914.504 4               6                        31.000                                                                  
R16  20805850.781 1 111141119.696 1                        43.000    20805855.884 1  86443110.226 2                        40.000  
R17  19059675.021 1 101992167.377 1                        47.000    19059675.442 1  79327298.874 2                        39.000  
R18  17838742.483 1  95224415.231 1                        44.000    17838744.512 1  74063441.870 1                        43.000  
R19  20119108.181 2 107623740.073 4                        35.000    20119110.389 1  83707302.675 2                        39.000  
E10  23289949.270 1 122389499.958 1                        43.000    23289953.998 1  93778992.594 1                        44.000  
E11  24676822.225 1 129677585.545 2                        39.000    24676826.802 1  99363357.226 3                        36.000  
E12  22036547.453 1 115802839.403 1                        43.000    22036547.912 1  88732045.636 2                        42.000  
E19  25685165.833 1 134976446.166 3                        35.000    25685172.832 1 103423546.546 3                        35.000  
E24  23425085.672 1 123099656.045 2                        42.000    23425089.907 1  94323127.549 1                        44.000  
E25  24942648.145 1 131074504.787 1                        44.000    24942654.500 1 100433728.707 2                        40.000  
E31  25218472.124 1 132523959.936 1                        43.000                                                                  
E33  22927503.424 1 120484847.347 1                        43.000    22927507.238 1  92319568.556 1                        43.000  
C20  24095928.060 1 125473829.641 2                        43.000                                                                  
C27  21685751.497 1 112923401.892 2                        42.000                                                                  
C29  22619030.368 1 117783229.048 1                        46.000                                                                  
C30  19870870.780 1 103472839.602 1                        49.000                                                                  
C32  21157586.450 1 110173106.830 1                        43.000                                                                  
C36  24638413.931 1 128298685.255 2                        43.000                                                                  
> 2023  6 29 11 12 48.1940000  0 34                     
G 1  21484591.005 1 112902289.418 2                        41.000    21484596.007 1  87975836.907 2                        38.000  
G 2  20759796.492 1 109093464.068 1                        43.000                                                                  
G 8  18689694.278 1  98215002.915 1                        48.000    18689696.063 1  76531180.493 2                        41.000  
G10  19514681.172 1 102550341.708 1                        46.000    19514682.390 1  79909363.534 3                        37.000  
G14  23163594.853 1 121725505.073 2                        39.000    23163600.211 1  94851094.058 3                        35.000  
G16  23167029.627 1 121743549.281 2                        42.000                                                                  
G21  19708499.461 1 103568865.167 1                        44.000                                                                  
G22  22904390.809 1 120363400.595 3                        35.000                                                                  
G23  21781337.759 1 114461702.823 4                        33.000    21781340.894 1  89190946.016 3                        37.000  
G27  19254164.329 1 101181310.662 1                        44.000    19254165.434 1  78842588.572 2                        39.000  
G32  22055265.747 8                                        26.000    22055271.904 1  90312726.657 4                        34.000  
R 1  21766780.729 2 116355891.009 4                        33.000    21766789.547 8                                        26.000  
R 2  18724846.121 1  99919356.193 1                        43.000    18724848.648 1  77715053.033 2                        39.000  
R 3  19403610.246 1 103869049.835 1                        45.000    19403610.746 2  80787041.680 2                        39.000  
R 9  20392830.497 1 108896577.447 1                        44.000    20392833.079 1  84697347.225 1                        41.000  
R10  22149873.697 4               6                        31.000                                                                  
R16  20805925.407 1 111141518.394 1                        43.000    20805930.499 1  86443420.314 2                        40.000  
R17  19059726.958 1 101992445.245 1                        47.000    19059727.343 1  79327514.993 2                        39.000  
R18  17838738.501 1  95224393.902 1                        45.000    17838740.489 1  74063425.285 1                        43.000  
R19  20119062.397 2 107623495.326 3                        35.000    20119064.640 1  83707112.330 2                        39.000  
E10  23289925.788 1 122389376.408 1                        43.000    23289930.522 1  93778897.924 1                        44.000  
E11  24676786.728 1 129677399.077 2                        39.000    24676791.321 1  99363214.325 3                        36.000  
E12  22036543.248 1 115802817.165 1                        43.000    22036543.709 1  88732028.574 1                        42.000  
E19  25685121.818 1 134976214.892 3                        35.000    25685128.845 1 103423369.342 3                        35.000  
E24  23425123.954 1 123099857.399 2                        43.000    23425128.282 1  94323281.825 1                        44.000  
E25  24942633.123 1 131074425.943 1                        44.000    24942639.507 1 100433668.305 2                        40.000  
E31  25218541.564 1 132524324.632 1                        43.000                                                                  
E33  22927543.876 1 120485059.919 1                        43.000    22927547.688 1  92319731.449 1                        43.000  
C20  24095869.007 1 125473522.098 2                        43.000                                                                  
C27  21685805.063 1 112923680.736 2                        42.000                                                                  
C29  22618988.703 1 117783011.950 1                        46.000                                                                  
C30  19870875.370 1 103472863.450 1                        49.000                                                                  
C32  21157560.096 1 110172969.562 1                        43.000                                                                  
C36  24638477.283 1 128299015.022 1                        43.000                                                                  
> 2023  6 29 11 12 48.2940000  0 34                     
G 1  21484539.879 1 112902020.744 2                        42.000    21484544.873 1  87975627.555 2                        38.000  
G 2  20759765.848 1 109093303.134 1                        44.000                                                                  
G 8  18689699.080 1  98215027.987 1                        48.000    18689700.814 1  76531200.031 2                        41.000  
G10  19514717.241 1 102550531.302 1                        46.000    19514718.484 1  79909511.304 3                        37.000  
G14  23163551.384 1 121725276.584 2                        39.000    23163556.758 1  94850916.008 3                        35.000  
G16  23167112.226 1 121743983.345 2                        43.000                                                                  
G21  19708480.536 1 103568765.705 1                        44.000                                                                  
G22  22904341.871 1 120363143.370 3                        36.000                                                                  
G23  21781408.782 1 114462076.010 4                        34.000    21781411.919 1  89191236.757 3                        37.000  
G27  19254214.843 1 101181575.911 1                        45.000    19254215.925 1  78842795.274 2                        39.000  
G32  22055223.399 8                                        26.000    22055229.754 2  90312554.143 4                        34.000  
R 1  21766861.938 2 116356325.204 4                        33.000    21766870.408 8                                        26.000  
R 2  18724862.991 1  99919446.069 1                        43.000    18724865.487 1  77715122.943 2                        39.000  
R 3  19403554.883 1 103868753.417 1                        45.000    19403555.386 2  80786811.145 2                        39.000  
R 9  20392841.257 1 108896634.843 1                        44.000    20392843.801 1  84697391.868 1                        41.000  
R10  22149832.805 4 118071009.567 5                        31.000                                                                  
R16  20806000.058 1 111141917.100 1                        44.000    20806005.140 1  86443730.409 2                        41.000  
R17  19059778.920 1 101992723.118 1                        47.000    19059779.280 1  79327731.123 2                        39.000  
R18  17838734.483 1  95224372.561 1                        45.000    17838736.529 1  74063408.675 1                        43.000  
R19  20119016.666 2 107623250.611 3                        35.000    20119018.873 1  83706921.980 2                        39.000  
E10  23289902.269 1 122389252.828 1                        43.000    23289907.005 1  93778803.229 1                        45.000  
E11  24676751.207 1 129677212.570 2                        39.000    24676755.808 1  99363071.421 3                        36.000  
E12  22036538.920 1 115802794.881 1                        43.000    22036539.426 1  88732011.538 1                        42.000  
E19  25685077.863 1 134975983.596 3                        35.000    25685084.795 1 103423192.107 3                        36.000  
E24  23425162.254 1 123100058.715 2                        42.000    23425166.630 1  94323436.090 1                        44.000  
E25  24942618.080 1 131074347.093 1                        44.000    24942624.468 1 100433607.865 2                        40.000  
E31  25218610.946 1 132524689.334 1                        43.000                                                                  
E33  22927584.333 1 120485272.488 1                        43.000    22927588.184 1  92319894.312 1                        43.000  
C20  24095809.939 1 125473214.564 2                        43.000                                                                  
C27  21685858.612 1 112923959.572 2                        42.000                                                                  
C29  22618946.981 1 117782794.836 1                        46.000                                                                  
C30  19870879.973 1 103472887.292 1                        49.000                                                                  
C32  21157533.765 1 110172832.279 1                        43.000                                                                  
C36  24638540.607 1 128299344.772 1                        43.000                                                                  
> 2023  6 29 11 12 48.3940000  0 34                     
G 1  21484488.753 1 112901752.075 2                        42.000    21484493.773 1  87975418.193 2                        38.000  
G 2  20759735.246 1 109093142.202 1                        44.000                                                                  
G 8  18689703.869 1  98215053.054 1                        48.000    18689705.588 1  76531219.556 2                        41.000  
G10  19514753.309 1 102550720.903 1                        46.000    19514754.554 1  79909659.022 3                        37.000  
G14  23163507.898 1 121725048.068 2                        39.000    23163513.242 1  94850737.929 3                        35.000  
G16  23167194.819 1 121744417.416 2                        43.000                                                                  
G21  19708461.597 1 103568666.232 1                        44.000                                                                  
G22  22904292.957 1 120362886.179 3                        36.000                                                                  
G23  21781479.778 1 114462449.169 4                        34.000    21781482.924 1  89191527.545 3                        37.000  
G27  19254265.301 1 101181841.142 1                        45.000    19254266.390 1  78843001.941 2                        38.000  
G32  22055181.665 8                                        26.000    22055187.636 2  90312381.617 4                        34.000  
R 1  21766943.139 2 116356759.418 4                        33.000    21766951.828 8                                        26.000  
R 2  18724879.878 1  99919535.954 1                        44.000    18724882.310 1  77715192.846 2                        39.000  
R 3  19403499.511 1 103868457.008 1                        45.000    19403500.028 2  80786580.589 2                        39.000  
R 9  20392852.022 1 108896692.255 1                        44.000    20392854.564 1  84697436.517 2                        41.000  
R10  22149792.006 4 118070792.016 5                        31.000                                                                  
R16  20806074.702 1 111142315.782 1                        44.000    20806079.798 1  86444040.514 2                        41.000  
R17  19059830.851 1 101993000.976 1                        47.000    19059831.196 1  79327947.234 2                        39.000  
R18  17838730.471 1  95224351.211 1                        45.000    17838732.516 1  74063392.071 1                        43.000  
R19  20118970.943 2 107623005.830 3                        35.000    20118973.104 1  83706731.609 2                        39.000  
E10  23289878.767 1 122389129.251 1                        43.000    23289883.525 1  93778708.543 1                        45.000  
E11  24676715.688 1 129677026.088 2                        40.000    24676720.344 1  99362928.548 3                        36.000  
E12  22036534.731 1 115802772.622 1                        43.000    22036535.214 1  88731994.466 1                        42.000  
E19  25685033.877 1 134975752.309 3                        35.000    25685040.767 1 103423014.885 3                        36.000  
E24  23425200.605 1 123100260.058 2                        43.000    23425204.966 1  94323590.370 1                        44.000  
E25  24942603.032 1 131074268.232 1                        44.000    24942609.440 1 100433547.435 2                        40.000  
E31  25218680.379 1 132525054.022 1                        43.000                                                                  
E33  22927624.802 1 120485485.045 1                        43.000    22927628.662 1  92320057.186 1                        43.000  
C20  24095750.904 1 125472907.039 2                        43.000                                                                  
C27  21685912.192 1 112924238.397 2                        42.000                                                                  
C29  22618905.295 1 117782577.741 1                        46.000                                                                  
C30  19870884.540 1 103472911.121 1                        49.000                                                                  
C32  21157507.389 1 110172695.000 1                        43.000                                                                  
C36  24638603.897 1 128299674.517 1                        43.000                                                                  
> 2023  6 29 11 12 48.4940000  0 34                     
G 1  21484437.637 1 112901483.388 2                        42.000    21484442.641 1  87975208.834 3                        38.000  
G 2  20759704.605 1 109092981.293 1                        44.000                                                                  
G 8  18689708.644 1  98215078.136 1                        48.000    18689710.360 1  76531239.094 2                        41.000  
G10  19514789.417 1 102550910.496 1                        46.000    19514790.627 1  79909806.769 3                        37.000  
G14  23163464.423 1 121724819.576 2                        39.000    23163469.734 1  94850559.884 3                        35.000  
G16  23167277.443 1 121744851.492 1                        43.000                                                                  
G21  19708442.680 1 103568566.778 1                        44.000                                                                  
G22  22904244.024 1 120362628.985 3                        36.000                                                                  
G23  21781550.808 1 114462822.344 4                        34.000    21781553.945 1  89191818.322 3                        37.000  
G27  19254315.778 1 101182106.384 1                        45.000    19254316.884 1  78843208.636 2                        39.000  
G32  22055139.592 8               7                        26.000    22055145.516 2  90312209.087 4                        34.000  
R 1  21767024.373 2 116357193.644 4                        33.000    21767032.851 8                                        26.000  
R 2  18724896.679 1  99919625.845 1                        44.000    18724899.143 1  77715262.779 2                        39.000  
R 3  19403444.155 1 103868160.606 1                        45.000    19403444.648 2  80786350.071 2                        39.000  
R 9  20392862.789 1 108896749.670 1                        44.000    20392865.318 1  84697481.156 2                        41.000  
R10  22149751.196 2 118070574.419 5                        31.000                                                                  
R16  20806149.352 1 111142714.476 1                        44.000    20806154.440 1  86444350.611 2                        41.000  
R17  19059882.761 1 101993278.841 1                        47.000    19059883.136 1  79328163.364 2                        39.000  
R18  17838726.441 1  95224329.888 1                        46.000    17838728.554 1  74063375.493 1                        43.000  
R19  20118925.215 2 107622761.123 3                        35.000    20118927.338 1  83706541.253 2                        39.000  
E10  23289855.303 1 122389005.682 1                        43.000    23289859.890 1  93778613.868 1                        45.000  
E11  24676680.192 1 129676839.618 2                        40.000    24676684.857 1  99362785.636 3                        37.000  
E12  22036530.455 1 115802750.373 1                        43.000    22036531.006 1  88731977.414 1                        42.000  
E19  25684989.868 1 134975521.015 3                        35.000    25684996.742 1 103422837.674 3                        36.000  
E24  23425238.838 1 123100461.410 2                        43.000    23425243.191 1  94323744.641 1                        44.000  
E25  24942588.142 1 131074189.391 1                        44.000    24942594.491 1 100433487.047 2                        40.000  
E31  25218749.763 1 132525418.718 1                        43.000                                                                  
E33  22927665.287 1 120485697.616 1                        43.000    22927669.118 1  92320220.066 1                        43.000  
C20  24095691.835 1 125472599.503 2                        43.000                                                                  
C27  21685965.798 1 112924517.242 2                        42.000                                                                  
C29  22618863.614 1 117782360.643 1                        46.000                                                                  
C30  19870889.131 1 103472934.971 1                        49.000                                                                  
C32  21157481.039 1 110172557.708 1                        43.000                                                                  
C36  24638667.225 1 128300004.271 1                        43.000                                                                  
