     3.04           OBSERVATION DATA    M: MIXED            RINEX VERSION / TYPE
PosApp V8.01.00     Spirent             20230108 100018 UTC PGM / RUN BY / DATE 
                                                            MARKER NAME         
GEODETIC                                                    MARKER TYPE         
gpssim              Spirent                                 OBSERVER / AGENCY   
rec_num             rec_type            rec_vers            REC # / TYPE / VERS 
1                   ant_type                                ANT # / TYPE        
     1.000                                                  INTERVAL            
  2023     1     8    10     0    0.0000000     GPS         TIME OF FIRST OBS   
  4157177.0658   671230.4766  4774767.0311                  APPROX POSITION XYZ 
        0.0000        0.0000        0.0000                  ANTENNA: DELTA H/E/N
G   12 C1C L1C D1C S1C C2X L2X D2X S2X C5I L5I D5I S5I      SYS / # / OBS TYPES 
E   32 C1B L1B D1B S1B C1C L1C D1C S1C C5I L5I D5I S5I C5Q  SYS / # / OBS TYPES 
       L5Q D5Q S5Q C7I L7I D7I S7I C7Q L7Q D7Q S7Q C8I L8I  SYS / # / OBS TYPES 
       D8I S8I C8Q L8Q D8Q S8Q                              SYS / # / OBS TYPES 
GNSS SIMULATOR OUTPUTS ALIGNED CARRIER PHASES.              COMMENT             
NO FURTHER PHASE SHIFTS APPLIED IN THE RINEX ENCODER.       COMMENT             
G L1C                                                       SYS / PHASE SHIFT   
G L2X  0.00000                                              SYS / PHASE SHIFT   
G L5I                                                       SYS / PHASE SHIFT   
E L1B                                                       SYS / PHASE SHIFT   
E L1C  0.00000                                              SYS / PHASE SHIFT   
E L5I                                                       SYS / PHASE SHIFT   
E L5Q  0.00000                                              SYS / PHASE SHIFT   
E L7I                                                       SYS / PHASE SHIFT   
E L7Q  0.00000                                              SYS / PHASE SHIFT   
E L8I                                                       SYS / PHASE SHIFT   
E L8Q  0.00000                                              SYS / PHASE SHIFT   
DBHZ                                                        SIGNAL STRENGTH UNIT
                                                            END OF HEADER       
> 2023 01 08 10 00  0.0000000  0 20       0.000000000000
G08  25065200.483 9 131718517.567 9     -1476.856 9        54.233 9  25065201.477 8 102637809.964 8     -1150.797 8        49.733 8  25065200.483 9  98361230.651 9     -1102.847 9        56.333 9
G13  20028868.474 9 105252414.228 9       584.920 9        56.112 9  20028866.217 8  82014858.984 8       455.782 8        51.612 8  20028868.474 9  78597582.054 9       436.791 9        58.212 9
G17  24978812.003 9 131264543.040 9      2932.541 9        54.181 9  24978809.836 8 102284050.636 8      2285.097 8        49.681 8  24978812.003 9  98022223.699 9      2189.885 9        56.281 9
G24  24539456.709 9 128955715.387 9      3533.695 9        54.409 9  24539457.251 8 100484975.248 8      2753.528 8        49.909 8  24539456.709 9  96298099.153 9      2638.798 9        56.509 9
G07  24589947.998 9 129221048.898 9     -2971.645 9        54.361 9  24589945.830 8 100691717.539 8     -2315.567 8        49.861 8  24589947.998 9  96496237.814 9     -2219.085 9        56.461 9
G18  24762958.501 9 130130225.229 9     -1359.064 9        54.338 9  24762956.875 8 101400168.847 8     -1059.011 8        49.838 8  24762958.501 9  97175168.191 9     -1014.885 9        56.438 9
G20  23505235.643 9 123520847.004 9     -3646.923 9        54.730 9  23505234.018 8  96250003.995 8     -2841.758 8        50.230 8  23505235.643 9  92239593.542 9     -2723.351 9        56.830 9
G14  20964004.863 9 110166589.120 9       137.363 9        55.781 9  20964003.328 8  85844089.131 8       107.036 8        51.281 8  20964004.863 9  82267258.109 9       102.577 9        57.881 9
G23  24878134.627 9 130735479.856 9      3233.755 9        54.287 9  24878133.001 8 101871795.828 8      2519.809 8        49.787 8  24878134.627 9  97627144.048 9      2414.817 9        56.387 9
G05  21735741.200 9 114222090.943 9     -2422.114 9        55.474 9  21735739.033 8  89004217.833 8     -1887.362 8        50.974 8  21735741.200 9  85295717.263 9     -1808.722 9        57.574 9
G30  21850647.718 9 114825928.768 9     -2258.480 9        55.478 9  21850648.440 8  89474752.648 8     -1759.854 8        50.978 8  21850647.718 9  85746635.119 9     -1686.527 9        57.578 9
G15  21124828.387 9 111011722.440 9      2301.404 9        55.708 9  21124826.310 8  86502632.356 8      1793.302 8        51.208 8  21124828.387 9  82898364.160 9      1718.581 9        57.808 9
E05  23314815.745 9 122520183.682 9       364.405 9        57.976 9  23314815.745 9 122520183.682 9       364.405 9        57.976 9  23314816.686 9  91492348.651 9       272.121 9        57.836 9  23314816.686 9  91492348.651 9       272.121 9        57.836 9  23314816.686 9  93879105.573 9       279.220 9        57.836 9  23314816.686 9  93879105.573 9       279.220 9        57.836 9  23314816.686 9  92685727.112 9       275.670 9        60.846 9  23314816.686 9  92685727.112 9       275.670 9        60.846 9
E09  25209492.169 9 132476775.492 9     -2091.576 9        57.368 9  25209492.169 9 132476775.492 9     -2091.576 9        57.368 9  25209492.667 9  98927464.174 9     -1561.891 9        57.228 9  25209492.667 9  98927464.174 9     -1561.891 9        57.228 9  25209492.667 9 101508180.631 9     -1602.636 9        57.228 9  25209492.667 9 101508180.631 9     -1602.636 9        57.228 9  25209492.667 9 100217822.402 9     -1582.264 9        60.238 9  25209492.667 9 100217822.402 9     -1582.264 9        60.238 9
E13  28148490.139 9 147921314.069 9       333.612 9        56.288 9  28148490.139 9 147921314.069 9       333.612 9        56.288 9  28148490.306 9 110460722.197 9       249.126 9        56.148 9  28148490.306 9 110460722.197 9       249.126 9        56.148 9  28148490.306 9 113342306.254 9       255.625 9        56.148 9  28148490.306 9 113342306.254 9       255.625 9        56.148 9  28148490.306 9 111901514.226 9       252.375 9        59.158 9  28148490.306 9 111901514.226 9       252.375 9        59.158 9
E25  27086476.250 9 142340393.412 9      3132.171 9        56.719 9  27086476.250 9 142340393.412 9      3132.171 9        56.719 9  27086477.302 9 106293155.053 9      2338.959 9        56.579 9  27086477.302 9 106293155.053 9      2338.959 9        56.579 9  27086477.302 9 109066019.967 9      2399.975 9        56.579 9  27086477.302 9 109066019.967 9      2399.975 9        56.579 9  27086477.302 9 107679587.510 9      2369.467 9        59.589 9  27086477.302 9 107679587.510 9      2369.467 9        59.589 9
E31  24963243.555 9 131182730.294 9     -1533.746 9        57.424 9  24963243.555 9 131182730.294 9     -1533.746 9        57.424 9  24963244.552 9  97961133.676 9     -1145.330 9        57.284 9  24963244.552 9  97961133.676 9     -1145.330 9        57.284 9  24963244.552 9 100516641.511 9     -1175.208 9        57.284 9  24963244.552 9 100516641.511 9     -1175.208 9        57.284 9  24963244.552 9  99238887.594 9     -1160.269 9        60.295 9  24963244.552 9  99238887.594 9     -1160.269 9        60.295 9
E15  27820981.463 9 146200244.360 9     -1854.151 9        56.364 9  27820981.463 9 146200244.360 9     -1854.151 9        56.364 9  27820983.069 9 109175513.453 9     -1384.593 9        56.224 9  27820983.069 9 109175513.453 9     -1384.593 9        56.224 9  27820983.069 9 112023570.326 9     -1420.713 9        56.224 9  27820983.069 9 112023570.326 9     -1420.713 9        56.224 9  27820983.069 9 110599541.889 9     -1402.653 9        59.235 9  27820983.069 9 110599541.889 9     -1402.653 9        59.235 9
E03  26332218.267 9 138376740.958 9      2464.622 9        56.970 9  26332218.267 9 138376740.958 9      2464.622 9        56.970 9  26332219.153 9 103333284.062 9      1840.465 9        56.830 9  26332219.153 9 103333284.062 9      1840.465 9        56.830 9  26332219.153 9 106028934.951 9      1888.477 9        56.830 9  26332219.153 9 106028934.951 9      1888.477 9        56.830 9  26332219.153 9 104681109.507 9      1864.471 9        59.841 9  26332219.153 9 104681109.507 9      1864.471 9        59.841 9
E24  24088572.694 9 126586303.895 9      1250.649 9        57.794 9  24088572.694 9 126586303.895 9      1250.649 9        57.794 9  24088571.919 9  94528730.386 9       933.926 9        57.654 9  24088571.919 9  94528730.386 9       933.926 9        57.654 9  24088571.919 9  96994697.266 9       958.289 9        57.654 9  24088571.919 9  96994697.266 9       958.289 9        57.654 9  24088571.919 9  95761713.826 9       946.108 9        60.665 9  24088571.919 9  95761713.826 9       946.108 9        60.665 9
> 2023 01 08 10 00  1.0000000  0 20       0.000000000000
G08  25065481.575 9 131719994.711 9     -1477.434 9        54.233 9  25065482.568 8 102638960.986 8     -1151.248 8        49.733 8  25065481.575 9  98362333.713 9     -1103.279 9        56.333 9
G13  20028757.213 9 105251829.545 9       584.447 9        56.112 9  20028754.955 8  82014403.387 8       455.413 8        51.612 8  20028757.213 9  78597145.439 9       436.438 9        58.212 9
G17  24978253.964 9 131261610.523 9      2932.498 9        54.181 9  24978251.796 8 102281765.557 8      2285.063 8        49.681 8  24978253.964 9  98020033.832 9      2189.852 9        56.281 9
G24  24538784.279 9 128952181.741 9      3533.591 9        54.409 9  24538784.821 8 100482221.757 8      2753.447 8        49.909 8  24538784.279 9  96295460.391 9      2638.720 9        56.509 9
G07  24590513.487 9 129224020.566 9     -2971.695 9        54.361 9  24590511.320 8 100694033.123 8     -2315.607 8        49.861 8  24590513.487 9  96498456.916 9     -2219.123 9        56.461 9
G18  24763217.173 9 130131584.559 9     -1359.592 9        54.337 9  24763215.547 8 101401228.064 8     -1059.423 8        49.837 8  24763217.173 9  97176183.274 9     -1015.280 9        56.437 9
G20  23505929.644 9 123524494.002 9     -3647.072 9        54.730 9  23505928.018 8  96252845.812 8     -2841.874 8        50.230 8  23505929.644 9  92242316.949 9     -2723.463 9        56.830 9
G14  20963978.787 9 110166452.086 9       136.704 9        55.781 9  20963977.251 8  85843982.351 8       106.523 8        51.281 8  20963978.787 9  82267155.778 9       102.084 9        57.881 9
G23  24877519.292 9 130732246.252 9      3233.449 9        54.288 9  24877517.667 8 101869276.137 8      2519.571 8        49.788 8  24877519.292 9  97624729.344 9      2414.589 9        56.388 9
G05  21736202.163 9 114224513.319 9     -2422.635 9        55.473 9  21736199.995 8  89006105.399 8     -1887.767 8        50.973 8  21736202.163 9  85297526.179 9     -1809.110 9        57.573 9
G30  21851077.517 9 114828187.381 9     -2258.749 9        55.478 9  21851078.240 8  89476512.606 8     -1760.064 8        50.978 8  21851077.517 9  85748321.745 9     -1686.728 9        57.578 9
G15  21124390.485 9 111009421.249 9      2300.975 9        55.708 9  21124388.407 8  86500839.221 8      1792.967 8        51.208 8  21124390.485 9  82896645.738 9      1718.260 9        57.808 9
E05  23314746.431 9 122519819.435 9       364.089 9        57.976 9  23314746.431 9 122519819.435 9       364.089 9        57.976 9  23314747.372 9  91492076.649 9       271.885 9        57.836 9  23314747.372 9  91492076.649 9       271.885 9        57.836 9  23314747.372 9  93878826.474 9       278.977 9        57.836 9  23314747.372 9  93878826.474 9       278.977 9        57.836 9  23314747.372 9  92685451.561 9       275.431 9        60.846 9  23314747.372 9  92685451.561 9       275.431 9        60.846 9
E09  25209890.205 9 132478867.185 9     -2091.812 9        57.367 9  25209890.205 9 132478867.185 9     -2091.812 9        57.367 9  25209890.703 9  98929026.152 9     -1562.067 9        57.228 9  25209890.703 9  98929026.152 9     -1562.067 9        57.228 9  25209890.703 9 101509783.356 9     -1602.817 9        57.228 9  25209890.703 9 101509783.356 9     -1602.817 9        57.228 9  25209890.703 9 100219404.754 9     -1582.442 9        60.238 9  25209890.703 9 100219404.754 9     -1582.442 9        60.238 9
E13  28148426.702 9 147920980.705 9       333.117 9        56.288 9  28148426.702 9 147920980.705 9       333.117 9        56.288 9  28148426.868 9 110460473.256 9       248.756 9        56.148 9  28148426.868 9 110460473.256 9       248.756 9        56.148 9  28148426.868 9 113342050.819 9       255.246 9        56.148 9  28148426.868 9 113342050.819 9       255.246 9        56.148 9  28148426.868 9 111901262.038 9       252.001 9        59.158 9  28148426.868 9 111901262.038 9       252.001 9        59.158 9
E25  27085880.229 9 142337261.299 9      3132.053 9        56.719 9  27085880.229 9 142337261.299 9      3132.053 9        56.719 9  27085881.281 9 106290816.137 9      2338.871 9        56.579 9  27085881.281 9 106290816.137 9      2338.871 9        56.579 9  27085881.281 9 109063620.037 9      2399.885 9        56.579 9  27085881.281 9 109063620.037 9      2399.885 9        56.579 9  27085881.281 9 107677218.087 9      2369.378 9        59.590 9  27085881.281 9 107677218.087 9      2369.378 9        59.590 9
E31  24963535.453 9 131184264.227 9     -1534.121 9        57.424 9  24963535.453 9 131184264.227 9     -1534.121 9        57.424 9  24963536.450 9  97962279.145 9     -1145.610 9        57.284 9  24963536.450 9  97962279.145 9     -1145.610 9        57.284 9  24963536.450 9 100517816.862 9     -1175.496 9        57.284 9  24963536.450 9 100517816.862 9     -1175.496 9        57.284 9  24963536.450 9  99240048.004 9     -1160.553 9        60.294 9  24963536.450 9  99240048.004 9     -1160.553 9        60.294 9
E15  27821334.330 9 146202098.687 9     -1854.500 9        56.364 9  27821334.330 9 146202098.687 9     -1854.500 9        56.364 9  27821335.936 9 109176898.178 9     -1384.854 9        56.224 9  27821335.936 9 109176898.178 9     -1384.854 9        56.224 9  27821335.936 9 112024991.174 9     -1420.981 9        56.224 9  27821335.936 9 112024991.174 9     -1420.981 9        56.224 9  27821335.936 9 110600944.676 9     -1402.917 9        59.235 9  27821335.936 9 110600944.676 9     -1402.917 9        59.235 9
E03  26331749.274 9 138374276.383 9      2464.524 9        56.970 9  26331749.274 9 138374276.383 9      2464.524 9        56.970 9  26331750.160 9 103331443.633 9      1840.392 9        56.830 9  26331750.160 9 103331443.633 9      1840.392 9        56.830 9  26331750.160 9 106027046.510 9      1888.402 9        56.830 9  26331750.160 9 106027046.510 9      1888.402 9        56.830 9  26331750.160 9 104679245.071 9      1864.397 9        59.841 9  26331750.160 9 104679245.071 9      1864.397 9        59.841 9
E24  24088334.745 9 126585053.463 9      1250.216 9        57.794 9  24088334.745 9 126585053.463 9      1250.216 9        57.794 9  24088333.970 9  94527796.622 9       933.603 9        57.654 9  24088333.970 9  94527796.622 9       933.603 9        57.654 9  24088333.970 9  96993739.143 9       957.957 9        57.654 9  24088333.970 9  96993739.143 9       957.957 9        57.654 9  24088333.970 9  95760767.882 9       945.780 9        60.665 9  24088333.970 9  95760767.882 9       945.780 9        60.665 9
> 2023 01 08 10 00  2.0000000  0 20       0.000000000000
G08  25065762.776 9 131721472.435 9     -1478.013 9        54.233 9  25065763.769 8 102640112.459 8     -1151.698 8        49.733 8  25065762.776 9  98363437.208 9     -1103.711 9        56.333 9
G13  20028646.041 9 105251245.334 9       583.974 9        56.112 9  20028643.783 8  82013948.158 8       455.044 8        51.612 8  20028646.041 9  78596709.178 9       436.084 9        58.212 9
G17  24977695.933 9 131258678.049 9      2932.455 9        54.181 9  24977693.765 8 102279480.513 8      2285.030 8        49.681 8  24977695.933 9  98017843.997 9      2189.820 9        56.281 9
G24  24538111.868 9 128948648.199 9      3533.487 9        54.409 9  24538112.410 8 100479468.348 8      2753.367 8        49.909 8  24538111.868 9  96292821.707 9      2638.643 9        56.509 9
G07  24591078.986 9 129226992.283 9     -2971.745 9        54.360 9  24591076.819 8 100696348.747 8     -2315.646 8        49.860 8  24591078.986 9  96500676.055 9     -2219.160 9        56.460 9
G18  24763475.945 9 130132944.417 9     -1360.121 9        54.337 9  24763474.319 8 101402287.694 8     -1059.835 8        49.837 8  24763475.945 9  97177198.753 9     -1015.675 9        56.437 9
G20  23506623.673 9 123528141.149 9     -3647.221 9        54.730 9  23506622.048 8  96255687.745 8     -2841.991 8        50.230 8  23506623.673 9  92245040.469 9     -2723.574 9        56.830 9
G14  20963952.835 9 110166315.711 9       136.045 9        55.781 9  20963951.300 8  85843876.085 8       106.009 8        51.281 8  20963952.835 9  82267053.940 9       101.592 9        57.881 9
G23  24876904.016 9 130729012.954 9      3233.143 9        54.288 9  24876902.391 8 101866756.684 8      2519.332 8        49.788 8  24876904.016 9  97622314.868 9      2414.360 9        56.388 9
G05  21736663.225 9 114226936.214 9     -2423.155 9        55.473 9  21736661.057 8  89007993.369 8     -1888.172 8        50.973 8  21736663.225 9  85299335.485 9     -1809.499 9        57.573 9
G30  21851507.369 9 114830446.263 9     -2259.019 9        55.478 9  21851508.091 8  89478272.774 8     -1760.274 8        50.978 8  21851507.369 9  85750008.573 9     -1686.930 9        57.578 9
G15  21123952.664 9 111007120.488 9      2300.545 9        55.708 9  21123950.587 8  86499046.419 8      1792.633 8        51.208 8  21123952.664 9  82894927.637 9      1717.940 9        57.808 9
E05  23314677.177 9 122519455.504 9       363.773 9        57.976 9  23314677.177 9 122519455.504 9       363.773 9        57.976 9  23314678.118 9  91491804.882 9       271.648 9        57.836 9  23314678.118 9  91491804.882 9       271.648 9        57.836 9  23314678.118 9  93878547.618 9       278.735 9        57.836 9  23314678.118 9  93878547.618 9       278.735 9        57.836 9  23314678.118 9  92685176.250 9       275.192 9        60.846 9  23314678.118 9  92685176.250 9       275.192 9        60.846 9
E09  25210288.285 9 132480959.113 9     -2092.047 9        57.367 9  25210288.285 9 132480959.113 9     -2092.047 9        57.367 9  25210288.784 9  98930588.306 9     -1562.243 9        57.227 9  25210288.784 9  98930588.306 9     -1562.243 9        57.227 9  25210288.784 9 101511386.262 9     -1602.997 9        57.227 9  25210288.784 9 101511386.262 9     -1602.997 9        57.227 9  25210288.784 9 100220987.284 9     -1582.620 9        60.238 9  25210288.784 9 100220987.284 9     -1582.620 9        60.238 9
E13  28148363.359 9 147920647.835 9       332.623 9        56.288 9  28148363.359 9 147920647.835 9       332.623 9        56.288 9  28148363.525 9 110460224.684 9       248.387 9        56.148 9  28148363.525 9 110460224.684 9       248.387 9        56.148 9  28148363.525 9 113341795.763 9       254.867 9        56.148 9  28148363.525 9 113341795.763 9       254.867 9        56.148 9  28148363.525 9 111901010.223 9       251.627 9        59.158 9  28148363.525 9 111901010.223 9       251.627 9        59.158 9
E25  27085284.230 9 142334129.303 9      3131.936 9        56.719 9  27085284.230 9 142334129.303 9      3131.936 9        56.719 9  27085285.282 9 106288477.309 9      2338.783 9        56.580 9  27085285.282 9 106288477.309 9      2338.783 9        56.580 9  27085285.282 9 109061220.196 9      2399.795 9        56.580 9  27085285.282 9 109061220.196 9      2399.795 9        56.580 9  27085285.282 9 107674848.753 9      2369.289 9        59.590 9  27085285.282 9 107674848.753 9      2369.289 9        59.590 9
E31  24963827.422 9 131185798.535 9     -1534.497 9        57.424 9  24963827.422 9 131185798.535 9     -1534.497 9        57.424 9  24963828.419 9  97963424.895 9     -1145.890 9        57.284 9  24963828.419 9  97963424.895 9     -1145.890 9        57.284 9  24963828.419 9 100518992.501 9     -1175.783 9        57.284 9  24963828.419 9 100518992.501 9     -1175.783 9        57.284 9  24963828.419 9  99241208.698 9     -1160.837 9        60.294 9  24963828.419 9  99241208.698 9     -1160.837 9        60.294 9
E15  27821687.263 9 146203953.363 9     -1854.849 9        56.364 9  27821687.263 9 146203953.363 9     -1854.849 9        56.364 9  27821688.869 9 109178283.163 9     -1385.114 9        56.224 9  27821688.869 9 109178283.163 9     -1385.114 9        56.224 9  27821688.869 9 112026412.289 9     -1421.248 9        56.224 9  27821688.869 9 112026412.289 9     -1421.248 9        56.224 9  27821688.869 9 110602347.726 9     -1403.181 9        59.234 9  27821688.869 9 110602347.726 9     -1403.181 9        59.234 9
E03  26331280.299 9 138371811.906 9      2464.427 9        56.970 9  26331280.299 9 138371811.906 9      2464.427 9        56.970 9  26331281.185 9 103329603.276 9      1840.319 9        56.831 9  26331281.185 9 103329603.276 9      1840.319 9        56.831 9  26331281.185 9 106025158.144 9      1888.327 9        56.831 9  26331281.185 9 106025158.144 9      1888.327 9        56.831 9  26331281.185 9 104677380.710 9      1864.323 9        59.841 9  26331281.185 9 104677380.710 9      1864.323 9        59.841 9
E24  24088096.878 9 126583803.465 9      1249.782 9        57.794 9  24088096.878 9 126583803.465 9      1249.782 9        57.794 9  24088096.103 9  94526863.181 9       933.279 9        57.655 9  24088096.103 9  94526863.181 9       933.279 9        57.655 9  24088096.103 9  96992781.351 9       957.625 9        57.655 9  24088096.103 9  96992781.351 9       957.625 9        57.655 9  24088096.103 9  95759822.266 9       945.452 9        60.665 9  24088096.103 9  95759822.266 9       945.452 9        60.665 9
> 2023 01 08 10 00  3.0000000  0 20       0.000000000000
G08  25066044.087 9 131722950.736 9     -1478.591 9        54.233 9  25066045.081 8 102641264.382 8     -1152.149 8        49.733 8  25066044.087 9  98364541.134 9     -1104.143 9        56.333 9
G13  20028534.960 9 105250661.597 9       583.500 9        56.112 9  20028532.702 8  82013493.298 8       454.676 8        51.612 8  20028534.960 9  78596273.271 9       435.731 9        58.212 9
G17  24977137.910 9 131255745.618 9      2932.411 9        54.181 9  24977135.742 8 102277195.502 8      2284.996 8        49.681 8  24977137.910 9  98015654.195 9      2189.788 9        56.281 9
G24  24537439.477 9 128945114.760 9      3533.383 9        54.409 9  24537440.019 8 100476715.019 8      2753.286 8        49.909 8  24537439.477 9  96290183.100 9      2638.565 9        56.509 9
G07  24591644.495 9 129229964.051 9     -2971.796 9        54.360 9  24591642.327 8 100698664.410 8     -2315.685 8        49.860 8  24591644.495 9  96502895.233 9     -2219.198 9        56.460 9
G18  24763734.818 9 130134304.803 9     -1360.649 9        54.337 9  24763733.192 8 101403347.735 8     -1060.246 8        49.837 8  24763734.818 9  97178214.626 9     -1016.069 9        56.437 9
G20  23507317.731 9 123531788.446 9     -3647.371 9        54.729 9  23507316.105 8  96258529.795 8     -2842.107 8        50.229 8  23507317.731 9  92247764.099 9     -2723.686 9        56.829 9
G14  20963927.009 9 110166179.995 9       135.386 9        55.781 9  20963925.474 8  85843770.333 8       105.496 8        51.281 8  20963927.009 9  82266952.594 9       101.100 9        57.881 9
G23  24876288.799 9 130725779.963 9      3232.836 9        54.288 9  24876287.173 8 101864237.470 8      2519.093 8        49.788 8  24876288.799 9  97619900.621 9      2414.131 9        56.388 9
G05  21737124.385 9 114229359.630 9     -2423.675 9        55.473 9  21737122.218 8  89009881.745 8     -1888.578 8        50.973 8  21737124.385 9  85301145.178 9     -1809.887 9        57.573 9
G30  21851937.271 9 114832705.415 9     -2259.288 9        55.478 9  21851937.993 8  89480033.152 8     -1760.484 8        50.978 8  21851937.271 9  85751695.602 9     -1687.131 9        57.578 9
G15  21123514.926 9 111004820.156 9      2300.116 9        55.708 9  21123512.848 8  86497253.953 8      1792.298 8        51.208 8  21123514.926 9  82893209.856 9      1717.619 9        57.808 9
E05  23314607.984 9 122519091.890 9       363.456 9        57.976 9  23314607.984 9 122519091.890 9       363.456 9        57.976 9  23314608.925 9  91491533.352 9       271.412 9        57.836 9  23314608.925 9  91491533.352 9       271.412 9        57.836 9  23314608.925 9  93878269.004 9       278.492 9        57.836 9  23314608.925 9  93878269.004 9       278.492 9        57.836 9  23314608.925 9  92684901.178 9       274.952 9        60.846 9  23314608.925 9  92684901.178 9       274.952 9        60.846 9
E09  25210686.411 9 132483051.276 9     -2092.282 9        57.367 9  25210686.411 9 132483051.276 9     -2092.282 9        57.367 9  25210686.909 9  98932150.636 9     -1562.418 9        57.227 9  25210686.909 9  98932150.636 9     -1562.418 9        57.227 9  25210686.909 9 101512989.348 9     -1603.177 9        57.227 9  25210686.909 9 101512989.348 9     -1603.177 9        57.227 9  25210686.909 9 100222569.992 9     -1582.798 9        60.238 9  25210686.909 9 100222569.992 9     -1582.798 9        60.238 9
E13  28148300.110 9 147920315.459 9       332.128 9        56.288 9  28148300.110 9 147920315.459 9       332.128 9        56.288 9  28148300.276 9 110459976.481 9       248.018 9        56.148 9  28148300.276 9 110459976.481 9       248.018 9        56.148 9  28148300.276 9 113341541.085 9       254.488 9        56.148 9  28148300.276 9 113341541.085 9       254.488 9        56.148 9  28148300.276 9 111900758.783 9       251.253 9        59.158 9  28148300.276 9 111900758.783 9       251.253 9        59.158 9
E25  27084688.253 9 142330997.425 9      3131.818 9        56.720 9  27084688.253 9 142330997.425 9      3131.818 9        56.720 9  27084689.305 9 106286138.570 9      2338.695 9        56.580 9  27084689.305 9 106286138.570 9      2338.695 9        56.580 9  27084689.305 9 109058820.445 9      2399.705 9        56.580 9  27084689.305 9 109058820.445 9      2399.705 9        56.580 9  27084689.305 9 107672479.507 9      2369.200 9        59.590 9  27084689.305 9 107672479.507 9      2369.200 9        59.590 9
E31  24964119.463 9 131187333.218 9     -1534.872 9        57.424 9  24964119.463 9 131187333.218 9     -1534.872 9        57.424 9  24964120.459 9  97964570.925 9     -1146.171 9        57.284 9  24964120.459 9  97964570.925 9     -1146.171 9        57.284 9  24964120.459 9 100520168.427 9     -1176.071 9        57.284 9  24964120.459 9 100520168.427 9     -1176.071 9        57.284 9  24964120.459 9  99242369.676 9     -1161.121 9        60.294 9  24964120.459 9  99242369.676 9     -1161.121 9        60.294 9
E15  27822040.263 9 146205808.388 9     -1855.198 9        56.364 9  27822040.263 9 146205808.388 9     -1855.198 9        56.364 9  27822041.868 9 109179668.409 9     -1385.375 9        56.224 9  27822041.868 9 109179668.409 9     -1385.375 9        56.224 9  27822041.868 9 112027833.672 9     -1421.515 9        56.224 9  27822041.868 9 112027833.672 9     -1421.515 9        56.224 9  27822041.868 9 110603751.041 9     -1403.445 9        59.234 9  27822041.868 9 110603751.041 9     -1403.445 9        59.234 9
E03  26330811.343 9 138369347.526 9      2464.329 9        56.971 9  26330811.343 9 138369347.526 9      2464.329 9        56.971 9  26330812.229 9 103327762.993 9      1840.245 9        56.831 9  26330812.229 9 103327762.993 9      1840.245 9        56.831 9  26330812.229 9 106023269.853 9      1888.252 9        56.831 9  26330812.229 9 106023269.853 9      1888.252 9        56.831 9  26330812.229 9 104675516.423 9      1864.249 9        59.841 9  26330812.229 9 104675516.423 9      1864.249 9        59.841 9
E24  24087859.094 9 126582553.899 9      1249.349 9        57.794 9  24087859.094 9 126582553.899 9      1249.349 9        57.794 9  24087858.318 9  94525930.064 9       932.956 9        57.655 9  24087858.318 9  94525930.064 9       932.956 9        57.655 9  24087858.318 9  96991823.892 9       957.293 9        57.655 9  24087858.318 9  96991823.892 9       957.293 9        57.655 9  24087858.318 9  95758876.978 9       945.124 9        60.665 9  24087858.318 9  95758876.978 9       945.124 9        60.665 9
> 2023 01 08 10 00  4.0000000  0 20       0.000000000000
G08  25066325.509 9 131724429.616 9     -1479.170 9        54.233 9  25066326.502 8 102642416.756 8     -1152.600 8        49.733 8  25066325.509 9  98365645.493 9     -1104.575 9        56.333 9
G13  20028423.968 9 105250078.333 9       583.027 9        56.112 9  20028421.711 8  82013038.806 8       454.307 8        51.612 8  20028423.968 9  78595837.716 9       435.377 9        58.212 9
G17  24976579.895 9 131252813.231 9      2932.368 9        54.182 9  24976577.727 8 102274910.525 8      2284.962 8        49.682 8  24976579.895 9  98013464.426 9      2189.755 9        56.282 9
G24  24536767.106 9 128941581.425 9      3533.279 9        54.410 9  24536767.648 8 100473961.771 8      2753.205 8        49.910 8  24536767.106 9  96287544.571 9      2638.488 9        56.510 9
G07  24592210.013 9 129232935.868 9     -2971.846 9        54.360 9  24592207.845 8 100700980.113 8     -2315.724 8        49.860 8  24592210.013 9  96505114.447 9     -2219.235 9        56.460 9
G18  24763993.791 9 130135665.718 9     -1361.178 9        54.337 9  24763992.166 8 101404408.188 8     -1060.658 8        49.837 8  24763993.791 9  97179230.893 9     -1016.464 9        56.437 9
G20  23508011.817 9 123535435.892 9     -3647.520 9        54.729 9  23508010.191 8  96261371.960 8     -2842.223 8        50.229 8  23508011.817 9  92250487.842 9     -2723.797 9        56.829 9
G14  20963901.309 9 110166044.939 9       134.727 9        55.781 9  20963899.774 8  85843665.094 8       104.982 8        51.281 8  20963901.309 9  82266851.740 9       100.608 9        57.881 9
G23  24875673.639 9 130722547.278 9      3232.530 9        54.288 9  24875672.013 8 101861718.495 8      2518.854 8        49.788 8  24875673.639 9  97617486.603 9      2413.902 9        56.388 9
G05  21737585.645 9 114231783.566 9     -2424.194 9        55.473 9  21737583.477 8  89011770.526 8     -1888.983 8        50.973 8  21737585.645 9  85302955.260 9     -1810.275 9        57.573 9
G30  21852367.224 9 114834964.836 9     -2259.557 9        55.478 9  21852367.947 8  89481793.740 8     -1760.694 8        50.978 8  21852367.224 9  85753382.832 9     -1687.332 9        57.578 9
G15  21123077.269 9 111002520.253 9      2299.686 9        55.708 9  21123075.192 8  86495461.821 8      1791.963 8        51.208 8  21123077.269 9  82891492.397 9      1717.298 9        57.808 9
E05  23314538.850 9 122518728.592 9       363.140 9        57.976 9  23314538.850 9 122518728.592 9       363.140 9        57.976 9  23314539.792 9  91491262.058 9       271.176 9        57.836 9  23314539.792 9  91491262.058 9       271.176 9        57.836 9  23314539.792 9  93877990.633 9       278.250 9        57.836 9  23314539.792 9  93877990.633 9       278.250 9        57.836 9  23314539.792 9  92684626.346 9       274.713 9        60.846 9  23314539.792 9  92684626.346 9       274.713 9        60.846 9
E09  25211084.581 9 132485143.674 9     -2092.517 9        57.367 9  25211084.581 9 132485143.674 9     -2092.517 9        57.367 9  25211085.079 9  98933713.141 9     -1562.594 9        57.227 9  25211085.079 9  98933713.141 9     -1562.594 9        57.227 9  25211085.079 9 101514592.614 9     -1603.357 9        57.227 9  25211085.079 9 101514592.614 9     -1603.357 9        57.227 9  25211085.079 9 100224152.878 9     -1582.976 9        60.237 9  25211085.079 9 100224152.878 9     -1582.976 9        60.237 9
E13  28148236.955 9 147919983.577 9       331.634 9        56.288 9  28148236.955 9 147919983.577 9       331.634 9        56.288 9  28148237.121 9 110459728.648 9       247.649 9        56.148 9  28148237.121 9 110459728.648 9       247.649 9        56.148 9  28148237.121 9 113341286.787 9       254.109 9        56.148 9  28148237.121 9 113341286.787 9       254.109 9        56.148 9  28148237.121 9 111900507.717 9       250.879 9        59.158 9  28148237.121 9 111900507.717 9       250.879 9        59.158 9
E25  27084092.299 9 142327865.665 9      3131.700 9        56.720 9  27084092.299 9 142327865.665 9      3131.700 9        56.720 9  27084093.351 9 106283799.918 9      2338.607 9        56.580 9  27084093.351 9 106283799.918 9      2338.607 9        56.580 9  27084093.351 9 109056420.785 9      2399.614 9        56.580 9  27084093.351 9 109056420.785 9      2399.614 9        56.580 9  27084093.351 9 107670110.351 9      2369.111 9        59.590 9  27084093.351 9 107670110.351 9      2369.111 9        59.590 9
E31  24964411.575 9 131188868.277 9     -1535.247 9        57.424 9  24964411.575 9 131188868.277 9     -1535.247 9        57.424 9  24964412.571 9  97965717.235 9     -1146.451 9        57.284 9  24964412.571 9  97965717.235 9     -1146.451 9        57.284 9  24964412.571 9 100521344.641 9     -1176.358 9        57.284 9  24964412.571 9 100521344.641 9     -1176.358 9        57.284 9  24964412.571 9  99243530.938 9     -1161.405 9        60.294 9  24964412.571 9  99243530.938 9     -1161.405 9        60.294 9
E15  27822393.329 9 146207663.762 9     -1855.546 9        56.364 9  27822393.329 9 146207663.762 9     -1855.546 9        56.364 9  27822394.934 9 109181053.916 9     -1385.635 9        56.224 9  27822394.934 9 109181053.916 9     -1385.635 9        56.224 9  27822394.934 9 112029255.322 9     -1421.782 9        56.224 9  27822394.934 9 112029255.322 9     -1421.782 9        56.224 9  27822394.934 9 110605154.619 9     -1403.709 9        59.234 9  27822394.934 9 110605154.619 9     -1403.709 9        59.234 9
E03  26330342.406 9 138366883.244 9      2464.231 9        56.971 9  26330342.406 9 138366883.244 9      2464.231 9        56.971 9  26330343.292 9 103325922.782 9      1840.172 9        56.831 9  26330343.292 9 103325922.782 9      1840.172 9        56.831 9  26330343.292 9 106021381.638 9      1888.177 9        56.831 9  26330343.292 9 106021381.638 9      1888.177 9        56.831 9  26330343.292 9 104673652.210 9      1864.175 9        59.841 9  26330343.292 9 104673652.210 9      1864.175 9        59.841 9
E24  24087621.392 9 126581304.767 9      1248.916 9        57.795 9  24087621.392 9 126581304.767 9      1248.916 9        57.795 9  24087620.617 9  94524997.271 9       932.632 9        57.655 9  24087620.617 9  94524997.271 9       932.632 9        57.655 9  24087620.617 9  96990866.765 9       956.961 9        57.655 9  24087620.617 9  96990866.765 9       956.961 9        57.655 9  24087620.617 9  95757932.018 9       944.797 9        60.665 9  24087620.617 9  95757932.018 9       944.797 9        60.665 9
> 2023 01 08 10 00  5.0000000  0 20       0.000000000000
G08  25066607.041 9 131725909.075 9     -1479.748 9        54.233 9  25066608.034 8 102643569.581 8     -1153.051 8        49.733 8  25066607.041 9  98366750.283 9     -1105.007 9        56.333 9
G13  20028313.067 9 105249495.543 9       582.553 9        56.112 9  20028310.809 8  82012584.684 8       453.938 8        51.612 8  20028313.067 9  78595402.516 9       435.024 9        58.212 9
G17  24976021.888 9 131249880.887 9      2932.324 9        54.182 9  24976019.721 8 102272625.582 8      2284.928 8        49.682 8  24976021.888 9  98011274.689 9      2189.723 9        56.282 9
G24  24536094.754 9 128938048.194 9      3533.176 9        54.410 9  24536095.296 8 100471208.604 8      2753.124 8        49.910 8  24536094.754 9  96284906.119 9      2638.410 9        56.510 9
G07  24592775.541 9 129235907.736 9     -2971.896 9        54.360 9  24592773.373 8 100703295.854 8     -2315.763 8        49.860 8  24592775.541 9  96507333.699 9     -2219.273 9        56.460 9
G18  24764252.865 9 130137027.161 9     -1361.706 9        54.337 9  24764251.240 8 101405469.053 8     -1061.070 8        49.837 8  24764252.865 9  97180247.555 9     -1016.858 9        56.437 9
G20  23508705.931 9 123539083.487 9     -3647.669 9        54.729 9  23508704.305 8  96264214.242 8     -2842.339 8        50.229 8  23508705.931 9  92253211.695 9     -2723.909 9        56.829 9
G14  20963875.734 9 110165910.541 9       134.068 9        55.781 9  20963874.199 8  85843560.368 8       104.469 8        51.281 8  20963875.734 9  82266751.378 9       100.116 9        57.881 9
G23  24875058.538 9 130719314.899 9      3232.223 9        54.288 9  24875056.912 8 101859199.758 8      2518.616 8        49.788 8  24875058.538 9  97615072.814 9      2413.673 9        56.388 9
G05  21738047.004 9 114234208.021 9     -2424.714 9        55.473 9  21738044.836 8  89013659.712 8     -1889.388 8        50.973 8  21738047.004 9  85304765.730 9     -1810.663 9        57.573 9
G30  21852797.229 9 114837224.527 9     -2259.827 9        55.478 9  21852797.952 8  89483554.538 8     -1760.904 8        50.978 8  21852797.229 9  85755070.264 9     -1687.533 9        57.578 9
G15  21122639.694 9 111000220.780 9      2299.257 9        55.709 9  21122637.616 8  86493670.024 8      1791.629 8        51.209 8  21122639.694 9  82889775.258 9      1716.978 9        57.809 9
E05  23314469.777 9 122518365.610 9       362.823 9        57.976 9  23314469.777 9 122518365.610 9       362.823 9        57.976 9  23314470.719 9  91490991.000 9       270.939 9        57.836 9  23314470.719 9  91490991.000 9       270.939 9        57.836 9  23314470.719 9  93877712.505 9       278.007 9        57.836 9  23314470.719 9  93877712.505 9       278.007 9        57.836 9  23314470.719 9  92684351.753 9       274.473 9        60.846 9  23314470.719 9  92684351.753 9       274.473 9        60.846 9
E09  25211482.796 9 132487236.308 9     -2092.753 9        57.367 9  25211482.796 9 132487236.308 9     -2092.753 9        57.367 9  25211483.294 9  98935275.822 9     -1562.770 9        57.227 9  25211483.294 9  98935275.822 9     -1562.770 9        57.227 9  25211483.294 9 101516196.061 9     -1603.538 9        57.227 9  25211483.294 9 101516196.061 9     -1603.538 9        57.227 9  25211483.294 9 100225735.941 9     -1583.154 9        60.237 9  25211483.294 9 100225735.941 9     -1583.154 9        60.237 9
E13  28148173.894 9 147919652.190 9       331.140 9        56.288 9  28148173.894 9 147919652.190 9       331.140 9        56.288 9  28148174.060 9 110459481.184 9       247.280 9        56.148 9  28148174.060 9 110459481.184 9       247.280 9        56.148 9  28148174.060 9 113341032.867 9       253.730 9        56.148 9  28148174.060 9 113341032.867 9       253.730 9        56.148 9  28148174.060 9 111900257.025 9       250.505 9        59.158 9  28148174.060 9 111900257.025 9       250.505 9        59.158 9
E25  27083496.367 9 142324734.023 9      3131.582 9        56.720 9  27083496.367 9 142324734.023 9      3131.582 9        56.720 9  27083497.419 9 106281461.354 9      2338.519 9        56.580 9  27083497.419 9 106281461.354 9      2338.519 9        56.580 9  27083497.419 9 109054021.215 9      2399.524 9        56.580 9  27083497.419 9 109054021.215 9      2399.524 9        56.580 9  27083497.419 9 107667741.284 9      2369.022 9        59.590 9  27083497.419 9 107667741.284 9      2369.022 9        59.590 9
E31  24964703.758 9 131190403.711 9     -1535.623 9        57.424 9  24964703.758 9 131190403.711 9     -1535.623 9        57.424 9  24964704.755 9  97966863.825 9     -1146.731 9        57.284 9  24964704.755 9  97966863.825 9     -1146.731 9        57.284 9  24964704.755 9 100522521.143 9     -1176.646 9        57.284 9  24964704.755 9 100522521.143 9     -1176.646 9        57.284 9  24964704.755 9  99244692.484 9     -1161.688 9        60.294 9  24964704.755 9  99244692.484 9     -1161.688 9        60.294 9
E15  27822746.461 9 146209519.484 9     -1855.895 9        56.364 9  27822746.461 9 146209519.484 9     -1855.895 9        56.364 9  27822748.066 9 109182439.682 9     -1385.896 9        56.224 9  27822748.066 9 109182439.682 9     -1385.896 9        56.224 9  27822748.066 9 112030677.239 9     -1422.049 9        56.224 9  27822748.066 9 112030677.239 9     -1422.049 9        56.224 9  27822748.066 9 110606558.461 9     -1403.973 9        59.234 9  27822748.066 9 110606558.461 9     -1403.973 9        59.234 9
E03  26329873.488 9 138364419.061 9      2464.133 9        56.971 9  26329873.488 9 138364419.061 9      2464.133 9        56.971 9  26329874.374 9 103324082.645 9      1840.099 9        56.831 9  26329874.374 9 103324082.645 9      1840.099 9        56.831 9  26329874.374 9 106019493.497 9      1888.102 9        56.831 9  26329874.374 9 106019493.497 9      1888.102 9        56.831 9  26329874.374 9 104671788.071 9      1864.100 9        59.841 9  26329874.374 9 104671788.071 9      1864.100 9        59.841 9
E24  24087383.772 9 126580056.068 9      1248.482 9        57.795 9  24087383.772 9 126580056.068 9      1248.482 9        57.795 9  24087382.997 9  94524064.801 9       932.308 9        57.655 9  24087382.997 9  94524064.801 9       932.308 9        57.655 9  24087382.997 9  96989909.970 9       956.629 9        57.655 9  24087382.997 9  96989909.970 9       956.629 9        57.655 9  24087382.997 9  95756987.385 9       944.469 9        60.665 9  24087382.997 9  95756987.385 9       944.469 9        60.665 9
> 2023 01 08 10 00  6.0000000  0 20       0.000000000000
G08  25066888.682 9 131727389.112 9     -1480.327 9        54.233 9  25066889.676 8 102644722.856 8     -1153.501 8        49.733 8  25066888.682 9  98367855.505 9     -1105.439 9        56.333 9
G13  20028202.256 9 105248913.226 9       582.080 9        56.112 9  20028199.998 8  82012130.931 8       453.569 8        51.612 8  20028202.256 9  78594967.669 9       434.670 9        58.212 9
G17  24975463.890 9 131246948.587 9      2932.280 9        54.182 9  24975461.723 8 102270340.673 8      2284.894 8        49.682 8  24975463.890 9  98009084.984 9      2189.690 9        56.282 9
G24  24535422.423 9 128934515.067 9      3533.072 9        54.410 9  24535422.965 8 100468455.518 8      2753.043 8        49.910 8  24535422.423 9  96282267.745 9      2638.333 9        56.510 9
G07  24593341.078 9 129238879.654 9     -2971.946 9        54.360 9  24593338.910 8 100705611.634 8     -2315.802 8        49.860 8  24593341.078 9  96509552.989 9     -2219.310 9        56.460 9
G18  24764512.040 9 130138389.132 9     -1362.234 9        54.337 9  24764510.414 8 101406530.329 8     -1061.481 8        49.837 8  24764512.040 9  97181264.612 9     -1017.253 9        56.437 9
G20  23509400.074 9 123542731.232 9     -3647.818 9        54.729 9  23509398.448 8  96267056.640 8     -2842.456 8        50.229 8  23509400.074 9  92255935.660 9     -2724.020 9        56.829 9
G14  20963850.284 9 110165776.802 9       133.409 9        55.781 9  20963848.749 8  85843456.156 8       103.955 8        51.281 8  20963850.284 9  82266651.508 9        99.624 9        57.881 9
G23  24874443.495 9 130716082.828 9      3231.916 9        54.289 9  24874441.869 8 101856681.261 8      2518.376 8        49.789 8  24874443.495 9  97612659.254 9      2413.444 9        56.389 9
G05  21738508.461 9 114236632.996 9     -2425.234 9        55.472 9  21738506.293 8  89015549.303 8     -1889.793 8        50.972 8  21738508.461 9  85306576.588 9     -1811.051 9        57.572 9
G30  21853227.285 9 114839484.487 9     -2260.096 9        55.477 9  21853228.008 8  89485315.546 8     -1761.114 8        50.977 8  21853227.285 9  85756757.896 9     -1687.734 9        57.577 9
G15  21122202.200 9 110997921.736 9      2298.827 9        55.709 9  21122200.123 8  86491878.561 8      1791.294 8        51.209 8  21122202.200 9  82888058.440 9      1716.657 9        57.809 9
E05  23314400.764 9 122518002.946 9       362.506 9        57.976 9  23314400.764 9 122518002.946 9       362.506 9        57.976 9  23314401.706 9  91490720.179 9       270.703 9        57.836 9  23314401.706 9  91490720.179 9       270.703 9        57.836 9  23314401.706 9  93877434.619 9       277.765 9        57.836 9  23314401.706 9  93877434.619 9       277.765 9        57.836 9  23314401.706 9  92684077.399 9       274.234 9        60.847 9  23314401.706 9  92684077.399 9       274.234 9        60.847 9
E09  25211881.056 9 132489329.177 9     -2092.988 9        57.367 9  25211881.056 9 132489329.177 9     -2092.988 9        57.367 9  25211881.554 9  98936838.679 9     -1562.946 9        57.227 9  25211881.554 9  98936838.679 9     -1562.946 9        57.227 9  25211881.554 9 101517799.688 9     -1603.718 9        57.227 9  25211881.554 9 101517799.688 9     -1603.718 9        57.227 9  25211881.554 9 100227319.183 9     -1583.332 9        60.237 9  25211881.554 9 100227319.183 9     -1583.332 9        60.237 9
E13  28148110.928 9 147919321.298 9       330.645 9        56.288 9  28148110.928 9 147919321.298 9       330.645 9        56.288 9  28148111.094 9 110459234.089 9       246.910 9        56.148 9  28148111.094 9 110459234.089 9       246.910 9        56.148 9  28148111.094 9 113340779.326 9       253.352 9        56.148 9  28148111.094 9 113340779.326 9       253.352 9        56.148 9  28148111.094 9 111900006.707 9       250.131 9        59.158 9  28148111.094 9 111900006.707 9       250.131 9        59.158 9
E25  27082900.458 9 142321602.499 9      3131.464 9        56.720 9  27082900.458 9 142321602.499 9      3131.464 9        56.720 9  27082901.510 9 106279122.878 9      2338.431 9        56.580 9  27082901.510 9 106279122.878 9      2338.431 9        56.580 9  27082901.510 9 109051621.735 9      2399.434 9        56.580 9  27082901.510 9 109051621.735 9      2399.434 9        56.580 9  27082901.510 9 107665372.307 9      2368.932 9        59.591 9  27082901.510 9 107665372.307 9      2368.932 9        59.591 9
E31  24964996.013 9 131191939.520 9     -1535.998 9        57.424 9  24964996.013 9 131191939.520 9     -1535.998 9        57.424 9  24964997.010 9  97968010.696 9     -1147.011 9        57.284 9  24964997.010 9  97968010.696 9     -1147.011 9        57.284 9  24964997.010 9 100523697.931 9     -1176.933 9        57.284 9  24964997.010 9 100523697.931 9     -1176.933 9        57.284 9  24964997.010 9  99245854.314 9     -1161.972 9        60.294 9  24964997.010 9  99245854.314 9     -1161.972 9        60.294 9
E15  27823099.659 9 146211375.555 9     -1856.244 9        56.364 9  27823099.659 9 146211375.555 9     -1856.244 9        56.364 9  27823101.265 9 109183825.710 9     -1386.156 9        56.224 9  27823101.265 9 109183825.710 9     -1386.156 9        56.224 9  27823101.265 9 112032099.424 9     -1422.317 9        56.224 9  27823101.265 9 112032099.424 9     -1422.317 9        56.224 9  27823101.265 9 110607962.567 9     -1404.236 9        59.234 9  27823101.265 9 110607962.567 9     -1404.236 9        59.234 9
E03  26329404.588 9 138361954.975 9      2464.035 9        56.971 9  26329404.588 9 138361954.975 9      2464.035 9        56.971 9  26329405.474 9 103322242.581 9      1840.026 9        56.831 9  26329405.474 9 103322242.581 9      1840.026 9        56.831 9  26329405.474 9 106017605.431 9      1888.027 9        56.831 9  26329405.474 9 106017605.431 9      1888.027 9        56.831 9  26329405.474 9 104669924.006 9      1864.026 9        59.842 9  26329405.474 9 104669924.006 9      1864.026 9        59.842 9
E24  24087146.235 9 126578807.803 9      1248.049 9        57.795 9  24087146.235 9 126578807.803 9      1248.049 9        57.795 9  24087145.460 9  94523132.655 9       931.985 9        57.655 9  24087145.460 9  94523132.655 9       931.985 9        57.655 9  24087145.460 9  96988953.507 9       956.297 9        57.655 9  24087145.460 9  96988953.507 9       956.297 9        57.655 9  24087145.460 9  95756043.081 9       944.141 9        60.665 9  24087145.460 9  95756043.081 9       944.141 9        60.665 9
> 2023 01 08 10 00  7.0000000  0 20       0.000000000000
G08  25067170.434 9 131728869.727 9     -1480.905 9        54.232 9  25067171.427 8 102645876.582 8     -1153.952 8        49.732 8  25067170.434 9  98368961.160 9     -1105.871 9        56.332 9
G13  20028091.535 9 105248331.383 9       581.606 9        56.112 9  20028089.277 8  82011677.546 8       453.200 8        51.612 8  20028091.535 9  78594533.176 9       434.317 9        58.212 9
G17  24974905.900 9 131244016.331 9      2932.237 9        54.182 9  24974903.733 8 102268055.798 8      2284.860 8        49.682 8  24974905.900 9  98006895.312 9      2189.657 9        56.282 9
G24  24534750.111 9 128930982.044 9      3532.968 9        54.410 9  24534750.653 8 100465702.513 8      2752.962 8        49.910 8  24534750.111 9  96279629.448 9      2638.255 9        56.510 9
G07  24593906.625 9 129241851.623 9     -2971.996 9        54.359 9  24593904.457 8 100707927.454 8     -2315.841 8        49.859 8  24593906.625 9  96511772.316 9     -2219.348 9        56.459 9
G18  24764771.315 9 130139751.632 9     -1362.762 9        54.337 9  24764769.689 8 101407592.017 8     -1061.893 8        49.837 8  24764771.315 9  97182282.063 9     -1017.647 9        56.437 9
G20  23510094.245 9 123546379.125 9     -3647.967 9        54.728 9  23510092.619 8  96269899.155 8     -2842.572 8        50.228 8  23510094.245 9  92258659.736 9     -2724.131 9        56.828 9
G14  20963824.960 9 110165643.722 9       132.750 9        55.781 9  20963823.425 8  85843352.458 8       103.442 8        51.281 8  20963824.960 9  82266552.130 9        99.132 9        57.881 9
G23  24873828.511 9 130712851.063 9      3231.610 9        54.289 9  24873826.885 8 101854163.003 8      2518.137 8        49.789 8  24873828.511 9  97610245.924 9      2413.215 9        56.389 9
G05  21738970.017 9 114239058.491 9     -2425.754 9        55.472 9  21738967.850 8  89017439.299 8     -1890.198 8        50.972 8  21738970.017 9  85308387.834 9     -1811.439 9        57.572 9
G30  21853657.393 9 114841744.716 9     -2260.365 9        55.477 9  21853658.115 8  89487076.763 8     -1761.324 8        50.977 8  21853657.393 9  85758445.730 9     -1687.935 9        57.577 9
G15  21121764.789 9 110995623.123 9      2298.397 9        55.709 9  21121762.711 8  86490087.434 8      1790.959 8        51.209 8  21121764.789 9  82886341.942 9      1716.336 9        57.809 9
E05  23314331.812 9 122517640.597 9       362.190 9        57.976 9  23314331.812 9 122517640.597 9       362.190 9        57.976 9  23314332.753 9  91490449.595 9       270.466 9        57.836 9  23314332.753 9  91490449.595 9       270.466 9        57.836 9  23314332.753 9  93877156.975 9       277.522 9        57.836 9  23314332.753 9  93877156.975 9       277.522 9        57.836 9  23314332.753 9  92683803.285 9       273.994 9        60.847 9  23314332.753 9  92683803.285 9       273.994 9        60.847 9
E09  25212279.360 9 132491422.281 9     -2093.223 9        57.367 9  25212279.360 9 132491422.281 9     -2093.223 9        57.367 9  25212279.858 9  98938401.711 9     -1563.121 9        57.227 9  25212279.858 9  98938401.711 9     -1563.121 9        57.227 9  25212279.858 9 101519403.495 9     -1603.898 9        57.227 9  25212279.858 9 101519403.495 9     -1603.898 9        57.227 9  25212279.858 9 100228902.603 9     -1583.510 9        60.237 9  25212279.858 9 100228902.603 9     -1583.510 9        60.237 9
E13  28148048.055 9 147918990.900 9       330.151 9        56.288 9  28148048.055 9 147918990.900 9       330.151 9        56.288 9  28148048.221 9 110458987.363 9       246.541 9        56.148 9  28148048.221 9 110458987.363 9       246.541 9        56.148 9  28148048.221 9 113340526.164 9       252.973 9        56.148 9  28148048.221 9 113340526.164 9       252.973 9        56.148 9  28148048.221 9 111899756.763 9       249.757 9        59.158 9  28148048.221 9 111899756.763 9       249.757 9        59.158 9
E25  27082304.571 9 142318471.093 9      3131.346 9        56.720 9  27082304.571 9 142318471.093 9      3131.346 9        56.720 9  27082305.623 9 106276784.490 9      2338.343 9        56.581 9  27082305.623 9 106276784.490 9      2338.343 9        56.581 9  27082305.623 9 109049222.346 9      2399.343 9        56.581 9  27082305.623 9 109049222.346 9      2399.343 9        56.581 9  27082305.623 9 107663003.418 9      2368.843 9        59.591 9  27082305.623 9 107663003.418 9      2368.843 9        59.591 9
E31  24965288.339 9 131193475.705 9     -1536.373 9        57.423 9  24965288.339 9 131193475.705 9     -1536.373 9        57.423 9  24965289.336 9  97969157.846 9     -1147.291 9        57.284 9  24965289.336 9  97969157.846 9     -1147.291 9        57.284 9  24965289.336 9 100524875.008 9     -1177.221 9        57.284 9  24965289.336 9 100524875.008 9     -1177.221 9        57.284 9  24965289.336 9  99247016.427 9     -1162.256 9        60.294 9  24965289.336 9  99247016.427 9     -1162.256 9        60.294 9
E15  27823452.924 9 146213231.975 9     -1856.592 9        56.363 9  27823452.924 9 146213231.975 9     -1856.592 9        56.363 9  27823454.530 9 109185211.997 9     -1386.416 9        56.224 9  27823454.530 9 109185211.997 9     -1386.416 9        56.224 9  27823454.530 9 112033521.875 9     -1422.584 9        56.224 9  27823454.530 9 112033521.875 9     -1422.584 9        56.224 9  27823454.530 9 110609366.936 9     -1404.500 9        59.234 9  27823454.530 9 110609366.936 9     -1404.500 9        59.234 9
E03  26328935.706 9 138359490.987 9      2463.937 9        56.971 9  26328935.706 9 138359490.987 9      2463.937 9        56.971 9  26328936.592 9 103320402.591 9      1839.953 9        56.831 9  26328936.592 9 103320402.591 9      1839.953 9        56.831 9  26328936.592 9 106015717.441 9      1887.951 9        56.831 9  26328936.592 9 106015717.441 9      1887.951 9        56.831 9  26328936.592 9 104668060.016 9      1863.952 9        59.842 9  26328936.592 9 104668060.016 9      1863.952 9        59.842 9
E24  24086908.781 9 126577559.970 9      1247.616 9        57.795 9  24086908.781 9 126577559.970 9      1247.616 9        57.795 9  24086908.005 9  94522200.832 9       931.661 9        57.655 9  24086908.005 9  94522200.832 9       931.661 9        57.655 9  24086908.005 9  96987997.375 9       955.965 9        57.655 9  24086908.005 9  96987997.375 9       955.965 9        57.655 9  24086908.005 9  95755099.104 9       943.813 9        60.665 9  24086908.005 9  95755099.104 9       943.813 9        60.665 9
> 2023 01 08 10 00  8.0000000  0 20       0.000000000000
G08  25067452.296 9 131730350.920 9     -1481.483 9        54.232 9  25067453.289 8 102647030.759 8     -1154.403 8        49.732 8  25067452.296 9  98370067.246 9     -1106.302 9        56.332 9
G13  20027980.904 9 105247750.013 9       581.133 9        56.112 9  20027978.646 8  82011224.531 8       452.831 8        51.612 8  20027980.904 9  78594099.036 9       433.963 9        58.212 9
G17  24974347.919 9 131241084.119 9      2932.193 9        54.182 9  24974345.752 8 102265770.957 8      2284.825 8        49.682 8  24974347.919 9  98004705.673 9      2189.624 9        56.282 9
G24  24534077.819 9 128927449.125 9      3532.864 9        54.411 9  24534078.360 8 100462949.589 8      2752.881 8        49.911 8  24534077.819 9  96276991.230 9      2638.177 9        56.511 9
G07  24594472.181 9 129244823.641 9     -2972.046 9        54.359 9  24594470.013 8 100710243.312 8     -2315.880 8        49.859 8  24594472.181 9  96513991.680 9     -2219.385 9        56.459 9
G18  24765030.691 9 130141114.659 9     -1363.290 9        54.337 9  24765029.065 8 101408654.116 8     -1062.304 8        49.837 8  24765030.691 9  97183299.908 9     -1018.041 9        56.437 9
G20  23510788.444 9 123550027.167 9     -3648.116 9        54.728 9  23510786.818 8  96272741.785 8     -2842.687 8        50.228 8  23510788.444 9  92261383.923 9     -2724.242 9        56.828 9
G14  20963799.761 9 110165511.302 9       132.091 9        55.781 9  20963798.226 8  85843249.273 8       102.928 8        51.281 8  20963799.761 9  82266453.245 9        98.640 9        57.881 9
G23  24873213.585 9 130709619.605 9      3231.303 9        54.289 9  24873211.959 8 101851644.983 8      2517.898 8        49.789 8  24873213.585 9  97607832.822 9      2412.986 9        56.389 9
G05  21739431.673 9 114241484.506 9     -2426.273 9        55.472 9  21739429.505 8  89019329.700 8     -1890.602 8        50.972 8  21739431.673 9  85310199.469 9     -1811.827 9        57.572 9
G30  21854087.551 9 114844005.215 9     -2260.635 9        55.477 9  21854088.274 8  89488838.191 8     -1761.533 8        50.977 8  21854087.551 9  85760133.764 9     -1688.136 9        57.577 9
G15  21121327.459 9 110993324.939 9      2297.968 9        55.709 9  21121325.381 8  86488296.641 8      1790.624 8        51.209 8  21121327.459 9  82884625.766 9      1716.015 9        57.809 9
E05  23314262.920 9 122517278.566 9       361.873 9        57.976 9  23314262.920 9 122517278.566 9       361.873 9        57.976 9  23314263.861 9  91490179.246 9       270.230 9        57.836 9  23314263.861 9  91490179.246 9       270.230 9        57.836 9  23314263.861 9  93876879.574 9       277.280 9        57.836 9  23314263.861 9  93876879.574 9       277.280 9        57.836 9  23314263.861 9  92683529.410 9       273.755 9        60.847 9  23314263.861 9  92683529.410 9       273.755 9        60.847 9
E09  25212677.709 9 132493515.621 9     -2093.458 9        57.366 9  25212677.709 9 132493515.621 9     -2093.458 9        57.366 9  25212678.208 9  98939964.919 9     -1563.297 9        57.227 9  25212678.208 9  98939964.919 9     -1563.297 9        57.227 9  25212678.208 9 101521007.482 9     -1604.078 9        57.227 9  25212678.208 9 101521007.482 9     -1604.078 9        57.227 9  25212678.208 9 100230486.201 9     -1583.688 9        60.237 9  25212678.208 9 100230486.201 9     -1583.688 9        60.237 9
E13  28147985.276 9 147918660.996 9       329.656 9        56.288 9  28147985.276 9 147918660.996 9       329.656 9        56.288 9  28147985.442 9 110458741.006 9       246.172 9        56.148 9  28147985.442 9 110458741.006 9       246.172 9        56.148 9  28147985.442 9 113340273.380 9       252.594 9        56.148 9  28147985.442 9 113340273.380 9       252.594 9        56.148 9  28147985.442 9 111899507.193 9       249.383 9        59.158 9  28147985.442 9 111899507.193 9       249.383 9        59.158 9
E25  27081708.707 9 142315339.805 9      3131.228 9        56.721 9  27081708.707 9 142315339.805 9      3131.228 9        56.721 9  27081709.759 9 106274446.190 9      2338.255 9        56.581 9  27081709.759 9 106274446.190 9      2338.255 9        56.581 9  27081709.759 9 109046823.048 9      2399.253 9        56.581 9  27081709.759 9 109046823.048 9      2399.253 9        56.581 9  27081709.759 9 107660634.619 9      2368.754 9        59.591 9  27081709.759 9 107660634.619 9      2368.754 9        59.591 9
E31  24965580.737 9 131195012.264 9     -1536.748 9        57.423 9  24965580.737 9 131195012.264 9     -1536.748 9        57.423 9  24965581.733 9  97970305.277 9     -1147.571 9        57.283 9  24965581.733 9  97970305.277 9     -1147.571 9        57.283 9  24965581.733 9 100526052.371 9     -1177.508 9        57.283 9  24965581.733 9 100526052.371 9     -1177.508 9        57.283 9  24965581.733 9  99248178.824 9     -1162.540 9        60.294 9  24965581.733 9  99248178.824 9     -1162.540 9        60.294 9
E15  27823806.255 9 146215088.743 9     -1856.941 9        56.363 9  27823806.255 9 146215088.743 9     -1856.941 9        56.363 9  27823807.861 9 109186598.545 9     -1386.676 9        56.223 9  27823807.861 9 109186598.545 9     -1386.676 9        56.223 9  27823807.861 9 112034944.594 9     -1422.851 9        56.223 9  27823807.861 9 112034944.594 9     -1422.851 9        56.223 9  27823807.861 9 110610771.569 9     -1404.764 9        59.234 9  27823807.861 9 110610771.569 9     -1404.764 9        59.234 9
E03  26328466.844 9 138357027.098 9      2463.839 9        56.971 9  26328466.844 9 138357027.098 9      2463.839 9        56.971 9  26328467.730 9 103318562.673 9      1839.879 9        56.832 9  26328467.730 9 103318562.673 9      1839.879 9        56.832 9  26328467.730 9 106013829.525 9      1887.876 9        56.832 9  26328467.730 9 106013829.525 9      1887.876 9        56.832 9  26328467.730 9 104666196.099 9      1863.878 9        59.842 9  26328467.730 9 104666196.099 9      1863.878 9        59.842 9
E24  24086671.409 9 126576312.572 9      1247.182 9        57.795 9  24086671.409 9 126576312.572 9      1247.182 9        57.795 9  24086670.633 9  94521269.333 9       931.337 9        57.655 9  24086670.633 9  94521269.333 9       931.337 9        57.655 9  24086670.633 9  96987041.576 9       955.633 9        57.655 9  24086670.633 9  96987041.576 9       955.633 9        57.655 9  24086670.633 9  95754155.455 9       943.485 9        60.665 9  24086670.633 9  95754155.455 9       943.485 9        60.665 9
> 2023 01 08 10 00  9.0000000  0 20       0.000000000000
G08  25067734.267 9 131731832.692 9     -1482.061 9        54.232 9  25067735.261 8 102648185.386 8     -1154.853 8        49.732 8  25067734.267 9  98371173.763 9     -1106.734 9        56.332 9
G13  20027870.363 9 105247169.117 9       580.659 9        56.112 9  20027868.105 8  82010771.885 8       452.462 8        51.612 8  20027870.363 9  78593665.250 9       433.609 9        58.212 9
G17  24973789.946 9 131238151.951 9      2932.149 9        54.183 9  24973787.778 8 102263486.151 8      2284.791 8        49.683 8  24973789.946 9  98002516.067 9      2189.592 9        56.283 9
G24  24533405.546 9 128923916.310 9      3532.760 9        54.411 9  24533406.088 8 100460196.746 8      2752.800 8        49.911 8  24533405.546 9  96274353.088 9      2638.100 9        56.511 9
G07  24595037.747 9 129247795.709 9     -2972.096 9        54.359 9  24595035.579 8 100712559.209 8     -2315.919 8        49.859 8  24595037.747 9  96516211.082 9     -2219.422 9        56.459 9
G18  24765290.167 9 130142478.215 9     -1363.818 9        54.337 9  24765288.541 8 101409716.627 8     -1062.716 8        49.837 8  24765290.167 9  97184318.147 9     -1018.436 9        56.437 9
G20  23511482.671 9 123553675.357 9     -3648.264 9        54.728 9  23511481.046 8  96275584.531 8     -2842.803 8        50.228 8  23511482.671 9  92264108.221 9     -2724.353 9        56.828 9
G14  20963774.688 9 110165379.540 9       131.432 9        55.781 9  20963773.153 8  85843146.601 8       102.415 8        51.281 8  20963774.688 9  82266354.851 9        98.147 9        57.881 9
G23  24872598.717 9 130706388.454 9      3230.996 9        54.289 9  24872597.091 8 101849127.203 8      2517.659 8        49.789 8  24872598.717 9  97605419.949 9      2412.756 9        56.389 9
G05  21739893.427 9 114243911.040 9     -2426.792 9        55.472 9  21739891.259 8  89021220.506 8     -1891.007 8        50.972 8  21739893.427 9  85312011.491 9     -1812.215 9        57.572 9
G30  21854517.761 9 114846265.982 9     -2260.904 9        55.477 9  21854518.483 8  89490599.828 8     -1761.743 8        50.977 8  21854517.761 9  85761822.000 9     -1688.337 9        57.577 9
G15  21120890.211 9 110991027.185 9      2297.538 9        55.709 9  21120888.133 8  86486506.184 8      1790.289 8        51.209 8  21120890.211 9  82882909.911 9      1715.694 9        57.809 9
E05  23314194.087 9 122516916.851 9       361.557 9        57.976 9  23314194.087 9 122516916.851 9       361.557 9        57.976 9  23314195.029 9  91489909.134 9       269.994 9        57.836 9  23314195.029 9  91489909.134 9       269.994 9        57.836 9  23314195.029 9  93876602.416 9       277.037 9        57.836 9  23314195.029 9  93876602.416 9       277.037 9        57.836 9  23314195.029 9  92683255.775 9       273.515 9        60.847 9  23314195.029 9  92683255.775 9       273.515 9        60.847 9
E09  25213076.103 9 132495609.195 9     -2093.694 9        57.366 9  25213076.103 9 132495609.195 9     -2093.694 9        57.366 9  25213076.602 9  98941528.303 9     -1563.472 9        57.226 9  25213076.602 9  98941528.303 9     -1563.472 9        57.226 9  25213076.602 9 101522611.650 9     -1604.259 9        57.226 9  25213076.602 9 101522611.650 9     -1604.259 9        57.226 9  25213076.602 9 100232069.976 9     -1583.866 9        60.237 9  25213076.602 9 100232069.976 9     -1583.866 9        60.237 9
E13  28147922.592 9 147918331.587 9       329.162 9        56.288 9  28147922.592 9 147918331.587 9       329.162 9        56.288 9  28147922.758 9 110458495.019 9       245.803 9        56.148 9  28147922.758 9 110458495.019 9       245.803 9        56.148 9  28147922.758 9 113340020.976 9       252.215 9        56.148 9  28147922.758 9 113340020.976 9       252.215 9        56.148 9  28147922.758 9 111899257.997 9       249.009 9        59.158 9  28147922.758 9 111899257.997 9       249.009 9        59.158 9
E25  27081112.865 9 142312208.635 9      3131.110 9        56.721 9  27081112.865 9 142312208.635 9      3131.110 9        56.721 9  27081113.917 9 106272107.979 9      2338.167 9        56.581 9  27081113.917 9 106272107.979 9      2338.167 9        56.581 9  27081113.917 9 109044423.839 9      2399.162 9        56.581 9  27081113.917 9 109044423.839 9      2399.162 9        56.581 9  27081113.917 9 107658265.909 9      2368.664 9        59.591 9  27081113.917 9 107658265.909 9      2368.664 9        59.591 9
E31  24965873.205 9 131196549.198 9     -1537.123 9        57.423 9  24965873.205 9 131196549.198 9     -1537.123 9        57.423 9  24965874.202 9  97971452.988 9     -1147.851 9        57.283 9  24965874.202 9  97971452.988 9     -1147.851 9        57.283 9  24965874.202 9 100527230.022 9     -1177.795 9        57.283 9  24965874.202 9 100527230.022 9     -1177.795 9        57.283 9  24965874.202 9  99249341.505 9     -1162.823 9        60.294 9  24965874.202 9  99249341.505 9     -1162.823 9        60.294 9
E15  27824159.653 9 146216945.860 9     -1857.289 9        56.363 9  27824159.653 9 146216945.860 9     -1857.289 9        56.363 9  27824161.259 9 109187985.352 9     -1386.937 9        56.223 9  27824161.259 9 109187985.352 9     -1386.937 9        56.223 9  27824161.259 9 112036367.579 9     -1423.118 9        56.223 9  27824161.259 9 112036367.579 9     -1423.118 9        56.223 9  27824161.259 9 110612176.466 9     -1405.027 9        59.234 9  27824161.259 9 110612176.466 9     -1405.027 9        59.234 9
E03  26327998.000 9 138354563.306 9      2463.740 9        56.972 9  26327998.000 9 138354563.306 9      2463.740 9        56.972 9  26327998.886 9 103316722.829 9      1839.806 9        56.832 9  26327998.886 9 103316722.829 9      1839.806 9        56.832 9  26327998.886 9 106011941.685 9      1887.801 9        56.832 9  26327998.886 9 106011941.685 9      1887.801 9        56.832 9  26327998.886 9 104664332.257 9      1863.804 9        59.842 9  26327998.886 9 104664332.257 9      1863.804 9        59.842 9
E24  24086434.119 9 126575065.606 9      1246.749 9        57.795 9  24086434.119 9 126575065.606 9      1246.749 9        57.795 9  24086433.344 9  94520338.157 9       931.014 9        57.655 9  24086433.344 9  94520338.157 9       931.014 9        57.655 9  24086433.344 9  96986086.109 9       955.301 9        57.655 9  24086433.344 9  96986086.109 9       955.301 9        57.655 9  24086433.344 9  95753212.133 9       943.158 9        60.665 9  24086433.344 9  95753212.133 9       943.158 9        60.665 9
> 2023 01 08 10 00 10.0000000  0 20       0.000000000000
G08  25068016.349 9 131733315.042 9     -1482.640 9        54.232 9  25068017.343 8 102649340.464 8     -1155.304 8        49.732 8  25068016.349 9  98372280.713 9     -1107.166 9        56.332 9
G13  20027759.912 9 105246588.694 9       580.186 9        56.112 9  20027757.654 8  82010319.607 8       452.093 8        51.612 8  20027759.912 9  78593231.817 9       433.256 9        58.212 9
G17  24973231.981 9 131235219.827 9      2932.105 9        54.183 9  24973229.814 8 102261201.379 8      2284.757 8        49.683 8  24973231.981 9  98000326.494 9      2189.559 9        56.283 9
G24  24532733.294 9 128920383.599 9      3532.656 9        54.411 9  24532733.835 8 100457443.984 8      2752.719 8        49.911 8  24532733.294 9  96271715.025 9      2638.022 9        56.511 9
G07  24595603.322 9 129250767.828 9     -2972.146 9        54.359 9  24595601.154 8 100714875.146 8     -2315.958 8        49.859 8  24595603.322 9  96518430.521 9     -2219.460 9        56.459 9
G18  24765549.743 9 130143842.298 9     -1364.346 9        54.337 9  24765548.117 8 101410779.549 8     -1063.127 8        49.837 8  24765549.743 9  97185336.781 9     -1018.830 9        56.437 9
G20  23512176.927 9 123557323.696 9     -3648.413 9        54.728 9  23512175.302 8  96278427.392 8     -2842.919 8        50.228 8  23512176.927 9  92266832.630 9     -2724.464 9        56.828 9
G14  20963749.740 9 110165248.437 9       130.773 9        55.781 9  20963748.204 8  85843044.443 8       101.901 8        51.281 8  20963749.740 9  82266256.950 9        97.655 9        57.881 9
G23  24871983.908 9 130703157.610 9      3230.688 9        54.289 9  24871982.282 8 101846609.663 8      2517.420 8        49.789 8  24871983.908 9  97603007.306 9      2412.527 9        56.389 9
G05  21740355.279 9 114246338.093 9     -2427.312 9        55.472 9  21740353.112 8  89023111.716 8     -1891.412 8        50.972 8  21740355.279 9  85313823.900 9     -1812.603 9        57.572 9
G30  21854948.022 9 114848527.019 9     -2261.173 9        55.477 9  21854948.744 8  89492361.675 8     -1761.953 8        50.977 8  21854948.022 9  85763510.436 9     -1688.538 9        57.577 9
G15  21120453.044 9 110988729.861 9      2297.108 9        55.710 9  21120450.967 8  86484716.061 8      1789.954 8        51.210 8  21120453.044 9  82881194.376 9      1715.373 9        57.810 9
E05  23314125.316 9 122516555.452 9       361.240 9        57.976 9  23314125.316 9 122516555.452 9       361.240 9        57.976 9  23314126.257 9  91489639.259 9       269.757 9        57.836 9  23314126.257 9  91489639.259 9       269.757 9        57.836 9  23314126.257 9  93876325.501 9       276.794 9        57.836 9  23314126.257 9  93876325.501 9       276.794 9        57.836 9  23314126.257 9  92682982.380 9       273.276 9        60.847 9  23314126.257 9  92682982.380 9       273.276 9        60.847 9
E09  25213474.542 9 132497703.005 9     -2093.929 9        57.366 9  25213474.542 9 132497703.005 9     -2093.929 9        57.366 9  25213475.041 9  98943091.862 9     -1563.648 9        57.226 9  25213475.041 9  98943091.862 9     -1563.648 9        57.226 9  25213475.041 9 101524215.997 9     -1604.439 9        57.226 9  25213475.041 9 101524215.997 9     -1604.439 9        57.226 9  25213475.041 9 100233653.930 9     -1584.043 9        60.237 9  25213475.041 9 100233653.930 9     -1584.043 9        60.237 9
E13  28147860.002 9 147918002.672 9       328.667 9        56.288 9  28147860.002 9 147918002.672 9       328.667 9        56.288 9  28147860.168 9 110458249.401 9       245.433 9        56.148 9  28147860.168 9 110458249.401 9       245.433 9        56.148 9  28147860.168 9 113339768.950 9       251.836 9        56.148 9  28147860.168 9 113339768.950 9       251.836 9        56.148 9  28147860.168 9 111899009.175 9       248.635 9        59.158 9  28147860.168 9 111899009.175 9       248.635 9        59.158 9
E25  27080517.046 9 142309077.583 9      3130.992 9        56.721 9  27080517.046 9 142309077.583 9      3130.992 9        56.721 9  27080518.098 9 106269769.856 9      2338.078 9        56.581 9  27080518.098 9 106269769.856 9      2338.078 9        56.581 9  27080518.098 9 109042024.721 9      2399.072 9        56.581 9  27080518.098 9 109042024.721 9      2399.072 9        56.581 9  27080518.098 9 107655897.289 9      2368.575 9        59.591 9  27080518.098 9 107655897.289 9      2368.575 9        59.591 9
E31  24966165.746 9 131198086.508 9     -1537.498 9        57.423 9  24966165.746 9 131198086.508 9     -1537.498 9        57.423 9  24966166.742 9  97972600.979 9     -1148.131 9        57.283 9  24966166.742 9  97972600.979 9     -1148.131 9        57.283 9  24966166.742 9 100528407.961 9     -1178.083 9        57.283 9  24966166.742 9 100528407.961 9     -1178.083 9        57.283 9  24966166.742 9  99250504.470 9     -1163.107 9        60.294 9  24966166.742 9  99250504.470 9     -1163.107 9        60.294 9
E15  27824513.117 9 146218803.325 9     -1857.637 9        56.363 9  27824513.117 9 146218803.325 9     -1857.637 9        56.363 9  27824514.723 9 109189372.420 9     -1387.197 9        56.223 9  27824514.723 9 109189372.420 9     -1387.197 9        56.223 9  27824514.723 9 112037790.831 9     -1423.384 9        56.223 9  27824514.723 9 112037790.831 9     -1423.384 9        56.223 9  27824514.723 9 110613581.626 9     -1405.291 9        59.234 9  27824514.723 9 110613581.626 9     -1405.291 9        59.234 9
E03  26327529.175 9 138352099.613 9      2463.642 9        56.972 9  26327529.175 9 138352099.613 9      2463.642 9        56.972 9  26327530.061 9 103314883.058 9      1839.733 9        56.832 9  26327530.061 9 103314883.058 9      1839.733 9        56.832 9  26327530.061 9 106010053.920 9      1887.726 9        56.832 9  26327530.061 9 106010053.920 9      1887.726 9        56.832 9  26327530.061 9 104662468.489 9      1863.729 9        59.842 9  26327530.061 9 104662468.489 9      1863.729 9        59.842 9
E24  24086196.912 9 126573819.074 9      1246.316 9        57.795 9  24086196.912 9 126573819.074 9      1246.316 9        57.795 9  24086196.137 9  94519407.306 9       930.690 9        57.655 9  24086196.137 9  94519407.306 9       930.690 9        57.655 9  24086196.137 9  96985130.974 9       954.969 9        57.655 9  24086196.137 9  96985130.974 9       954.969 9        57.655 9  24086196.137 9  95752269.140 9       942.830 9        60.665 9  24086196.137 9  95752269.140 9       942.830 9        60.665 9
> 2023 01 08 10 00 11.0000000  0 20       0.000000000000
G08  25068298.541 9 131734797.970 9     -1483.218 9        54.232 9  25068299.534 8 102650495.992 8     -1155.754 8        49.732 8  25068298.541 9  98373388.094 9     -1107.598 9        56.332 9
G13  20027649.552 9 105246008.745 9       579.712 9        56.112 9  20027647.294 8  82009867.699 8       451.724 8        51.612 8  20027649.552 9  78592798.738 9       432.902 9        58.212 9
G17  24972674.025 9 131232287.747 9      2932.060 9        54.183 9  24972671.858 8 102258916.641 8      2284.722 8        49.683 8  24972674.025 9  97998136.954 9      2189.526 9        56.283 9
G24  24532061.061 9 128916850.992 9      3532.551 9        54.411 9  24532061.603 8 100454691.303 8      2752.638 8        49.911 8  24532061.061 9  96269077.039 9      2637.944 9        56.511 9
G07  24596168.907 9 129253739.996 9     -2972.196 9        54.359 9  24596166.739 8 100717191.121 8     -2315.997 8        49.859 8  24596168.907 9  96520649.997 9     -2219.497 9        56.459 9
G18  24765809.420 9 130145206.909 9     -1364.874 9        54.337 9  24765807.794 8 101411842.883 8     -1063.538 8        49.837 8  24765809.420 9  97186355.809 9     -1019.224 9        56.437 9
G20  23512871.211 9 123560972.184 9     -3648.561 9        54.727 9  23512869.586 8  96281270.370 8     -2843.035 8        50.227 8  23512871.211 9  92269557.150 9     -2724.575 9        56.827 9
G14  20963724.917 9 110165117.993 9       130.114 9        55.781 9  20963723.382 8  85842942.799 8       101.388 8        51.281 8  20963724.917 9  82266159.540 9        97.163 9        57.881 9
G23  24871369.157 9 130699927.074 9      3230.381 9        54.290 9  24871367.532 8 101844092.362 8      2517.180 8        49.790 8  24871369.157 9  97600594.893 9      2412.298 9        56.390 9
G05  21740817.231 9 114248765.665 9     -2427.831 9        55.471 9  21740815.064 8  89025003.331 8     -1891.816 8        50.971 8  21740817.231 9  85315636.698 9     -1812.991 9        57.571 9
G30  21855378.334 9 114850788.325 9     -2261.442 9        55.477 9  21855379.057 8  89494123.731 8     -1762.162 8        50.977 8  21855378.334 9  85765199.074 9     -1688.739 9        57.577 9
G15  21120015.960 9 110986432.967 9      2296.678 9        55.710 9  21120013.883 8  86482926.273 8      1789.619 8        51.210 8  21120015.960 9  82879479.163 9      1715.052 9        57.810 9
E05  23314056.604 9 122516194.371 9       360.923 9        57.976 9  23314056.604 9 122516194.371 9       360.923 9        57.976 9  23314057.545 9  91489369.620 9       269.521 9        57.836 9  23314057.545 9  91489369.620 9       269.521 9        57.836 9  23314057.545 9  93876048.828 9       276.552 9        57.836 9  23314057.545 9  93876048.828 9       276.552 9        57.836 9  23314057.545 9  92682709.224 9       273.036 9        60.847 9  23314057.545 9  92682709.224 9       273.036 9        60.847 9
E09  25213873.026 9 132499797.050 9     -2094.164 9        57.366 9  25213873.026 9 132499797.050 9     -2094.164 9        57.366 9  25213873.524 9  98944655.597 9     -1563.824 9        57.226 9  25213873.524 9  98944655.597 9     -1563.824 9        57.226 9  25213873.524 9 101525820.525 9     -1604.619 9        57.226 9  25213873.524 9 101525820.525 9     -1604.619 9        57.226 9  25213873.524 9 100235238.061 9     -1584.221 9        60.236 9  25213873.524 9 100235238.061 9     -1584.221 9        60.236 9
E13  28147797.505 9 147917674.252 9       328.173 9        56.288 9  28147797.505 9 147917674.252 9       328.173 9        56.288 9  28147797.671 9 110458004.152 9       245.064 9        56.148 9  28147797.671 9 110458004.152 9       245.064 9        56.148 9  28147797.671 9 113339517.304 9       251.457 9        56.148 9  28147797.671 9 113339517.304 9       251.457 9        56.148 9  28147797.671 9 111898760.728 9       248.261 9        59.158 9  28147797.671 9 111898760.728 9       248.261 9        59.158 9
E25  27079921.249 9 142305946.649 9      3130.874 9        56.721 9  27079921.249 9 142305946.649 9      3130.874 9        56.721 9  27079922.301 9 106267431.821 9      2337.990 9        56.581 9  27079922.301 9 106267431.821 9      2337.990 9        56.581 9  27079922.301 9 109039625.694 9      2398.981 9        56.581 9  27079922.301 9 109039625.694 9      2398.981 9        56.581 9  27079922.301 9 107653528.757 9      2368.486 9        59.592 9  27079922.301 9 107653528.757 9      2368.486 9        59.592 9
E31  24966458.357 9 131199624.192 9     -1537.873 9        57.423 9  24966458.357 9 131199624.192 9     -1537.873 9        57.423 9  24966459.354 9  97973749.249 9     -1148.411 9        57.283 9  24966459.354 9  97973749.249 9     -1148.411 9        57.283 9  24966459.354 9 100529586.186 9     -1178.370 9        57.283 9  24966459.354 9 100529586.186 9     -1178.370 9        57.283 9  24966459.354 9  99251667.718 9     -1163.391 9        60.293 9  24966459.354 9  99251667.718 9     -1163.391 9        60.293 9
E15  27824866.647 9 146220661.138 9     -1857.986 9        56.363 9  27824866.647 9 146220661.138 9     -1857.986 9        56.363 9  27824868.253 9 109190759.748 9     -1387.457 9        56.223 9  27824868.253 9 109190759.748 9     -1387.457 9        56.223 9  27824868.253 9 112039214.350 9     -1423.651 9        56.223 9  27824868.253 9 112039214.350 9     -1423.651 9        56.223 9  27824868.253 9 110614987.049 9     -1405.554 9        59.233 9  27824868.253 9 110614987.049 9     -1405.554 9        59.233 9
E03  26327060.368 9 138349636.018 9      2463.544 9        56.972 9  26327060.368 9 138349636.018 9      2463.544 9        56.972 9  26327061.254 9 103313043.360 9      1839.660 9        56.832 9  26327061.254 9 103313043.360 9      1839.660 9        56.832 9  26327061.254 9 106008166.230 9      1887.651 9        56.832 9  26327061.254 9 106008166.230 9      1887.651 9        56.832 9  26327061.254 9 104660604.795 9      1863.655 9        59.842 9  26327061.254 9 104660604.795 9      1863.655 9        59.842 9
E24  24085959.787 9 126572572.976 9      1245.882 9        57.795 9  24085959.787 9 126572572.976 9      1245.882 9        57.795 9  24085959.012 9  94518476.777 9       930.367 9        57.655 9  24085959.012 9  94518476.777 9       930.367 9        57.655 9  24085959.012 9  96984176.172 9       954.637 9        57.655 9  24085959.012 9  96984176.172 9       954.637 9        57.655 9  24085959.012 9  95751326.475 9       942.502 9        60.666 9  24085959.012 9  95751326.475 9       942.502 9        60.666 9
> 2023 01 08 10 00 12.0000000  0 20       0.000000000000
G08  25068580.843 9 131736281.476 9     -1483.796 9        54.232 9  25068581.836 8 102651651.971 8     -1156.204 8        49.732 8  25068580.843 9  98374495.907 9     -1108.029 9        56.332 9
G13  20027539.281 9 105245429.270 9       579.238 9        56.112 9  20027537.023 8  82009416.160 8       451.355 8        51.612 8  20027539.281 9  78592366.013 9       432.548 9        58.212 9
G17  24972116.077 9 131229355.711 9      2932.016 9        54.183 9  24972113.910 8 102256631.938 8      2284.688 8        49.683 8  24972116.077 9  97995947.447 9      2189.492 9        56.283 9
G24  24531388.848 9 128913318.489 9      3532.447 9        54.412 9  24531389.390 8 100451938.704 8      2752.556 8        49.912 8  24531388.848 9  96266439.131 9      2637.867 9        56.512 9
G07  24596734.501 9 129256712.214 9     -2972.246 9        54.358 9  24596732.334 8 100719507.135 8     -2316.036 8        49.858 8  24596734.501 9  96522869.511 9     -2219.534 9        56.458 9
G18  24766069.197 9 130146572.048 9     -1365.402 9        54.336 9  24766067.572 8 101412906.628 8     -1063.949 8        49.836 8  24766069.197 9  97187375.231 9     -1019.618 9        56.436 9
G20  23513565.524 9 123564620.820 9     -3648.709 9        54.727 9  23513563.898 8  96284113.463 8     -2843.150 8        50.227 8  23513565.524 9  92272281.781 9     -2724.686 9        56.827 9
G14  20963700.220 9 110164988.209 9       129.455 9        55.781 9  20963698.685 8  85842841.668 8       100.874 8        51.281 8  20963700.220 9  82266062.623 9        96.671 9        57.881 9
G23  24870754.465 9 130696696.844 9      3230.074 9        54.290 9  24870752.839 8 101841575.300 8      2516.941 8        49.790 8  24870754.465 9  97598182.708 9      2412.068 9        56.390 9
G05  21741279.282 9 114251193.757 9     -2428.350 9        55.471 9  21741277.114 8  89026895.350 8     -1892.221 8        50.971 8  21741279.282 9  85317449.883 9     -1813.378 9        57.571 9
G30  21855808.697 9 114853049.899 9     -2261.711 9        55.476 9  21855809.420 8  89495885.997 8     -1762.372 8        50.976 8  21855808.697 9  85766887.912 9     -1688.940 9        57.576 9
G15  21119578.957 9 110984136.502 9      2296.248 9        55.710 9  21119576.880 8  86481136.821 8      1789.284 8        51.210 8  21119578.957 9  82877764.271 9      1714.730 9        57.810 9
E05  23313987.953 9 122515833.606 9       360.607 9        57.976 9  23313987.953 9 122515833.606 9       360.607 9        57.976 9  23313988.894 9  91489100.218 9       269.284 9        57.836 9  23313988.894 9  91489100.218 9       269.284 9        57.836 9  23313988.894 9  93875772.397 9       276.309 9        57.836 9  23313988.894 9  93875772.397 9       276.309 9        57.836 9  23313988.894 9  92682436.308 9       272.796 9        60.847 9  23313988.894 9  92682436.308 9       272.796 9        60.847 9
E09  25214271.554 9 132501891.330 9     -2094.399 9        57.366 9  25214271.554 9 132501891.330 9     -2094.399 9        57.366 9  25214272.052 9  98946219.507 9     -1563.999 9        57.226 9  25214272.052 9  98946219.507 9     -1563.999 9        57.226 9  25214272.052 9 101527425.234 9     -1604.799 9        57.226 9  25214272.052 9 101527425.234 9     -1604.799 9        57.226 9  25214272.052 9 100236822.370 9     -1584.399 9        60.236 9  25214272.052 9 100236822.370 9     -1584.399 9        60.236 9
E13  28147735.103 9 147917346.326 9       327.678 9        56.288 9  28147735.103 9 147917346.326 9       327.678 9        56.288 9  28147735.269 9 110457759.272 9       244.695 9        56.148 9  28147735.269 9 110457759.272 9       244.695 9        56.148 9  28147735.269 9 113339266.036 9       251.078 9        56.148 9  28147735.269 9 113339266.036 9       251.078 9        56.148 9  28147735.269 9 111898512.654 9       247.887 9        59.158 9  28147735.269 9 111898512.654 9       247.887 9        59.158 9
E25  27079325.474 9 142302815.833 9      3130.755 9        56.721 9  27079325.474 9 142302815.833 9      3130.755 9        56.721 9  27079326.526 9 106265093.874 9      2337.902 9        56.581 9  27079326.526 9 106265093.874 9      2337.902 9        56.581 9  27079326.526 9 109037226.758 9      2398.891 9        56.581 9  27079326.526 9 109037226.758 9      2398.891 9        56.581 9  27079326.526 9 107651160.316 9      2368.396 9        59.592 9  27079326.526 9 107651160.316 9      2368.396 9        59.592 9
E31  24966751.040 9 131201162.251 9     -1538.247 9        57.423 9  24966751.040 9 131201162.251 9     -1538.247 9        57.423 9  24966752.037 9  97974897.800 9     -1148.691 9        57.283 9  24966752.037 9  97974897.800 9     -1148.691 9        57.283 9  24966752.037 9 100530764.699 9     -1178.657 9        57.283 9  24966752.037 9 100530764.699 9     -1178.657 9        57.283 9  24966752.037 9  99252831.250 9     -1163.674 9        60.293 9  24966752.037 9  99252831.250 9     -1163.674 9        60.293 9
E15  27825220.243 9 146222519.299 9     -1858.334 9        56.363 9  27825220.243 9 146222519.299 9     -1858.334 9        56.363 9  27825221.849 9 109192147.336 9     -1387.717 9        56.223 9  27825221.849 9 109192147.336 9     -1387.717 9        56.223 9  27825221.849 9 112040638.137 9     -1423.918 9        56.223 9  27825221.849 9 112040638.137 9     -1423.918 9        56.223 9  27825221.849 9 110616392.736 9     -1405.817 9        59.233 9  27825221.849 9 110616392.736 9     -1405.817 9        59.233 9
E03  26326591.580 9 138347172.521 9      2463.446 9        56.972 9  26326591.580 9 138347172.521 9      2463.446 9        56.972 9  26326592.466 9 103311203.736 9      1839.586 9        56.832 9  26326592.466 9 103311203.736 9      1839.586 9        56.832 9  26326592.466 9 106006278.616 9      1887.575 9        56.832 9  26326592.466 9 106006278.616 9      1887.575 9        56.832 9  26326592.466 9 104658741.176 9      1863.581 9        59.842 9  26326592.466 9 104658741.176 9      1863.581 9        59.842 9
E24  24085722.745 9 126571327.311 9      1245.449 9        57.795 9  24085722.745 9 126571327.311 9      1245.449 9        57.795 9  24085721.970 9  94517546.573 9       930.043 9        57.655 9  24085721.970 9  94517546.573 9       930.043 9        57.655 9  24085721.970 9  96983221.701 9       954.305 9        57.655 9  24085721.970 9  96983221.701 9       954.305 9        57.655 9  24085721.970 9  95750384.137 9       942.174 9        60.666 9  24085721.970 9  95750384.137 9       942.174 9        60.666 9
> 2023 01 08 10 00 13.0000000  0 20       0.000000000000
G08  25068863.255 9 131737765.560 9     -1484.374 9        54.232 9  25068864.248 8 102652808.400 8     -1156.655 8        49.732 8  25068863.255 9  98375604.152 9     -1108.461 9        56.332 9
G13  20027429.101 9 105244850.268 9       578.765 9        56.112 9  20027426.843 8  82008964.989 8       450.986 8        51.612 8  20027429.101 9  78591933.642 9       432.194 9        58.212 9
G17  24971558.138 9 131226423.720 9      2931.971 9        54.183 9  24971555.970 8 102254347.270 8      2284.653 8        49.683 8  24971558.138 9  97993757.973 9      2189.459 9        56.283 9
G24  24530716.655 9 128909786.090 9      3532.343 9        54.412 9  24530717.197 8 100449186.185 8      2752.475 8        49.912 8  24530716.655 9  96263801.301 9      2637.789 9        56.512 9
G07  24597300.105 9 129259684.482 9     -2972.296 9        54.358 9  24597297.937 8 100721823.188 8     -2316.075 8        49.858 8  24597300.105 9  96525089.061 9     -2219.572 9        56.458 9
G18  24766329.075 9 130147937.715 9     -1365.929 9        54.336 9  24766327.449 8 101413970.784 8     -1064.361 8        49.836 8  24766329.075 9  97188395.047 9     -1020.012 9        56.436 9
G20  23514259.864 9 123568269.604 9     -3648.858 9        54.727 9  23514258.239 8  96286956.671 8     -2843.266 8        50.227 8  23514259.864 9  92275006.523 9     -2724.796 9        56.827 9
G14  20963675.648 9 110164859.083 9       128.796 9        55.781 9  20963674.113 8  85842741.050 8       100.361 8        51.281 8  20963675.648 9  82265966.198 9        96.179 9        57.881 9
G23  24870139.831 9 130693466.922 9      3229.766 9        54.290 9  24870138.206 8 101839058.478 8      2516.701 8        49.790 8  24870139.831 9  97595770.754 9      2411.839 9        56.390 9
G05  21741741.431 9 114253622.368 9     -2428.869 9        55.471 9  21741739.263 8  89028787.774 8     -1892.625 8        50.971 8  21741741.431 9  85319263.456 9     -1813.766 9        57.571 9
G30  21856239.112 9 114855311.743 9     -2261.980 9        55.476 9  21856239.835 8  89497648.473 8     -1762.582 8        50.976 8  21856239.112 9  85768576.951 9     -1689.141 9        57.576 9
G15  21119142.037 9 110981840.469 9      2295.817 9        55.710 9  21119139.959 8  86479347.703 8      1788.949 8        51.210 8  21119142.037 9  82876049.701 9      1714.409 9        57.810 9
E05  23313919.362 9 122515473.158 9       360.290 9        57.976 9  23313919.362 9 122515473.158 9       360.290 9        57.976 9  23313920.303 9  91488831.052 9       269.048 9        57.836 9  23313920.303 9  91488831.052 9       269.048 9        57.836 9  23313920.303 9  93875496.210 9       276.066 9        57.836 9  23313920.303 9  93875496.210 9       276.066 9        57.836 9  23313920.303 9  92682163.631 9       272.557 9        60.847 9  23313920.303 9  92682163.631 9       272.557 9        60.847 9
E09  25214670.127 9 132503985.846 9     -2094.634 9        57.366 9  25214670.127 9 132503985.846 9     -2094.634 9        57.366 9  25214670.625 9  98947783.593 9     -1564.175 9        57.226 9  25214670.625 9  98947783.593 9     -1564.175 9        57.226 9  25214670.625 9 101529030.122 9     -1604.979 9        57.226 9  25214670.625 9 101529030.122 9     -1604.979 9        57.226 9  25214670.625 9 100238406.858 9     -1584.577 9        60.236 9  25214670.625 9 100238406.858 9     -1584.577 9        60.236 9
E13  28147672.795 9 147917018.895 9       327.184 9        56.288 9  28147672.795 9 147917018.895 9       327.184 9        56.288 9  28147672.961 9 110457514.762 9       244.326 9        56.148 9  28147672.961 9 110457514.762 9       244.326 9        56.148 9  28147672.961 9 113339015.147 9       250.699 9        56.148 9  28147672.961 9 113339015.147 9       250.699 9        56.148 9  28147672.961 9 111898264.954 9       247.513 9        59.158 9  28147672.961 9 111898264.954 9       247.513 9        59.158 9
E25  27078729.723 9 142299685.136 9      3130.637 9        56.722 9  27078729.723 9 142299685.136 9      3130.637 9        56.722 9  27078730.775 9 106262756.016 9      2337.813 9        56.582 9  27078730.775 9 106262756.016 9      2337.813 9        56.582 9  27078730.775 9 109034827.912 9      2398.800 9        56.582 9  27078730.775 9 109034827.912 9      2398.800 9        56.582 9  27078730.775 9 107648791.964 9      2368.307 9        59.592 9  27078730.775 9 107648791.964 9      2368.307 9        59.592 9
E31  24967043.794 9 131202700.685 9     -1538.622 9        57.423 9  24967043.794 9 131202700.685 9     -1538.622 9        57.423 9  24967044.791 9  97976046.631 9     -1148.971 9        57.283 9  24967044.791 9  97976046.631 9     -1148.971 9        57.283 9  24967044.791 9 100531943.499 9     -1178.944 9        57.283 9  24967044.791 9 100531943.499 9     -1178.944 9        57.283 9  24967044.791 9  99253995.065 9     -1163.958 9        60.293 9  24967044.791 9  99253995.065 9     -1163.958 9        60.293 9
E15  27825573.906 9 146224377.809 9     -1858.682 9        56.363 9  27825573.906 9 146224377.809 9     -1858.682 9        56.363 9  27825575.512 9 109193535.185 9     -1387.977 9        56.223 9  27825575.512 9 109193535.185 9     -1387.977 9        56.223 9  27825575.512 9 112042062.189 9     -1424.185 9        56.223 9  27825575.512 9 112042062.189 9     -1424.185 9        56.223 9  27825575.512 9 110617798.687 9     -1406.081 9        59.233 9  27825575.512 9 110617798.687 9     -1406.081 9        59.233 9
E03  26326122.811 9 138344709.123 9      2463.348 9        56.972 9  26326122.811 9 138344709.123 9      2463.348 9        56.972 9  26326123.697 9 103309364.185 9      1839.513 9        56.832 9  26326123.697 9 103309364.185 9      1839.513 9        56.832 9  26326123.697 9 106004391.077 9      1887.500 9        56.832 9  26326123.697 9 106004391.077 9      1887.500 9        56.832 9  26326123.697 9 104656877.631 9      1863.506 9        59.843 9  26326123.697 9 104656877.631 9      1863.506 9        59.843 9
E24  24085485.785 9 126570082.079 9      1245.015 9        57.795 9  24085485.785 9 126570082.079 9      1245.015 9        57.795 9  24085485.010 9  94516616.692 9       929.719 9        57.655 9  24085485.010 9  94516616.692 9       929.719 9        57.655 9  24085485.010 9  96982267.562 9       953.973 9        57.655 9  24085485.010 9  96982267.562 9       953.973 9        57.655 9  24085485.010 9  95749442.127 9       941.846 9        60.666 9  24085485.010 9  95749442.127 9       941.846 9        60.666 9
> 2023 01 08 10 00 14.0000000  0 20       0.000000000000
G08  25069145.776 9 131739250.222 9     -1484.952 9        54.232 9  25069146.770 8 102653965.280 8     -1157.105 8        49.732 8  25069145.776 9  98376712.828 9     -1108.892 9        56.332 9
G13  20027319.010 9 105244271.740 9       578.291 9        56.112 9  20027316.753 8  82008514.188 8       450.616 8        51.612 8  20027319.010 9  78591501.624 9       431.841 9        58.212 9
G17  24971000.207 9 131223491.773 9      2931.927 9        54.183 9  24970998.039 8 102252062.636 8      2284.618 8        49.683 8  24971000.207 9  97991568.532 9      2189.426 9        56.283 9
G24  24530044.481 9 128906253.795 9      3532.239 9        54.412 9  24530045.023 8 100446433.748 8      2752.394 8        49.912 8  24530044.481 9  96261163.549 9      2637.711 9        56.512 9
G07  24597865.718 9 129262656.800 9     -2972.346 9        54.358 9  24597863.551 8 100724139.280 8     -2316.114 8        49.858 8  24597865.718 9  96527308.650 9     -2219.609 9        56.458 9
G18  24766589.053 9 130149303.910 9     -1366.457 9        54.336 9  24766587.427 8 101415035.351 8     -1064.772 8        49.836 8  24766589.053 9  97189415.257 9     -1020.406 9        56.436 9
G20  23514954.233 9 123571918.537 9     -3649.006 9        54.727 9  23514952.607 8  96289799.995 8     -2843.381 8        50.227 8  23514954.233 9  92277731.375 9     -2724.907 9        56.827 9
G14  20963651.202 9 110164730.616 9       128.137 9        55.781 9  20963649.666 8  85842640.946 8        99.847 8        51.281 8  20963651.202 9  82265870.265 9        95.687 9        57.881 9
G23  24869525.256 9 130690237.308 9      3229.459 9        54.290 9  24869523.631 8 101836541.895 8      2516.461 8        49.790 8  24869525.256 9  97593359.029 9      2411.609 9        56.390 9
G05  21742203.679 9 114256051.498 9     -2429.388 9        55.471 9  21742201.511 8  89030680.603 8     -1893.030 8        50.971 8  21742203.679 9  85321077.417 9     -1814.153 9        57.571 9
G30  21856669.578 9 114857573.856 9     -2262.249 9        55.476 9  21856670.300 8  89499411.158 8     -1762.791 8        50.976 8  21856669.578 9  85770266.191 9     -1689.342 9        57.576 9
G15  21118705.198 9 110979544.865 9      2295.387 9        55.710 9  21118703.121 8  86477558.921 8      1788.613 8        51.210 8  21118705.198 9  82874335.451 9      1714.088 9        57.810 9
E05  23313850.831 9 122515113.026 9       359.973 9        57.976 9  23313850.831 9 122515113.026 9       359.973 9        57.976 9  23313851.772 9  91488562.123 9       268.811 9        57.836 9  23313851.772 9  91488562.123 9       268.811 9        57.836 9  23313851.772 9  93875220.265 9       275.823 9        57.836 9  23313851.772 9  93875220.265 9       275.823 9        57.836 9  23313851.772 9  92681891.194 9       272.317 9        60.847 9  23313851.772 9  92681891.194 9       272.317 9        60.847 9
E09  25215068.745 9 132506080.596 9     -2094.869 9        57.366 9  25215068.745 9 132506080.596 9     -2094.869 9        57.366 9  25215069.243 9  98949347.855 9     -1564.351 9        57.226 9  25215069.243 9  98949347.855 9     -1564.351 9        57.226 9  25215069.243 9 101530635.191 9     -1605.160 9        57.226 9  25215069.243 9 101530635.191 9     -1605.160 9        57.226 9  25215069.243 9 100239991.523 9     -1584.755 9        60.236 9  25215069.243 9 100239991.523 9     -1584.755 9        60.236 9
E13  28147610.581 9 147916691.958 9       326.689 9        56.288 9  28147610.581 9 147916691.958 9       326.689 9        56.288 9  28147610.747 9 110457270.621 9       243.956 9        56.148 9  28147610.747 9 110457270.621 9       243.956 9        56.148 9  28147610.747 9 113338764.637 9       250.320 9        56.148 9  28147610.747 9 113338764.637 9       250.320 9        56.148 9  28147610.747 9 111898017.629 9       247.138 9        59.158 9  28147610.747 9 111898017.629 9       247.138 9        59.158 9
E25  27078133.993 9 142296554.557 9      3130.519 9        56.722 9  27078133.993 9 142296554.557 9      3130.519 9        56.722 9  27078135.045 9 106260418.245 9      2337.725 9        56.582 9  27078135.045 9 106260418.245 9      2337.725 9        56.582 9  27078135.045 9 109032429.156 9      2398.709 9        56.582 9  27078135.045 9 109032429.156 9      2398.709 9        56.582 9  27078135.045 9 107646423.701 9      2368.217 9        59.592 9  27078135.045 9 107646423.701 9      2368.217 9        59.592 9
E31  24967336.620 9 131204239.494 9     -1538.997 9        57.423 9  24967336.620 9 131204239.494 9     -1538.997 9        57.423 9  24967337.617 9  97977195.741 9     -1149.251 9        57.283 9  24967337.617 9  97977195.741 9     -1149.251 9        57.283 9  24967337.617 9 100533122.586 9     -1179.231 9        57.283 9  24967337.617 9 100533122.586 9     -1179.231 9        57.283 9  24967337.617 9  99255159.164 9     -1164.241 9        60.293 9  24967337.617 9  99255159.164 9     -1164.241 9        60.293 9
E15  27825927.635 9 146226236.666 9     -1859.030 9        56.363 9  27825927.635 9 146226236.666 9     -1859.030 9        56.363 9  27825929.241 9 109194923.293 9     -1388.237 9        56.223 9  27825929.241 9 109194923.293 9     -1388.237 9        56.223 9  27825929.241 9 112043486.509 9     -1424.452 9        56.223 9  27825929.241 9 112043486.509 9     -1424.452 9        56.223 9  27825929.241 9 110619204.901 9     -1406.344 9        59.233 9  27825929.241 9 110619204.901 9     -1406.344 9        59.233 9
E03  26325654.061 9 138342245.822 9      2463.249 9        56.972 9  26325654.061 9 138342245.822 9      2463.249 9        56.972 9  26325654.947 9 103307524.707 9      1839.439 9        56.832 9  26325654.947 9 103307524.707 9      1839.439 9        56.832 9  26325654.947 9 106002503.613 9      1887.425 9        56.832 9  26325654.947 9 106002503.613 9      1887.425 9        56.832 9  26325654.947 9 104655014.160 9      1863.432 9        59.843 9  26325654.947 9 104655014.160 9      1863.432 9        59.843 9
E24  24085248.908 9 126568837.281 9      1244.582 9        57.795 9  24085248.908 9 126568837.281 9      1244.582 9        57.795 9  24085248.133 9  94515687.135 9       929.395 9        57.656 9  24085248.133 9  94515687.135 9       929.395 9        57.656 9  24085248.133 9  96981313.756 9       953.641 9        57.656 9  24085248.133 9  96981313.756 9       953.641 9        57.656 9  24085248.133 9  95748500.446 9       941.518 9        60.666 9  24085248.133 9  95748500.446 9       941.518 9        60.666 9
> 2023 01 08 10 00 15.0000000  0 20       0.000000000000
G08  25069428.408 9 131740735.461 9     -1485.529 9        54.232 9  25069429.402 8 102655122.609 8     -1157.555 8        49.732 8  25069428.408 9  98377821.935 9     -1109.324 9        56.332 9
G13  20027209.010 9 105243693.686 9       577.817 9        56.112 9  20027206.753 8  82008063.757 8       450.247 8        51.612 8  20027209.010 9  78591069.960 9       431.487 9        58.212 9
G17  24970442.285 9 131220559.871 9      2931.882 9        54.184 9  24970440.117 8 102249778.037 8      2284.583 8        49.684 8  24970442.285 9  97989379.125 9      2189.392 9        56.284 9
G24  24529372.328 9 128902721.605 9      3532.135 9        54.412 9  24529372.870 8 100443681.392 8      2752.313 8        49.912 8  24529372.328 9  96258525.874 9      2637.633 9        56.512 9
G07  24598431.341 9 129265629.168 9     -2972.396 9        54.358 9  24598429.173 8 100726455.411 8     -2316.152 8        49.858 8  24598431.341 9  96529528.275 9     -2219.646 9        56.458 9
G18  24766849.132 9 130150670.632 9     -1366.984 9        54.336 9  24766847.506 8 101416100.329 8     -1065.183 8        49.836 8  24766849.132 9  97190435.861 9     -1020.800 9        56.436 9
G20  23515648.630 9 123575567.617 9     -3649.154 9        54.726 9  23515647.004 8  96292643.434 8     -2843.496 8        50.226 8  23515648.630 9  92280456.338 9     -2725.017 9        56.826 9
G14  20963626.881 9 110164602.808 9       127.478 9        55.781 9  20963625.345 8  85842541.356 8        99.334 8        51.281 8  20963626.881 9  82265774.824 9        95.195 9        57.881 9
G23  24868910.740 9 130687008.001 9      3229.151 9        54.291 9  24868909.114 8 101834025.552 8      2516.222 8        49.791 8  24868910.740 9  97590947.533 9      2411.379 9        56.391 9
G05  21742666.026 9 114258481.146 9     -2429.907 9        55.471 9  21742663.858 8  89032573.836 8     -1893.434 8        50.971 8  21742666.026 9  85322891.765 9     -1814.541 9        57.571 9
G30  21857100.095 9 114859836.237 9     -2262.517 9        55.476 9  21857100.817 8  89501174.053 8     -1763.001 8        50.976 8  21857100.095 9  85771955.632 9     -1689.542 9        57.576 9
G15  21118268.441 9 110977249.692 9      2294.957 9        55.710 9  21118266.364 8  86475770.475 8      1788.278 8        51.210 8  21118268.441 9  82872621.523 9      1713.766 9        57.810 9
E05  23313782.361 9 122514753.212 9       359.656 9        57.976 9  23313782.361 9 122514753.212 9       359.656 9        57.976 9  23313783.302 9  91488293.430 9       268.574 9        57.836 9  23313783.302 9  91488293.430 9       268.574 9        57.836 9  23313783.302 9  93874944.563 9       275.581 9        57.836 9  23313783.302 9  93874944.563 9       275.581 9        57.836 9  23313783.302 9  92681618.996 9       272.078 9        60.847 9  23313783.302 9  92681618.996 9       272.078 9        60.847 9
E09  25215467.407 9 132508175.582 9     -2095.104 9        57.365 9  25215467.407 9 132508175.582 9     -2095.104 9        57.365 9  25215467.906 9  98950912.292 9     -1564.526 9        57.226 9  25215467.906 9  98950912.292 9     -1564.526 9        57.226 9  25215467.906 9 101532240.439 9     -1605.340 9        57.226 9  25215467.906 9 101532240.439 9     -1605.340 9        57.226 9  25215467.906 9 100241576.366 9     -1584.933 9        60.236 9  25215467.906 9 100241576.366 9     -1584.933 9        60.236 9
E13  28147548.461 9 147916365.516 9       326.195 9        56.288 9  28147548.461 9 147916365.516 9       326.195 9        56.288 9  28147548.627 9 110457026.849 9       243.587 9        56.148 9  28147548.627 9 110457026.849 9       243.587 9        56.148 9  28147548.627 9 113338514.506 9       249.942 9        56.148 9  28147548.627 9 113338514.506 9       249.942 9        56.148 9  28147548.627 9 111897770.677 9       246.764 9        59.158 9  28147548.627 9 111897770.677 9       246.764 9        59.158 9
E25  27077538.286 9 142293424.096 9      3130.400 9        56.722 9  27077538.286 9 142293424.096 9      3130.400 9        56.722 9  27077539.338 9 106258080.564 9      2337.637 9        56.582 9  27077539.338 9 106258080.564 9      2337.637 9        56.582 9  27077539.338 9 109030030.492 9      2398.618 9        56.582 9  27077539.338 9 109030030.492 9      2398.618 9        56.582 9  27077539.338 9 107644055.528 9      2368.128 9        59.592 9  27077539.338 9 107644055.528 9      2368.128 9        59.592 9
E31  24967629.517 9 131205778.677 9     -1539.372 9        57.423 9  24967629.517 9 131205778.677 9     -1539.372 9        57.423 9  24967630.514 9  97978345.131 9     -1149.531 9        57.283 9  24967630.514 9  97978345.131 9     -1149.531 9        57.283 9  24967630.514 9 100534301.961 9     -1179.519 9        57.283 9  24967630.514 9 100534301.961 9     -1179.519 9        57.283 9  24967630.514 9  99256323.546 9     -1164.525 9        60.293 9  24967630.514 9  99256323.546 9     -1164.525 9        60.293 9
E15  27826281.430 9 146228095.872 9     -1859.378 9        56.363 9  27826281.430 9 146228095.872 9     -1859.378 9        56.363 9  27826283.036 9 109196311.660 9     -1388.497 9        56.223 9  27826283.036 9 109196311.660 9     -1388.497 9        56.223 9  27826283.036 9 112044911.095 9     -1424.718 9        56.223 9  27826283.036 9 112044911.095 9     -1424.718 9        56.223 9  27826283.036 9 110620611.378 9     -1406.607 9        59.233 9  27826283.036 9 110620611.378 9     -1406.607 9        59.233 9
E03  26325185.329 9 138339782.620 9      2463.151 9        56.972 9  26325185.329 9 138339782.620 9      2463.151 9        56.972 9  26325186.215 9 103305685.303 9      1839.366 9        56.833 9  26325186.215 9 103305685.303 9      1839.366 9        56.833 9  26325186.215 9 106000616.224 9      1887.349 9        56.833 9  26325186.215 9 106000616.224 9      1887.349 9        56.833 9  26325186.215 9 104653150.764 9      1863.358 9        59.843 9  26325186.215 9 104653150.764 9      1863.358 9        59.843 9
E24  24085012.113 9 126567592.916 9      1244.148 9        57.796 9  24085012.113 9 126567592.916 9      1244.148 9        57.796 9  24085011.338 9  94514757.902 9       929.072 9        57.656 9  24085011.338 9  94514757.902 9       929.072 9        57.656 9  24085011.338 9  96980360.282 9       953.308 9        57.656 9  24085011.338 9  96980360.282 9       953.308 9        57.656 9  24085011.338 9  95747559.092 9       941.190 9        60.666 9  24085011.338 9  95747559.092 9       941.190 9        60.666 9
> 2023 01 08 10 00 16.0000000  0 20       0.000000000000
G08  25069711.150 9 131742221.279 9     -1486.107 9        54.232 9  25069712.143 8 102656280.389 8     -1158.006 8        49.732 8  25069711.150 9  98378931.475 9     -1109.755 9        56.332 9
G13  20027099.101 9 105243116.106 9       577.343 9        56.113 9  20027096.843 8  82007613.694 8       449.878 8        51.613 8  20027099.101 9  78590638.650 9       431.133 9        58.213 9
G17  24969884.371 9 131217628.014 9      2931.837 9        54.184 9  24969882.203 8 102247493.473 8      2284.549 8        49.684 8  24969884.371 9  97987189.751 9      2189.359 9        56.284 9
G24  24528700.194 9 128899189.519 9      3532.030 9        54.413 9  24528700.736 8 100440929.117 8      2752.231 8        49.913 8  24528700.194 9  96255888.277 9      2637.555 9        56.513 9
G07  24598996.973 9 129268601.586 9     -2972.445 9        54.358 9  24598994.806 8 100728771.581 8     -2316.191 8        49.858 8  24598996.973 9  96531747.938 9     -2219.683 9        56.458 9
G18  24767109.311 9 130152037.881 9     -1367.512 9        54.336 9  24767107.685 8 101417165.718 8     -1065.594 8        49.836 8  24767109.311 9  97191456.859 9     -1021.194 9        56.436 9
G20  23516343.055 9 123579216.846 9     -3649.302 9        54.726 9  23516341.429 8  96295486.989 8     -2843.612 8        50.226 8  23516343.055 9  92283181.411 9     -2725.128 9        56.826 9
G14  20963602.685 9 110164475.659 9       126.819 9        55.781 9  20963601.150 8  85842442.279 8        98.820 8        51.281 8  20963602.685 9  82265679.875 9        94.703 9        57.881 9
G23  24868296.282 9 130683779.002 9      3228.843 9        54.291 9  24868294.656 8 101831509.449 8      2515.982 8        49.791 8  24868296.282 9  97588536.268 9      2411.149 9        56.391 9
G05  21743128.471 9 114260911.314 9     -2430.426 9        55.471 9  21743126.304 8  89034467.473 8     -1893.838 8        50.971 8  21743128.471 9  85324706.500 9     -1814.928 9        57.571 9
G30  21857530.663 9 114862098.888 9     -2262.786 9        55.476 9  21857531.385 8  89502937.157 8     -1763.210 8        50.976 8  21857530.663 9  85773645.273 9     -1689.743 9        57.576 9
G15  21117831.766 9 110974954.949 9      2294.526 9        55.711 9  21117829.689 8  86473982.363 8      1787.943 8        51.211 8  21117831.766 9  82870907.916 9      1713.445 9        57.811 9
E05  23313713.950 9 122514393.714 9       359.339 9        57.976 9  23313713.950 9 122514393.714 9       359.339 9        57.976 9  23313714.892 9  91488024.974 9       268.338 9        57.836 9  23313714.892 9  91488024.974 9       268.338 9        57.836 9  23313714.892 9  93874669.104 9       275.338 9        57.836 9  23313714.892 9  93874669.104 9       275.338 9        57.836 9  23313714.892 9  92681347.039 9       271.838 9        60.847 9  23313714.892 9  92681347.039 9       271.838 9        60.847 9
E09  25215866.114 9 132510270.802 9     -2095.340 9        57.365 9  25215866.114 9 132510270.802 9     -2095.340 9        57.365 9  25215866.613 9  98952476.905 9     -1564.702 9        57.225 9  25215866.613 9  98952476.905 9     -1564.702 9        57.225 9  25215866.613 9 101533845.868 9     -1605.520 9        57.225 9  25215866.613 9 101533845.868 9     -1605.520 9        57.225 9  25215866.613 9 100243161.387 9     -1585.111 9        60.236 9  25215866.613 9 100243161.387 9     -1585.111 9        60.236 9
E13  28147486.435 9 147916039.568 9       325.700 9        56.288 9  28147486.435 9 147916039.568 9       325.700 9        56.288 9  28147486.601 9 110456783.446 9       243.218 9        56.148 9  28147486.601 9 110456783.446 9       243.218 9        56.148 9  28147486.601 9 113338264.754 9       249.563 9        56.148 9  28147486.601 9 113338264.754 9       249.563 9        56.148 9  28147486.601 9 111897524.100 9       246.390 9        59.158 9  28147486.601 9 111897524.100 9       246.390 9        59.158 9
E25  27076942.602 9 142290293.754 9      3130.282 9        56.722 9  27076942.602 9 142290293.754 9      3130.282 9        56.722 9  27076943.654 9 106255742.971 9      2337.548 9        56.582 9  27076943.654 9 106255742.971 9      2337.548 9        56.582 9  27076943.654 9 109027631.918 9      2398.528 9        56.582 9  27076943.654 9 109027631.918 9      2398.528 9        56.582 9  27076943.654 9 107641687.444 9      2368.038 9        59.593 9  27076943.654 9 107641687.444 9      2368.038 9        59.593 9
E31  24967922.485 9 131207318.235 9     -1539.746 9        57.423 9  24967922.485 9 131207318.235 9     -1539.746 9        57.423 9  24967923.482 9  97979494.801 9     -1149.811 9        57.283 9  24967923.482 9  97979494.801 9     -1149.811 9        57.283 9  24967923.482 9 100535481.622 9     -1179.806 9        57.283 9  24967923.482 9 100535481.622 9     -1179.806 9        57.283 9  24967923.482 9  99257488.212 9     -1164.808 9        60.293 9  24967923.482 9  99257488.212 9     -1164.808 9        60.293 9
E15  27826635.291 9 146229955.426 9     -1859.726 9        56.362 9  27826635.291 9 146229955.426 9     -1859.726 9        56.362 9  27826636.897 9 109197700.288 9     -1388.756 9        56.223 9  27826636.897 9 109197700.288 9     -1388.756 9        56.223 9  27826636.897 9 112046335.948 9     -1424.985 9        56.223 9  27826636.897 9 112046335.948 9     -1424.985 9        56.223 9  27826636.897 9 110622018.118 9     -1406.871 9        59.233 9  27826636.897 9 110622018.118 9     -1406.871 9        59.233 9
E03  26324716.616 9 138337319.517 9      2463.052 9        56.973 9  26324716.616 9 138337319.517 9      2463.052 9        56.973 9  26324717.502 9 103303845.973 9      1839.292 9        56.833 9  26324717.502 9 103303845.973 9      1839.292 9        56.833 9  26324717.502 9 105998728.911 9      1887.274 9        56.833 9  26324717.502 9 105998728.911 9      1887.274 9        56.833 9  26324717.502 9 104651287.442 9      1863.283 9        59.843 9  26324717.502 9 104651287.442 9      1863.283 9        59.843 9
E24  24084775.401 9 126566348.985 9      1243.715 9        57.796 9  24084775.401 9 126566348.985 9      1243.715 9        57.796 9  24084774.626 9  94513828.992 9       928.748 9        57.656 9  24084774.626 9  94513828.992 9       928.748 9        57.656 9  24084774.626 9  96979407.140 9       952.976 9        57.656 9  24084774.626 9  96979407.140 9       952.976 9        57.656 9  24084774.626 9  95746618.066 9       940.862 9        60.666 9  24084774.626 9  95746618.066 9       940.862 9        60.666 9
> 2023 01 08 10 00 17.0000000  0 20       0.000000000000
G08  25069994.001 9 131743707.675 9     -1486.685 9        54.231 9  25069994.995 8 102657438.620 8     -1158.456 8        49.731 8  25069994.001 9  98380041.445 9     -1110.187 9        56.331 9
G13  20026989.281 9 105242538.999 9       576.870 9        56.113 9  20026987.023 8  82007164.001 8       449.509 8        51.613 8  20026989.281 9  78590207.694 9       430.779 9        58.213 9
G17  24969326.465 9 131214696.202 9      2931.792 9        54.184 9  24969324.298 8 102245208.944 8      2284.514 8        49.684 8  24969326.465 9  97985000.410 9      2189.325 9        56.284 9
G24  24528028.081 9 128895657.537 9      3531.926 9        54.413 9  24528028.622 8 100438176.923 8      2752.150 8        49.913 8  24528028.081 9  96253250.758 9      2637.477 9        56.513 9
G07  24599562.615 9 129271574.054 9     -2972.495 9        54.357 9  24599560.448 8 100731087.789 8     -2316.230 8        49.857 8  24599562.615 9  96533967.637 9     -2219.720 9        56.457 9
G18  24767369.590 9 130153405.658 9     -1368.039 9        54.336 9  24767367.964 8 101418231.518 8     -1066.005 8        49.836 8  24767369.590 9  97192478.251 9     -1021.588 9        56.436 9
G20  23517037.508 9 123582866.222 9     -3649.449 9        54.726 9  23517035.883 8  96298330.659 8     -2843.727 8        50.226 8  23517037.508 9  92285906.594 9     -2725.238 9        56.826 9
G14  20963578.615 9 110164349.169 9       126.160 9        55.781 9  20963577.080 8  85842343.715 8        98.307 8        51.281 8  20963578.615 9  82265585.419 9        94.211 9        57.881 9
G23  24867681.882 9 130680550.311 9      3228.535 9        54.291 9  24867680.256 8 101828993.586 8      2515.742 8        49.791 8  24867681.882 9  97586125.232 9      2410.919 9        56.391 9
G05  21743591.015 9 114263342.000 9     -2430.944 9        55.470 9  21743588.848 8  89036361.514 8     -1894.242 8        50.970 8  21743591.015 9  85326521.623 9     -1815.316 9        57.570 9
G30  21857961.282 9 114864361.807 9     -2263.055 9        55.475 9  21857962.004 8  89504700.470 8     -1763.420 8        50.975 8  21857961.282 9  85775335.116 9     -1689.944 9        57.575 9
G15  21117395.173 9 110972660.636 9      2294.096 9        55.711 9  21117393.095 8  86472194.587 8      1787.607 8        51.211 8  21117395.173 9  82869194.631 9      1713.123 9        57.811 9
E05  23313645.601 9 122514034.533 9       359.022 9        57.976 9  23313645.601 9 122514034.533 9       359.022 9        57.976 9  23313646.542 9  91487756.754 9       268.101 9        57.836 9  23313646.542 9  91487756.754 9       268.101 9        57.836 9  23313646.542 9  93874393.887 9       275.095 9        57.836 9  23313646.542 9  93874393.887 9       275.095 9        57.836 9  23313646.542 9  92681075.321 9       271.598 9        60.847 9  23313646.542 9  92681075.321 9       271.598 9        60.847 9
E09  25216264.866 9 132512366.258 9     -2095.575 9        57.365 9  25216264.866 9 132512366.258 9     -2095.575 9        57.365 9  25216265.365 9  98954041.694 9     -1564.877 9        57.225 9  25216265.365 9  98954041.694 9     -1564.877 9        57.225 9  25216265.365 9 101535451.477 9     -1605.700 9        57.225 9  25216265.365 9 101535451.477 9     -1605.700 9        57.225 9  25216265.365 9 100244746.585 9     -1585.289 9        60.236 9  25216265.365 9 100244746.585 9     -1585.289 9        60.236 9
E13  28147424.504 9 147915714.115 9       325.206 9        56.288 9  28147424.504 9 147915714.115 9       325.206 9        56.288 9  28147424.670 9 110456540.413 9       242.849 9        56.148 9  28147424.670 9 110456540.413 9       242.849 9        56.148 9  28147424.670 9 113338015.380 9       249.184 9        56.148 9  28147424.670 9 113338015.380 9       249.184 9        56.148 9  28147424.670 9 111897277.897 9       246.016 9        59.158 9  28147424.670 9 111897277.897 9       246.016 9        59.158 9
E25  27076346.940 9 142287163.530 9      3130.163 9        56.722 9  27076346.940 9 142287163.530 9      3130.163 9        56.722 9  27076347.992 9 106253405.466 9      2337.460 9        56.582 9  27076347.992 9 106253405.466 9      2337.460 9        56.582 9  27076347.992 9 109025233.435 9      2398.437 9        56.582 9  27076347.992 9 109025233.435 9      2398.437 9        56.582 9  27076347.992 9 107639319.450 9      2367.948 9        59.593 9  27076347.992 9 107639319.450 9      2367.948 9        59.593 9
E31  24968215.524 9 131208858.168 9     -1540.121 9        57.422 9  24968215.524 9 131208858.168 9     -1540.121 9        57.422 9  24968216.521 9  97980644.751 9     -1150.090 9        57.283 9  24968216.521 9  97980644.751 9     -1150.090 9        57.283 9  24968216.521 9 100536661.570 9     -1180.093 9        57.283 9  24968216.521 9 100536661.570 9     -1180.093 9        57.283 9  24968216.521 9  99258653.161 9     -1165.091 9        60.293 9  24968216.521 9  99258653.161 9     -1165.091 9        60.293 9
E15  27826989.219 9 146231815.327 9     -1860.074 9        56.362 9  27826989.219 9 146231815.327 9     -1860.074 9        56.362 9  27826990.824 9 109199089.176 9     -1389.016 9        56.222 9  27826990.824 9 109199089.176 9     -1389.016 9        56.222 9  27826990.824 9 112047761.067 9     -1425.251 9        56.222 9  27826990.824 9 112047761.067 9     -1425.251 9        56.222 9  27826990.824 9 110623425.121 9     -1407.134 9        59.233 9  27826990.824 9 110623425.121 9     -1407.134 9        59.233 9
E03  26324247.922 9 138334856.512 9      2462.954 9        56.973 9  26324247.922 9 138334856.512 9      2462.954 9        56.973 9  26324248.808 9 103302006.716 9      1839.219 9        56.833 9  26324248.808 9 103302006.716 9      1839.219 9        56.833 9  26324248.808 9 105996841.674 9      1887.199 9        56.833 9  26324248.808 9 105996841.674 9      1887.199 9        56.833 9  26324248.808 9 104649424.195 9      1863.209 9        59.843 9  26324248.808 9 104649424.195 9      1863.209 9        59.843 9
E24  24084538.771 9 126565105.487 9      1243.281 9        57.796 9  24084538.771 9 126565105.487 9      1243.281 9        57.796 9  24084537.996 9  94512900.406 9       928.424 9        57.656 9  24084537.996 9  94512900.406 9       928.424 9        57.656 9  24084537.996 9  96978454.330 9       952.644 9        57.656 9  24084537.996 9  96978454.330 9       952.644 9        57.656 9  24084537.996 9  95745677.368 9       940.534 9        60.666 9  24084537.996 9  95745677.368 9       940.534 9        60.666 9
> 2023 01 08 10 00 18.0000000  0 20       0.000000000000
G08  25070276.963 9 131745194.648 9     -1487.263 9        54.231 9  25070277.957 8 102658597.300 8     -1158.906 8        49.731 8  25070276.963 9  98381151.847 9     -1110.618 9        56.331 9
G13  20026879.551 9 105241962.366 9       576.396 9        56.113 9  20026877.293 8  82006714.676 8       449.139 8        51.613 8  20026879.551 9  78589777.092 9       430.425 9        58.213 9
G17  24968768.569 9 131211764.434 9      2931.747 9        54.184 9  24968766.401 8 102242924.450 8      2284.478 8        49.684 8  24968768.569 9  97982811.104 9      2189.292 9        56.284 9
G24  24527355.987 9 128892125.660 9      3531.822 9        54.413 9  24527356.529 8 100435424.811 8      2752.069 8        49.913 8  24527355.987 9  96250613.318 9      2637.399 9        56.513 9
G07  24600128.266 9 129274546.571 9     -2972.545 9        54.357 9  24600126.099 8 100733404.037 8     -2316.269 8        49.857 8  24600128.266 9  96536187.374 9     -2219.758 9        56.457 9
G18  24767629.969 9 130154773.962 9     -1368.567 9        54.336 9  24767628.344 8 101419297.729 8     -1066.415 8        49.836 8  24767629.969 9  97193500.036 9     -1021.981 9        56.436 9
G20  23517731.990 9 123586515.746 9     -3649.597 9        54.726 9  23517730.364 8  96301174.444 8     -2843.842 8        50.226 8  23517731.990 9  92288631.888 9     -2725.348 9        56.826 9
G14  20963554.670 9 110164223.339 9       125.502 9        55.781 9  20963553.135 8  85842245.665 8        97.793 8        51.281 8  20963554.670 9  82265491.454 9        93.719 9        57.881 9
G23  24867067.541 9 130677321.928 9      3228.227 9        54.291 9  24867065.915 8 101826477.962 8      2515.502 8        49.791 8  24867067.541 9  97583714.427 9      2410.689 9        56.391 9
G05  21744053.658 9 114265773.205 9     -2431.463 9        55.470 9  21744051.491 8  89038255.959 8     -1894.647 8        50.970 8  21744053.658 9  85328337.133 9     -1815.703 9        57.570 9
G30  21858391.952 9 114866624.995 9     -2263.324 9        55.475 9  21858392.675 8  89506463.993 8     -1763.629 8        50.975 8  21858391.952 9  85777025.158 9     -1690.144 9        57.575 9
G15  21116958.662 9 110970366.755 9      2293.665 9        55.711 9  21116956.584 8  86470407.147 8      1787.272 8        51.211 8  21116958.662 9  82867481.667 9      1712.802 9        57.811 9
E05  23313577.311 9 122513675.669 9       358.706 9        57.976 9  23313577.311 9 122513675.669 9       358.706 9        57.976 9  23313578.252 9  91487488.771 9       267.865 9        57.837 9  23313578.252 9  91487488.771 9       267.865 9        57.837 9  23313578.252 9  93874118.913 9       274.852 9        57.837 9  23313578.252 9  93874118.913 9       274.852 9        57.837 9  23313578.252 9  92680803.842 9       271.358 9        60.847 9  23313578.252 9  92680803.842 9       271.358 9        60.847 9
E09  25216663.663 9 132514461.949 9     -2095.810 9        57.365 9  25216663.663 9 132514461.949 9     -2095.810 9        57.365 9  25216664.162 9  98955606.658 9     -1565.053 9        57.225 9  25216664.162 9  98955606.658 9     -1565.053 9        57.225 9  25216664.162 9 101537057.266 9     -1605.880 9        57.225 9  25216664.162 9 101537057.266 9     -1605.880 9        57.225 9  25216664.162 9 100246331.962 9     -1585.467 9        60.235 9  25216664.162 9 100246331.962 9     -1585.467 9        60.235 9
E13  28147362.666 9 147915389.156 9       324.711 9        56.288 9  28147362.666 9 147915389.156 9       324.711 9        56.288 9  28147362.832 9 110456297.749 9       242.479 9        56.148 9  28147362.832 9 110456297.749 9       242.479 9        56.148 9  28147362.832 9 113337766.386 9       248.805 9        56.148 9  28147362.832 9 113337766.386 9       248.805 9        56.148 9  28147362.832 9 111897032.068 9       245.642 9        59.158 9  28147362.832 9 111897032.068 9       245.642 9        59.158 9
E25  27075751.301 9 142284033.425 9      3130.045 9        56.723 9  27075751.301 9 142284033.425 9      3130.045 9        56.723 9  27075752.353 9 106251068.050 9      2337.371 9        56.583 9  27075752.353 9 106251068.050 9      2337.371 9        56.583 9  27075752.353 9 109022835.042 9      2398.346 9        56.583 9  27075752.353 9 109022835.042 9      2398.346 9        56.583 9  27075752.353 9 107636951.546 9      2367.859 9        59.593 9  27075752.353 9 107636951.546 9      2367.859 9        59.593 9
E31  24968508.635 9 131210398.475 9     -1540.495 9        57.422 9  24968508.635 9 131210398.475 9     -1540.495 9        57.422 9  24968509.632 9  97981794.980 9     -1150.370 9        57.282 9  24968509.632 9  97981794.980 9     -1150.370 9        57.282 9  24968509.632 9 100537841.806 9     -1180.380 9        57.282 9  24968509.632 9 100537841.806 9     -1180.380 9        57.282 9  24968509.632 9  99259818.393 9     -1165.375 9        60.293 9  24968509.632 9  99259818.393 9     -1165.375 9        60.293 9
E15  27827343.212 9 146233675.577 9     -1860.422 9        56.362 9  27827343.212 9 146233675.577 9     -1860.422 9        56.362 9  27827344.818 9 109200478.323 9     -1389.276 9        56.222 9  27827344.818 9 109200478.323 9     -1389.276 9        56.222 9  27827344.818 9 112049186.453 9     -1425.518 9        56.222 9  27827344.818 9 112049186.453 9     -1425.518 9        56.222 9  27827344.818 9 110624832.388 9     -1407.397 9        59.233 9  27827344.818 9 110624832.388 9     -1407.397 9        59.233 9
E03  26323779.246 9 138332393.605 9      2462.856 9        56.973 9  26323779.246 9 138332393.605 9      2462.856 9        56.973 9  26323780.132 9 103300167.532 9      1839.145 9        56.833 9  26323780.132 9 103300167.532 9      1839.145 9        56.833 9  26323780.132 9 105994954.511 9      1887.123 9        56.833 9  26323780.132 9 105994954.511 9      1887.123 9        56.833 9  26323780.132 9 104647561.022 9      1863.134 9        59.843 9  26323780.132 9 104647561.022 9      1863.134 9        59.843 9
E24  24084302.224 9 126563862.423 9      1242.848 9        57.796 9  24084302.224 9 126563862.423 9      1242.848 9        57.796 9  24084301.449 9  94511972.144 9       928.100 9        57.656 9  24084301.449 9  94511972.144 9       928.100 9        57.656 9  24084301.449 9  96977501.852 9       952.312 9        57.656 9  24084301.449 9  96977501.852 9       952.312 9        57.656 9  24084301.449 9  95744736.998 9       940.206 9        60.666 9  24084301.449 9  95744736.998 9       940.206 9        60.666 9
> 2023 01 08 10 00 19.0000000  0 20       0.000000000000
G08  25070560.035 9 131746682.199 9     -1487.840 9        54.231 9  25070561.028 8 102659756.431 8     -1159.356 8        49.731 8  25070560.035 9  98382262.681 9     -1111.050 9        56.331 9
G13  20026769.912 9 105241386.208 9       575.922 9        56.113 9  20026767.654 8  82006265.721 8       448.770 8        51.613 8  20026769.912 9  78589346.843 9       430.071 9        58.213 9
G17  24968210.680 9 131208832.712 9      2931.702 9        54.184 9  24968208.513 8 102240639.991 8      2284.443 8        49.684 8  24968210.680 9  97980621.830 9      2189.258 9        56.284 9
G24  24526683.913 9 128888593.887 9      3531.717 9        54.413 9  24526684.454 8 100432672.780 8      2751.987 8        49.913 8  24526683.913 9  96247975.955 9      2637.321 9        56.513 9
G07  24600693.927 9 129277519.138 9     -2972.595 9        54.357 9  24600691.759 8 100735720.323 8     -2316.308 8        49.857 8  24600693.927 9  96538407.148 9     -2219.795 9        56.457 9
G18  24767890.449 9 130156142.793 9     -1369.094 9        54.336 9  24767888.824 8 101420364.351 8     -1066.826 8        49.836 8  24767890.449 9  97194522.216 9     -1022.375 9        56.436 9
G20  23518426.499 9 123590165.417 9     -3649.745 9        54.725 9  23518424.873 8  96304018.344 8     -2843.957 8        50.225 8  23518426.499 9  92291357.292 9     -2725.459 9        56.825 9
G14  20963530.851 9 110164098.167 9       124.843 9        55.781 9  20963529.315 8  85842148.129 8        97.280 8        51.281 8  20963530.851 9  82265397.982 9        93.227 9        57.881 9
G23  24866453.259 9 130674093.853 9      3227.919 9        54.291 9  24866451.633 8 101823962.579 8      2515.262 8        49.791 8  24866453.259 9  97581303.851 9      2410.459 9        56.391 9
G05  21744516.400 9 114268204.928 9     -2431.982 9        55.470 9  21744514.232 8  89040150.809 8     -1895.051 8        50.970 8  21744516.400 9  85330153.031 9     -1816.090 9        57.570 9
G30  21858822.674 9 114868888.451 9     -2263.592 9        55.475 9  21858823.396 8  89508227.726 8     -1763.838 8        50.975 8  21858822.674 9  85778715.402 9     -1690.345 9        57.575 9
G15  21116522.232 9 110968073.303 9      2293.234 9        55.711 9  21116520.155 8  86468620.042 8      1786.936 8        51.211 8  21116522.232 9  82865769.025 9      1712.480 9        57.811 9
E05  23313509.082 9 122513317.122 9       358.389 9        57.976 9  23313509.082 9 122513317.122 9       358.389 9        57.976 9  23313510.023 9  91487221.025 9       267.628 9        57.837 9  23313510.023 9  91487221.025 9       267.628 9        57.837 9  23313510.023 9  93873844.182 9       274.609 9        57.837 9  23313510.023 9  93873844.182 9       274.609 9        57.837 9  23313510.023 9  92680532.604 9       271.119 9        60.847 9  23313510.023 9  92680532.604 9       271.119 9        60.847 9
E09  25217062.505 9 132516557.875 9     -2096.045 9        57.365 9  25217062.505 9 132516557.875 9     -2096.045 9        57.365 9  25217063.003 9  98957171.797 9     -1565.228 9        57.225 9  25217063.003 9  98957171.797 9     -1565.228 9        57.225 9  25217063.003 9 101538663.236 9     -1606.060 9        57.225 9  25217063.003 9 101538663.236 9     -1606.060 9        57.225 9  25217063.003 9 100247917.516 9     -1585.644 9        60.235 9  25217063.003 9 100247917.516 9     -1585.644 9        60.235 9
E13  28147300.922 9 147915064.692 9       324.217 9        56.288 9  28147300.922 9 147915064.692 9       324.217 9        56.288 9  28147301.089 9 110456055.454 9       242.110 9        56.148 9  28147301.089 9 110456055.454 9       242.110 9        56.148 9  28147301.089 9 113337517.771 9       248.426 9        56.148 9  28147301.089 9 113337517.771 9       248.426 9        56.148 9  28147301.089 9 111896786.612 9       245.268 9        59.159 9  28147301.089 9 111896786.612 9       245.268 9        59.159 9
E25  27075155.684 9 142280903.438 9      3129.926 9        56.723 9  27075155.684 9 142280903.438 9      3129.926 9        56.723 9  27075156.736 9 106248730.722 9      2337.283 9        56.583 9  27075156.736 9 106248730.722 9      2337.283 9        56.583 9  27075156.736 9 109020436.741 9      2398.255 9        56.583 9  27075156.736 9 109020436.741 9      2398.255 9        56.583 9  27075156.736 9 107634583.732 9      2367.769 9        59.593 9  27075156.736 9 107634583.732 9      2367.769 9        59.593 9
E31  24968801.817 9 131211939.157 9     -1540.870 9        57.422 9  24968801.817 9 131211939.157 9     -1540.870 9        57.422 9  24968802.814 9  97982945.489 9     -1150.650 9        57.282 9  24968802.814 9  97982945.489 9     -1150.650 9        57.282 9  24968802.814 9 100539022.328 9     -1180.667 9        57.282 9  24968802.814 9 100539022.328 9     -1180.667 9        57.282 9  24968802.814 9  99260983.909 9     -1165.658 9        60.293 9  24968802.814 9  99260983.909 9     -1165.658 9        60.293 9
E15  27827697.272 9 146235536.174 9     -1860.769 9        56.362 9  27827697.272 9 146235536.174 9     -1860.769 9        56.362 9  27827698.878 9 109201867.730 9     -1389.536 9        56.222 9  27827698.878 9 109201867.730 9     -1389.536 9        56.222 9  27827698.878 9 112050612.106 9     -1425.784 9        56.222 9  27827698.878 9 112050612.106 9     -1425.784 9        56.222 9  27827698.878 9 110626239.918 9     -1407.660 9        59.233 9  27827698.878 9 110626239.918 9     -1407.660 9        59.233 9
E03  26323310.589 9 138329930.797 9      2462.757 9        56.973 9  26323310.589 9 138329930.797 9      2462.757 9        56.973 9  26323311.475 9 103298328.422 9      1839.072 9        56.833 9  26323311.475 9 103298328.422 9      1839.072 9        56.833 9  26323311.475 9 105993067.424 9      1887.048 9        56.833 9  26323311.475 9 105993067.424 9      1887.048 9        56.833 9  26323311.475 9 104645697.923 9      1863.060 9        59.844 9  26323311.475 9 104645697.923 9      1863.060 9        59.844 9
E24  24084065.759 9 126562619.793 9      1242.414 9        57.796 9  24084065.759 9 126562619.793 9      1242.414 9        57.796 9  24084064.984 9  94511044.206 9       927.777 9        57.656 9  24084064.984 9  94511044.206 9       927.777 9        57.656 9  24084064.984 9  96976549.707 9       951.980 9        57.656 9  24084064.984 9  96976549.707 9       951.980 9        57.656 9  24084064.984 9  95743796.956 9       939.878 9        60.666 9  24084064.984 9  95743796.956 9       939.878 9        60.666 9
> 2023 01 08 10 00 20.0000000  0 20       0.000000000000
G08  25070843.216 9 131748170.327 9     -1488.418 9        54.231 9  25070844.209 8 102660916.011 8     -1159.806 8        49.731 8  25070843.216 9  98383373.945 9     -1111.481 9        56.331 9
G13  20026660.363 9 105240810.523 9       575.448 9        56.113 9  20026658.105 8  82005817.136 8       448.401 8        51.613 8  20026660.363 9  78588916.949 9       429.718 9        58.213 9
G17  24967652.801 9 131205901.035 9      2931.657 9        54.185 9  24967650.633 8 102238355.567 8      2284.408 8        49.685 8  24967652.801 9  97978432.591 9      2189.224 9        56.285 9
G24  24526011.858 9 128885062.219 9      3531.613 9        54.414 9  24526012.400 8 100429920.831 8      2751.906 8        49.914 8  24526011.858 9  96245338.670 9      2637.243 9        56.514 9
G07  24601259.597 9 129280491.755 9     -2972.644 9        54.357 9  24601257.430 8 100738036.647 8     -2316.346 8        49.857 8  24601259.597 9  96540626.960 9     -2219.832 9        56.457 9
G18  24768151.030 9 130157512.152 9     -1369.621 9        54.336 9  24768149.404 8 101421431.383 8     -1067.237 8        49.836 8  24768151.030 9  97195544.789 9     -1022.769 9        56.436 9
G20  23519121.036 9 123593815.236 9     -3649.892 9        54.725 9  23519119.411 8  96306862.359 8     -2844.072 8        50.225 8  23519121.036 9  92294082.806 9     -2725.569 9        56.825 9
G14  20963507.157 9 110163973.654 9       124.184 9        55.781 9  20963505.621 8  85842051.105 8        96.766 8        51.281 8  20963507.157 9  82265305.001 9        92.735 9        57.881 9
G23  24865839.035 9 130670866.086 9      3227.611 9        54.292 9  24865837.410 8 101821447.436 8      2515.022 8        49.792 8  24865839.035 9  97578893.505 9      2410.229 9        56.392 9
G05  21744979.240 9 114270637.170 9     -2432.500 9        55.470 9  21744977.073 8  89042046.062 8     -1895.454 8        50.970 8  21744979.240 9  85331969.315 9     -1816.477 9        57.570 9
G30  21859253.446 9 114871152.177 9     -2263.861 9        55.475 9  21859254.169 8  89509991.668 8     -1764.048 8        50.975 8  21859253.446 9  85780405.846 9     -1690.546 9        57.575 9
G15  21116085.885 9 110965780.283 9      2292.804 9        55.711 9  21116083.808 8  86466833.273 8      1786.600 8        51.211 8  21116085.885 9  82864056.705 9      1712.159 9        57.811 9
E05  23313440.913 9 122512958.892 9       358.072 9        57.976 9  23313440.913 9 122512958.892 9       358.072 9        57.976 9  23313441.854 9  91486953.516 9       267.391 9        57.837 9  23313441.854 9  91486953.516 9       267.391 9        57.837 9  23313441.854 9  93873569.694 9       274.367 9        57.837 9  23313441.854 9  93873569.694 9       274.367 9        57.837 9  23313441.854 9  92680261.605 9       270.879 9        60.847 9  23313441.854 9  92680261.605 9       270.879 9        60.847 9
E09  25217461.391 9 132518654.036 9     -2096.280 9        57.365 9  25217461.391 9 132518654.036 9     -2096.280 9        57.365 9  25217461.889 9  98958737.112 9     -1565.404 9        57.225 9  25217461.889 9  98958737.112 9     -1565.404 9        57.225 9  25217461.889 9 101540269.385 9     -1606.240 9        57.225 9  25217461.889 9 101540269.385 9     -1606.240 9        57.225 9  25217461.889 9 100249503.249 9     -1585.822 9        60.235 9  25217461.889 9 100249503.249 9     -1585.822 9        60.235 9
E13  28147239.273 9 147914740.722 9       323.722 9        56.288 9  28147239.273 9 147914740.722 9       323.722 9        56.288 9  28147239.439 9 110455813.529 9       241.741 9        56.148 9  28147239.439 9 110455813.529 9       241.741 9        56.148 9  28147239.439 9 113337269.534 9       248.047 9        56.148 9  28147239.439 9 113337269.534 9       248.047 9        56.148 9  28147239.439 9 111896541.532 9       244.894 9        59.159 9  28147239.439 9 111896541.532 9       244.894 9        59.159 9
E25  27074560.090 9 142277773.570 9      3129.808 9        56.723 9  27074560.090 9 142277773.570 9      3129.808 9        56.723 9  27074561.142 9 106246393.483 9      2337.194 9        56.583 9  27074561.142 9 106246393.483 9      2337.194 9        56.583 9  27074561.142 9 109018038.530 9      2398.164 9        56.583 9  27074561.142 9 109018038.530 9      2398.164 9        56.583 9  27074561.142 9 107632216.007 9      2367.679 9        59.593 9  27074561.142 9 107632216.007 9      2367.679 9        59.593 9
E31  24969095.070 9 131213480.213 9     -1541.244 9        57.422 9  24969095.070 9 131213480.213 9     -1541.244 9        57.422 9  24969096.067 9  97984096.278 9     -1150.929 9        57.282 9  24969096.067 9  97984096.278 9     -1150.929 9        57.282 9  24969096.067 9 100540203.138 9     -1180.953 9        57.282 9  24969096.067 9 100540203.138 9     -1180.953 9        57.282 9  24969096.067 9  99262149.708 9     -1165.941 9        60.293 9  24969096.067 9  99262149.708 9     -1165.941 9        60.293 9
E15  27828051.398 9 146237397.119 9     -1861.117 9        56.362 9  27828051.398 9 146237397.119 9     -1861.117 9        56.362 9  27828053.004 9 109203257.397 9     -1389.795 9        56.222 9  27828053.004 9 109203257.397 9     -1389.795 9        56.222 9  27828053.004 9 112052038.024 9     -1426.051 9        56.222 9  27828053.004 9 112052038.024 9     -1426.051 9        56.222 9  27828053.004 9 110627647.711 9     -1407.923 9        59.232 9  27828053.004 9 110627647.711 9     -1407.923 9        59.232 9
E03  26322841.951 9 138327468.087 9      2462.658 9        56.973 9  26322841.951 9 138327468.087 9      2462.658 9        56.973 9  26322842.837 9 103296489.386 9      1838.998 9        56.833 9  26322842.837 9 103296489.386 9      1838.998 9        56.833 9  26322842.837 9 105991180.413 9      1886.972 9        56.833 9  26322842.837 9 105991180.413 9      1886.972 9        56.833 9  26322842.837 9 104643834.899 9      1862.985 9        59.844 9  26322842.837 9 104643834.899 9      1862.985 9        59.844 9
E24  24083829.377 9 126561377.596 9      1241.980 9        57.796 9  24083829.377 9 126561377.596 9      1241.980 9        57.796 9  24083828.602 9  94510116.591 9       927.453 9        57.656 9  24083828.602 9  94510116.591 9       927.453 9        57.656 9  24083828.602 9  96975597.894 9       951.647 9        57.656 9  24083828.602 9  96975597.894 9       951.647 9        57.656 9  24083828.602 9  95742857.243 9       939.550 9        60.666 9  24083828.602 9  95742857.243 9       939.550 9        60.666 9
> 2023 01 08 10 00 21.0000000  0 20       0.000000000000
G08  25071126.507 9 131749659.033 9     -1488.995 9        54.231 9  25071127.501 8 102662076.042 8     -1160.256 8        49.731 8  25071126.507 9  98384485.641 9     -1111.912 9        56.331 9
G13  20026550.904 9 105240235.312 9       574.974 9        56.113 9  20026548.646 8  82005368.920 8       448.032 8        51.613 8  20026550.904 9  78588487.408 9       429.364 9        58.213 9
G17  24967094.930 9 131202969.403 9      2931.612 9        54.185 9  24967092.762 8 102236071.179 8      2284.373 8        49.685 8  24967094.930 9  97976243.385 9      2189.190 9        56.285 9
G24  24525339.824 9 128881530.654 9      3531.508 9        54.414 9  24525340.366 8 100427168.963 8      2751.825 8        49.914 8  24525339.824 9  96242701.463 9      2637.165 9        56.514 9
G07  24601825.277 9 129283464.421 9     -2972.694 9        54.357 9  24601823.109 8 100740353.011 8     -2316.385 8        49.857 8  24601825.277 9  96542846.808 9     -2219.869 9        56.457 9
G18  24768411.710 9 130158882.037 9     -1370.148 9        54.336 9  24768410.085 8 101422498.827 8     -1067.648 8        49.836 8  24768411.710 9  97196567.755 9     -1023.162 9        56.436 9
G20  23519815.602 9 123597465.203 9     -3650.039 9        54.725 9  23519813.976 8  96309706.488 8     -2844.187 8        50.225 8  23519815.602 9  92296808.431 9     -2725.679 9        56.825 9
G14  20963483.588 9 110163849.799 9       123.525 9        55.781 9  20963482.053 8  85841954.596 8        96.253 8        51.281 8  20963483.588 9  82265212.513 9        92.242 9        57.881 9
G23  24865224.870 9 130667638.627 9      3227.303 9        54.292 9  24865223.245 8 101818932.533 8      2514.782 8        49.792 8  24865224.870 9  97576483.390 9      2409.999 9        56.392 9
G05  21745442.179 9 114273069.930 9     -2433.018 9        55.470 9  21745440.011 8  89043941.719 8     -1895.858 8        50.970 8  21745442.179 9  85333785.987 9     -1816.864 9        57.570 9
G30  21859684.270 9 114873416.170 9     -2264.130 9        55.475 9  21859684.992 8  89511755.819 8     -1764.257 8        50.975 8  21859684.270 9  85782096.491 9     -1690.746 9        57.575 9
G15  21115649.620 9 110963487.693 9      2292.373 9        55.711 9  21115647.542 8  86465046.839 8      1786.265 8        51.211 8  21115649.620 9  82862344.706 9      1711.837 9        57.811 9
E05  23313372.804 9 122512600.978 9       357.755 9        57.976 9  23313372.804 9 122512600.978 9       357.755 9        57.976 9  23313373.746 9  91486686.243 9       267.154 9        57.837 9  23313373.746 9  91486686.243 9       267.154 9        57.837 9  23313373.746 9  93873295.449 9       274.124 9        57.837 9  23313373.746 9  93873295.449 9       274.124 9        57.837 9  23313373.746 9  92679990.846 9       270.639 9        60.847 9  23313373.746 9  92679990.846 9       270.639 9        60.847 9
E09  25217860.322 9 132520750.432 9     -2096.515 9        57.365 9  25217860.322 9 132520750.432 9     -2096.515 9        57.365 9  25217860.820 9  98960302.603 9     -1565.579 9        57.225 9  25217860.820 9  98960302.603 9     -1565.579 9        57.225 9  25217860.820 9 101541875.714 9     -1606.421 9        57.225 9  25217860.820 9 101541875.714 9     -1606.421 9        57.225 9  25217860.820 9 100251089.159 9     -1586.000 9        60.235 9  25217860.820 9 100251089.159 9     -1586.000 9        60.235 9
E13  28147177.718 9 147914417.247 9       323.228 9        56.288 9  28147177.718 9 147914417.247 9       323.228 9        56.288 9  28147177.884 9 110455571.973 9       241.371 9        56.148 9  28147177.884 9 110455571.973 9       241.371 9        56.148 9  28147177.884 9 113337021.677 9       247.668 9        56.148 9  28147177.884 9 113337021.677 9       247.668 9        56.148 9  28147177.884 9 111896296.825 9       244.520 9        59.159 9  28147177.884 9 111896296.825 9       244.520 9        59.159 9
E25  27073964.519 9 142274643.821 9      3129.689 9        56.723 9  27073964.519 9 142274643.821 9      3129.689 9        56.723 9  27073965.571 9 106244056.333 9      2337.105 9        56.583 9  27073965.571 9 106244056.333 9      2337.105 9        56.583 9  27073965.571 9 109015640.411 9      2398.073 9        56.583 9  27073965.571 9 109015640.411 9      2398.073 9        56.583 9  27073965.571 9 107629848.372 9      2367.589 9        59.594 9  27073965.571 9 107629848.372 9      2367.589 9        59.594 9
E31  24969388.395 9 131215021.644 9     -1541.619 9        57.422 9  24969388.395 9 131215021.644 9     -1541.619 9        57.422 9  24969389.392 9  97985247.346 9     -1151.209 9        57.282 9  24969389.392 9  97985247.346 9     -1151.209 9        57.282 9  24969389.392 9 100541384.234 9     -1181.240 9        57.282 9  24969389.392 9 100541384.234 9     -1181.240 9        57.282 9  24969389.392 9  99263315.790 9     -1166.225 9        60.292 9  24969389.392 9  99263315.790 9     -1166.225 9        60.292 9
E15  27828405.590 9 146239258.411 9     -1861.465 9        56.362 9  27828405.590 9 146239258.411 9     -1861.465 9        56.362 9  27828407.196 9 109204647.323 9     -1390.055 9        56.222 9  27828407.196 9 109204647.323 9     -1390.055 9        56.222 9  27828407.196 9 112053464.210 9     -1426.317 9        56.222 9  27828407.196 9 112053464.210 9     -1426.317 9        56.222 9  27828407.196 9 110629055.766 9     -1408.186 9        59.232 9  27828407.196 9 110629055.766 9     -1408.186 9        59.232 9
E03  26322373.332 9 138325005.476 9      2462.560 9        56.973 9  26322373.332 9 138325005.476 9      2462.560 9        56.973 9  26322374.218 9 103294650.423 9      1838.925 9        56.834 9  26322374.218 9 103294650.423 9      1838.925 9        56.834 9  26322374.218 9 105989293.477 9      1886.897 9        56.834 9  26322374.218 9 105989293.477 9      1886.897 9        56.834 9  26322374.218 9 104641971.950 9      1862.911 9        59.844 9  26322374.218 9 104641971.950 9      1862.911 9        59.844 9
E24  24083593.077 9 126560135.833 9      1241.547 9        57.796 9  24083593.077 9 126560135.833 9      1241.547 9        57.796 9  24083592.302 9  94509189.301 9       927.129 9        57.656 9  24083592.302 9  94509189.301 9       927.129 9        57.656 9  24083592.302 9  96974646.413 9       951.315 9        57.656 9  24083592.302 9  96974646.413 9       951.315 9        57.656 9  24083592.302 9  95741917.857 9       939.222 9        60.666 9  24083592.302 9  95741917.857 9       939.222 9        60.666 9
> 2023 01 08 10 00 22.0000000  0 20       0.000000000000
G08  25071409.909 9 131751148.316 9     -1489.573 9        54.231 9  25071410.902 8 102663236.522 8     -1160.706 8        49.731 8  25071409.909 9  98385597.769 9     -1112.343 9        56.331 9
G13  20026441.535 9 105239660.575 9       574.500 9        56.113 9  20026439.277 8  82004921.073 8       447.662 8        51.613 8  20026441.535 9  78588058.222 9       429.010 9        58.213 9
G17  24966537.067 9 131200037.817 9      2931.566 9        54.185 9  24966534.900 8 102233786.825 8      2284.337 8        49.685 8  24966537.067 9  97974054.214 9      2189.157 9        56.285 9
G24  24524667.810 9 128877999.195 9      3531.404 9        54.414 9  24524668.352 8 100424417.176 8      2751.743 8        49.914 8  24524667.810 9  96240064.334 9      2637.087 9        56.514 9
G07  24602390.966 9 129286437.137 9     -2972.744 9        54.356 9  24602388.798 8 100742669.413 8     -2316.424 8        49.856 8  24602390.966 9  96545066.693 9     -2219.906 9        56.456 9
G18  24768672.491 9 130160252.450 9     -1370.675 9        54.336 9  24768670.865 8 101423566.681 8     -1068.058 8        49.836 8  24768672.491 9  97197591.115 9     -1023.556 9        56.436 9
G20  23520510.196 9 123601115.317 9     -3650.187 9        54.725 9  23520508.570 8  96312550.733 8     -2844.301 8        50.225 8  23520510.196 9  92299534.165 9     -2725.789 9        56.825 9
G14  20963460.145 9 110163726.604 9       122.866 9        55.781 9  20963458.609 8  85841858.600 8        95.740 8        51.281 8  20963460.145 9  82265120.516 9        91.750 9        57.881 9
G23  24864610.764 9 130664411.476 9      3226.995 9        54.292 9  24864609.138 8 101816417.870 8      2514.541 8        49.792 8  24864610.764 9  97574073.505 9      2409.769 9        56.392 9
G05  21745905.216 9 114275503.209 9     -2433.536 9        55.469 9  21745903.049 8  89045837.780 8     -1896.262 8        50.969 8  21745905.216 9  85335603.045 9     -1817.251 9        57.569 9
G30  21860115.145 9 114875680.433 9     -2264.398 9        55.475 9  21860115.867 8  89513520.179 8     -1764.466 8        50.975 8  21860115.145 9  85783787.336 9     -1690.947 9        57.575 9
G15  21115213.436 9 110961195.534 9      2291.942 9        55.712 9  21115211.359 8  86463260.742 8      1785.929 8        51.212 8  21115213.436 9  82860633.029 9      1711.515 9        57.812 9
E05  23313304.756 9 122512243.382 9       357.438 9        57.976 9  23313304.756 9 122512243.382 9       357.438 9        57.976 9  23313305.697 9  91486419.206 9       266.918 9        57.837 9  23313305.697 9  91486419.206 9       266.918 9        57.837 9  23313305.697 9  93873021.447 9       273.881 9        57.837 9  23313305.697 9  93873021.447 9       273.881 9        57.837 9  23313305.697 9  92679720.327 9       270.399 9        60.847 9  23313305.697 9  92679720.327 9       270.399 9        60.847 9
E09  25218259.297 9 132522847.063 9     -2096.750 9        57.364 9  25218259.297 9 132522847.063 9     -2096.750 9        57.364 9  25218259.796 9  98961868.269 9     -1565.755 9        57.225 9  25218259.796 9  98961868.269 9     -1565.755 9        57.225 9  25218259.796 9 101543482.224 9     -1606.601 9        57.225 9  25218259.796 9 101543482.224 9     -1606.601 9        57.225 9  25218259.796 9 100252675.247 9     -1586.178 9        60.235 9  25218259.796 9 100252675.247 9     -1586.178 9        60.235 9
E13  28147116.257 9 147914094.267 9       322.733 9        56.288 9  28147116.257 9 147914094.267 9       322.733 9        56.288 9  28147116.423 9 110455330.786 9       241.002 9        56.148 9  28147116.423 9 110455330.786 9       241.002 9        56.148 9  28147116.423 9 113336774.198 9       247.289 9        56.148 9  28147116.423 9 113336774.198 9       247.289 9        56.148 9  28147116.423 9 111896052.492 9       244.145 9        59.159 9  28147116.423 9 111896052.492 9       244.145 9        59.159 9
E25  27073368.970 9 142271514.191 9      3129.570 9        56.723 9  27073368.970 9 142271514.191 9      3129.570 9        56.723 9  27073370.022 9 106241719.271 9      2337.017 9        56.583 9  27073370.022 9 106241719.271 9      2337.017 9        56.583 9  27073370.022 9 109013242.382 9      2397.982 9        56.583 9  27073370.022 9 109013242.382 9      2397.982 9        56.583 9  27073370.022 9 107627480.827 9      2367.499 9        59.594 9  27073370.022 9 107627480.827 9      2367.499 9        59.594 9
E31  24969681.791 9 131216563.449 9     -1541.993 9        57.422 9  24969681.791 9 131216563.449 9     -1541.993 9        57.422 9  24969682.787 9  97986398.694 9     -1151.488 9        57.282 9  24969682.787 9  97986398.694 9     -1151.488 9        57.282 9  24969682.787 9 100542565.617 9     -1181.527 9        57.282 9  24969682.787 9 100542565.617 9     -1181.527 9        57.282 9  24969682.787 9  99264482.156 9     -1166.508 9        60.292 9  24969682.787 9  99264482.156 9     -1166.508 9        60.292 9
E15  27828759.849 9 146241120.052 9     -1861.812 9        56.362 9  27828759.849 9 146241120.052 9     -1861.812 9        56.362 9  27828761.455 9 109206037.509 9     -1390.314 9        56.222 9  27828761.455 9 109206037.509 9     -1390.314 9        56.222 9  27828761.455 9 112054890.661 9     -1426.583 9        56.222 9  27828761.455 9 112054890.661 9     -1426.583 9        56.222 9  27828761.455 9 110630464.085 9     -1408.449 9        59.232 9  27828761.455 9 110630464.085 9     -1408.449 9        59.232 9
E03  26321904.731 9 138322542.963 9      2462.461 9        56.974 9  26321904.731 9 138322542.963 9      2462.461 9        56.974 9  26321905.617 9 103292811.534 9      1838.851 9        56.834 9  26321905.617 9 103292811.534 9      1838.851 9        56.834 9  26321905.617 9 105987406.617 9      1886.821 9        56.834 9  26321905.617 9 105987406.617 9      1886.821 9        56.834 9  26321905.617 9 104640109.075 9      1862.836 9        59.844 9  26321905.617 9 104640109.075 9      1862.836 9        59.844 9
E24  24083356.860 9 126558894.503 9      1241.113 9        57.796 9  24083356.860 9 126558894.503 9      1241.113 9        57.796 9  24083356.085 9  94508262.334 9       926.805 9        57.656 9  24083356.085 9  94508262.334 9       926.805 9        57.656 9  24083356.085 9  96973695.264 9       950.983 9        57.656 9  24083356.085 9  96973695.264 9       950.983 9        57.656 9  24083356.085 9  95740978.799 9       938.894 9        60.667 9  24083356.085 9  95740978.799 9       938.894 9        60.667 9
> 2023 01 08 10 00 23.0000000  0 20       0.000000000000
G08  25071693.420 9 131752638.177 9     -1490.150 9        54.231 9  25071694.413 8 102664397.453 8     -1161.156 8        49.731 8  25071693.420 9  98386710.327 9     -1112.775 9        56.331 9
G13  20026332.256 9 105239086.312 9       574.026 9        56.113 9  20026329.998 8  82004473.595 8       447.293 8        51.613 8  20026332.256 9  78587629.389 9       428.656 9        58.213 9
G17  24965979.214 9 131197106.276 9      2931.521 9        54.185 9  24965977.046 8 102231502.508 8      2284.302 8        49.685 8  24965979.214 9  97971865.076 9      2189.123 9        56.285 9
G24  24523995.815 9 128874467.840 9      3531.299 9        54.414 9  24523996.357 8 100421665.471 8      2751.662 8        49.914 8  24523995.815 9  96237427.283 9      2637.009 9        56.514 9
G07  24602956.664 9 129289409.903 9     -2972.793 9        54.356 9  24602954.497 8 100744985.854 8     -2316.462 8        49.856 8  24602956.664 9  96547286.616 9     -2219.943 9        56.456 9
G18  24768933.372 9 130161623.389 9     -1371.202 9        54.335 9  24768931.746 8 101424634.945 8     -1068.469 8        49.835 8  24768933.372 9  97198614.869 9     -1023.949 9        56.435 9
G20  23521204.817 9 123604765.577 9     -3650.334 9        54.724 9  23521203.191 8  96315395.092 8     -2844.416 8        50.224 8  23521204.817 9  92302260.009 9     -2725.899 9        56.824 9
G14  20963436.827 9 110163604.068 9       122.207 9        55.781 9  20963435.291 8  85841763.117 8        95.226 8        51.281 8  20963436.827 9  82265029.012 9        91.258 9        57.881 9
G23  24863996.716 9 130661184.634 9      3226.686 9        54.292 9  24863995.091 8 101813903.448 8      2514.301 8        49.792 8  24863996.716 9  97571663.850 9      2409.538 9        56.392 9
G05  21746368.353 9 114277937.005 9     -2434.055 9        55.469 9  21746366.185 8  89047734.245 8     -1896.666 8        50.969 8  21746368.353 9  85337420.491 9     -1817.638 9        57.569 9
G30  21860546.071 9 114877944.964 9     -2264.667 9        55.474 9  21860546.793 8  89515284.748 8     -1764.675 8        50.974 8  21860546.071 9  85785478.382 9     -1691.147 9        57.574 9
G15  21114777.335 9 110958903.806 9      2291.511 9        55.712 9  21114775.258 8  86461474.980 8      1785.593 8        51.212 8  21114777.335 9  82858921.674 9      1711.193 9        57.812 9
E05  23313236.768 9 122511886.103 9       357.121 9        57.977 9  23313236.768 9 122511886.103 9       357.121 9        57.977 9  23313237.709 9  91486152.407 9       266.681 9        57.837 9  23313237.709 9  91486152.407 9       266.681 9        57.837 9  23313237.709 9  93872747.687 9       273.638 9        57.837 9  23313237.709 9  93872747.687 9       273.638 9        57.837 9  23313237.709 9  92679450.047 9       270.159 9        60.847 9  23313237.709 9  92679450.047 9       270.159 9        60.847 9
E09  25218658.318 9 132524943.930 9     -2096.985 9        57.364 9  25218658.318 9 132524943.930 9     -2096.985 9        57.364 9  25218658.816 9  98963434.111 9     -1565.930 9        57.224 9  25218658.816 9  98963434.111 9     -1565.930 9        57.224 9  25218658.816 9 101545088.914 9     -1606.781 9        57.224 9  25218658.816 9 101545088.914 9     -1606.781 9        57.224 9  25218658.816 9 100254261.512 9     -1586.356 9        60.235 9  25218658.816 9 100254261.512 9     -1586.356 9        60.235 9
E13  28147054.890 9 147913771.781 9       322.239 9        56.288 9  28147054.890 9 147913771.781 9       322.239 9        56.288 9  28147055.056 9 110455089.969 9       240.633 9        56.148 9  28147055.056 9 110455089.969 9       240.633 9        56.148 9  28147055.056 9 113336527.098 9       246.910 9        56.148 9  28147055.056 9 113336527.098 9       246.910 9        56.148 9  28147055.056 9 111895808.534 9       243.771 9        59.159 9  28147055.056 9 111895808.534 9       243.771 9        59.159 9
E25  27072773.444 9 142268384.679 9      3129.451 9        56.723 9  27072773.444 9 142268384.679 9      3129.451 9        56.723 9  27072774.496 9 106239382.298 9      2336.928 9        56.584 9  27072774.496 9 106239382.298 9      2336.928 9        56.584 9  27072774.496 9 109010844.445 9      2397.891 9        56.584 9  27072774.496 9 109010844.445 9      2397.891 9        56.584 9  27072774.496 9 107625113.371 9      2367.410 9        59.594 9  27072774.496 9 107625113.371 9      2367.410 9        59.594 9
E31  24969975.258 9 131218105.628 9     -1542.367 9        57.422 9  24969975.258 9 131218105.628 9     -1542.367 9        57.422 9  24969976.254 9  97987550.322 9     -1151.768 9        57.282 9  24969976.254 9  97987550.322 9     -1151.768 9        57.282 9  24969976.254 9 100543747.287 9     -1181.814 9        57.282 9  24969976.254 9 100543747.287 9     -1181.814 9        57.282 9  24969976.254 9  99265648.804 9     -1166.791 9        60.292 9  24969976.254 9  99265648.804 9     -1166.791 9        60.292 9
E15  27829114.173 9 146242982.039 9     -1862.160 9        56.362 9  27829114.173 9 146242982.039 9     -1862.160 9        56.362 9  27829115.779 9 109207427.954 9     -1390.574 9        56.222 9  27829115.779 9 109207427.954 9     -1390.574 9        56.222 9  27829115.779 9 112056317.379 9     -1426.850 9        56.222 9  27829115.779 9 112056317.379 9     -1426.850 9        56.222 9  27829115.779 9 110631872.666 9     -1408.712 9        59.232 9  27829115.779 9 110631872.666 9     -1408.712 9        59.232 9
E03  26321436.150 9 138320080.550 9      2462.363 9        56.974 9  26321436.150 9 138320080.550 9      2462.363 9        56.974 9  26321437.035 9 103290972.718 9      1838.777 9        56.834 9  26321437.035 9 103290972.718 9      1838.777 9        56.834 9  26321437.035 9 105985519.833 9      1886.745 9        56.834 9  26321437.035 9 105985519.833 9      1886.745 9        56.834 9  26321437.035 9 104638246.275 9      1862.761 9        59.844 9  26321437.035 9 104638246.275 9      1862.761 9        59.844 9
E24  24083120.726 9 126557653.607 9      1240.679 9        57.796 9  24083120.726 9 126557653.607 9      1240.679 9        57.796 9  24083119.950 9  94507335.690 9       926.481 9        57.656 9  24083119.950 9  94507335.690 9       926.481 9        57.656 9  24083119.950 9  96972744.448 9       950.650 9        57.656 9  24083119.950 9  96972744.448 9       950.650 9        57.656 9  24083119.950 9  95740040.069 9       938.566 9        60.667 9  24083119.950 9  95740040.069 9       938.566 9        60.667 9
> 2023 01 08 10 00 24.0000000  0 20       0.000000000000
G08  25071977.041 9 131754128.616 9     -1490.728 9        54.231 9  25071978.034 8 102665558.834 8     -1161.606 8        49.731 8  25071977.041 9  98387823.317 9     -1113.206 9        56.331 9
G13  20026223.068 9 105238512.523 9       573.552 9        56.113 9  20026220.810 8  82004026.487 8       446.923 8        51.613 8  20026223.068 9  78587200.910 9       428.302 9        58.213 9
G17  24965421.369 9 131194174.780 9      2931.475 9        54.185 9  24965419.201 8 102229218.226 8      2284.266 8        49.685 8  24965421.369 9  97969675.972 9      2189.088 9        56.285 9
G24  24523323.841 9 128870936.589 9      3531.195 9        54.414 9  24523324.382 8 100418913.847 8      2751.580 8        49.914 8  24523323.841 9  96234790.310 9      2636.931 9        56.514 9
G07  24603522.372 9 129292382.718 9     -2972.843 9        54.356 9  24603520.205 8 100747302.333 8     -2316.501 8        49.856 8  24603522.372 9  96549506.575 9     -2219.980 9        56.456 9
G18  24769194.354 9 130162994.856 9     -1371.729 9        54.335 9  24769192.728 8 101425703.620 8     -1068.879 8        49.835 8  24769194.354 9  97199639.016 9     -1024.343 9        56.435 9
G20  23521899.467 9 123608415.985 9     -3650.481 9        54.724 9  23521897.841 8  96318239.566 8     -2844.530 8        50.224 8  23521899.467 9  92304985.963 9     -2726.008 9        56.824 9
G14  20963413.634 9 110163482.191 9       121.548 9        55.781 9  20963412.099 8  85841668.148 8        94.713 8        51.281 8  20963413.634 9  82264938.000 9        90.766 9        57.881 9
G23  24863382.727 9 130657958.101 9      3226.377 9        54.292 9  24863381.102 8 101811389.266 8      2514.060 8        49.792 8  24863382.727 9  97569254.426 9      2409.308 9        56.392 9
G05  21746831.587 9 114280371.320 9     -2434.573 9        55.469 9  21746829.420 8  89049631.114 8     -1897.070 8        50.969 8  21746831.587 9  85339238.323 9     -1818.025 9        57.569 9
G30  21860977.048 9 114880209.763 9     -2264.935 9        55.474 9  21860977.770 8  89517049.527 8     -1764.884 8        50.974 8  21860977.048 9  85787169.628 9     -1691.348 9        57.574 9
G15  21114341.316 9 110956612.509 9      2291.080 9        55.712 9  21114339.238 8  86459689.553 8      1785.257 8        51.212 8  21114341.316 9  82857210.640 9      1710.871 9        57.812 9
E05  23313168.840 9 122511529.141 9       356.804 9        57.977 9  23313168.840 9 122511529.141 9       356.804 9        57.977 9  23313169.782 9  91485885.844 9       266.444 9        57.837 9  23313169.782 9  91485885.844 9       266.444 9        57.837 9  23313169.782 9  93872474.171 9       273.395 9        57.837 9  23313169.782 9  93872474.171 9       273.395 9        57.837 9  23313169.782 9  92679180.007 9       269.920 9        60.847 9  23313169.782 9  92679180.007 9       269.920 9        60.847 9
E09  25219057.383 9 132527041.031 9     -2097.220 9        57.364 9  25219057.383 9 132527041.031 9     -2097.220 9        57.364 9  25219057.881 9  98965000.128 9     -1566.106 9        57.224 9  25219057.881 9  98965000.128 9     -1566.106 9        57.224 9  25219057.881 9 101546695.784 9     -1606.961 9        57.224 9  25219057.881 9 101546695.784 9     -1606.961 9        57.224 9  25219057.881 9 100255847.956 9     -1586.533 9        60.235 9  25219057.881 9 100255847.956 9     -1586.533 9        60.235 9
E13  28146993.617 9 147913449.790 9       321.744 9        56.288 9  28146993.617 9 147913449.790 9       321.744 9        56.288 9  28146993.783 9 110454849.521 9       240.263 9        56.148 9  28146993.783 9 110454849.521 9       240.263 9        56.148 9  28146993.783 9 113336280.378 9       246.531 9        56.148 9  28146993.783 9 113336280.378 9       246.531 9        56.148 9  28146993.783 9 111895564.949 9       243.397 9        59.159 9  28146993.783 9 111895564.949 9       243.397 9        59.159 9
E25  27072177.940 9 142265255.286 9      3129.332 9        56.724 9  27072177.940 9 142265255.286 9      3129.332 9        56.724 9  27072178.992 9 106237045.413 9      2336.839 9        56.584 9  27072178.992 9 106237045.413 9      2336.839 9        56.584 9  27072178.992 9 109008446.598 9      2397.800 9        56.584 9  27072178.992 9 109008446.598 9      2397.800 9        56.584 9  27072178.992 9 107622746.006 9      2367.320 9        59.594 9  27072178.992 9 107622746.006 9      2367.320 9        59.594 9
E31  24970268.796 9 131219648.182 9     -1542.742 9        57.422 9  24970268.796 9 131219648.182 9     -1542.742 9        57.422 9  24970269.792 9  97988702.229 9     -1152.047 9        57.282 9  24970269.792 9  97988702.229 9     -1152.047 9        57.282 9  24970269.792 9 100544929.243 9     -1182.101 9        57.282 9  24970269.792 9 100544929.243 9     -1182.101 9        57.282 9  24970269.792 9  99266815.736 9     -1167.074 9        60.292 9  24970269.792 9  99266815.736 9     -1167.074 9        60.292 9
E15  27829468.564 9 146244844.374 9     -1862.507 9        56.362 9  27829468.564 9 146244844.374 9     -1862.507 9        56.362 9  27829470.170 9 109208818.659 9     -1390.833 9        56.222 9  27829470.170 9 109208818.659 9     -1390.833 9        56.222 9  27829470.170 9 112057744.363 9     -1427.116 9        56.222 9  27829470.170 9 112057744.363 9     -1427.116 9        56.222 9  27829470.170 9 110633281.511 9     -1408.974 9        59.232 9  27829470.170 9 110633281.511 9     -1408.974 9        59.232 9
E03  26320967.587 9 138317618.234 9      2462.264 9        56.974 9  26320967.587 9 138317618.234 9      2462.264 9        56.974 9  26320968.472 9 103289133.976 9      1838.704 9        56.834 9  26320968.472 9 103289133.976 9      1838.704 9        56.834 9  26320968.472 9 105983633.124 9      1886.670 9        56.834 9  26320968.472 9 105983633.124 9      1886.670 9        56.834 9  26320968.472 9 104636383.550 9      1862.687 9        59.844 9  26320968.472 9 104636383.550 9      1862.687 9        59.844 9
E24  24082884.673 9 126556413.145 9      1240.246 9        57.796 9  24082884.673 9 126556413.145 9      1240.246 9        57.796 9  24082883.898 9  94506409.371 9       926.158 9        57.656 9  24082883.898 9  94506409.371 9       926.158 9        57.656 9  24082883.898 9  96971793.964 9       950.318 9        57.656 9  24082883.898 9  96971793.964 9       950.318 9        57.656 9  24082883.898 9  95739101.667 9       938.238 9        60.667 9  24082883.898 9  95739101.667 9       938.238 9        60.667 9
> 2023 01 08 10 00 25.0000000  0 20       0.000000000000
G08  25072260.771 9 131755619.631 9     -1491.305 9        54.231 9  25072261.765 8 102666720.664 8     -1162.056 8        49.731 8  25072260.771 9  98388936.738 9     -1113.637 9        56.331 9
G13  20026113.970 9 105237939.208 9       573.078 9        56.113 9  20026111.712 8  82003579.748 8       446.554 8        51.613 8  20026113.970 9  78586772.786 9       427.948 9        58.213 9
G17  24964863.532 9 131191243.331 9      2931.429 9        54.186 9  24964861.365 8 102226933.979 8      2284.231 8        49.686 8  24964863.532 9  97967486.903 9      2189.054 9        56.286 9
G24  24522651.886 9 128867405.444 9      3531.090 9        54.415 9  24522652.428 8 100416162.305 8      2751.499 8        49.915 8  24522651.886 9  96232153.416 9      2636.853 9        56.515 9
G07  24604088.090 9 129295355.583 9     -2972.892 9        54.356 9  24604085.922 8 100749618.852 8     -2316.540 8        49.856 8  24604088.090 9  96551726.572 9     -2220.017 9        56.456 9
G18  24769455.435 9 130164366.849 9     -1372.255 9        54.335 9  24769453.809 8 101426772.706 8     -1069.290 8        49.835 8  24769455.435 9  97200663.556 9     -1024.736 9        56.435 9
G20  23522594.144 9 123612066.540 9     -3650.628 9        54.724 9  23522592.519 8  96321084.154 8     -2844.645 8        50.224 8  23522594.144 9  92307712.027 9     -2726.118 9        56.824 9
G14  20963390.567 9 110163360.973 9       120.889 9        55.781 9  20963389.032 8  85841573.692 8        94.199 8        51.281 8  20963390.567 9  82264847.480 9        90.274 9        57.881 9
G23  24862768.797 9 130654731.876 9      3226.069 9        54.293 9  24862767.171 8 101808875.324 8      2513.820 8        49.793 8  24862768.797 9  97566845.232 9      2409.077 9        56.393 9
G05  21747294.921 9 114282806.153 9     -2435.091 9        55.469 9  21747292.753 8  89051528.386 8     -1897.473 8        50.969 8  21747294.921 9  85341056.543 9     -1818.412 9        57.569 9
G30  21861408.076 9 114882474.831 9     -2265.203 9        55.474 9  21861408.798 8  89518814.515 8     -1765.094 8        50.974 8  21861408.076 9  85788861.075 9     -1691.548 9        57.574 9
G15  21113905.378 9 110954321.644 9      2290.649 9        55.712 9  21113903.301 8  86457904.463 8      1784.921 8        51.212 8  21113905.378 9  82855499.929 9      1710.549 9        57.812 9
E05  23313100.973 9 122511172.495 9       356.487 9        57.977 9  23313100.973 9 122511172.495 9       356.487 9        57.977 9  23313101.914 9  91485619.518 9       266.207 9        57.837 9  23313101.914 9  91485619.518 9       266.207 9        57.837 9  23313101.914 9  93872200.897 9       273.152 9        57.837 9  23313101.914 9  93872200.897 9       273.152 9        57.837 9  23313101.914 9  92678910.208 9       269.680 9        60.847 9  23313101.914 9  92678910.208 9       269.680 9        60.847 9
E09  25219456.493 9 132529138.367 9     -2097.455 9        57.364 9  25219456.493 9 132529138.367 9     -2097.455 9        57.364 9  25219456.991 9  98966566.321 9     -1566.281 9        57.224 9  25219456.991 9  98966566.321 9     -1566.281 9        57.224 9  25219456.991 9 101548302.833 9     -1607.141 9        57.224 9  25219456.991 9 101548302.833 9     -1607.141 9        57.224 9  25219456.991 9 100257434.577 9     -1586.711 9        60.234 9  25219456.991 9 100257434.577 9     -1586.711 9        60.234 9
E13  28146932.438 9 147913128.293 9       321.249 9        56.288 9  28146932.438 9 147913128.293 9       321.249 9        56.288 9  28146932.604 9 110454609.442 9       239.894 9        56.148 9  28146932.604 9 110454609.442 9       239.894 9        56.148 9  28146932.604 9 113336034.036 9       246.152 9        56.148 9  28146932.604 9 113336034.036 9       246.152 9        56.148 9  28146932.604 9 111895321.739 9       243.023 9        59.159 9  28146932.604 9 111895321.739 9       243.023 9        59.159 9
E25  27071582.459 9 142262126.012 9      3129.214 9        56.724 9  27071582.459 9 142262126.012 9      3129.214 9        56.724 9  27071583.511 9 106234708.618 9      2336.750 9        56.584 9  27071583.511 9 106234708.618 9      2336.750 9        56.584 9  27071583.511 9 109006048.843 9      2397.709 9        56.584 9  27071583.511 9 109006048.843 9      2397.709 9        56.584 9  27071583.511 9 107620378.730 9      2367.230 9        59.594 9  27071583.511 9 107620378.730 9      2367.230 9        59.594 9
E31  24970562.405 9 131221191.109 9     -1543.116 9        57.422 9  24970562.405 9 131221191.109 9     -1543.116 9        57.422 9  24970563.402 9  97989854.415 9     -1152.327 9        57.282 9  24970563.402 9  97989854.415 9     -1152.327 9        57.282 9  24970563.402 9 100546111.487 9     -1182.387 9        57.282 9  24970563.402 9 100546111.487 9     -1182.387 9        57.282 9  24970563.402 9  99267982.951 9     -1167.357 9        60.292 9  24970563.402 9  99267982.951 9     -1167.357 9        60.292 9
E15  27829823.020 9 146246707.057 9     -1862.854 9        56.361 9  27829823.020 9 146246707.057 9     -1862.854 9        56.361 9  27829824.626 9 109210209.623 9     -1391.093 9        56.222 9  27829824.626 9 109210209.623 9     -1391.093 9        56.222 9  27829824.626 9 112059171.613 9     -1427.382 9        56.222 9  27829824.626 9 112059171.613 9     -1427.382 9        56.222 9  27829824.626 9 110634690.618 9     -1409.237 9        59.232 9  27829824.626 9 110634690.618 9     -1409.237 9        59.232 9
E03  26320499.042 9 138315156.018 9      2462.165 9        56.974 9  26320499.042 9 138315156.018 9      2462.165 9        56.974 9  26320499.928 9 103287295.308 9      1838.630 9        56.834 9  26320499.928 9 103287295.308 9      1838.630 9        56.834 9  26320499.928 9 105981746.490 9      1886.594 9        56.834 9  26320499.928 9 105981746.490 9      1886.594 9        56.834 9  26320499.928 9 104634520.899 9      1862.612 9        59.844 9  26320499.928 9 104634520.899 9      1862.612 9        59.844 9
E24  24082648.704 9 126555173.116 9      1239.812 9        57.796 9  24082648.704 9 126555173.116 9      1239.812 9        57.796 9  24082647.929 9  94505483.376 9       925.834 9        57.656 9  24082647.929 9  94505483.376 9       925.834 9        57.656 9  24082647.929 9  96970843.812 9       949.986 9        57.656 9  24082647.929 9  96970843.812 9       949.986 9        57.656 9  24082647.929 9  95738163.594 9       937.910 9        60.667 9  24082647.929 9  95738163.594 9       937.910 9        60.667 9
> 2023 01 08 10 00 26.0000000  0 20       0.000000000000
G08  25072544.612 9 131757111.224 9     -1491.882 9        54.231 9  25072545.606 8 102667882.944 8     -1162.506 8        49.731 8  25072544.612 9  98390050.590 9     -1114.068 9        56.331 9
G13  20026004.962 9 105237366.368 9       572.603 9        56.113 9  20026002.704 8  82003133.379 8       446.185 8        51.613 8  20026004.962 9  78586345.015 9       427.593 9        58.213 9
G17  24964305.705 9 131188311.927 9      2931.383 9        54.186 9  24964303.537 8 102224649.769 8      2284.195 8        49.686 8  24964305.705 9  97965297.868 9      2189.020 9        56.286 9
G24  24521979.951 9 128863874.403 9      3530.985 9        54.415 9  24521980.493 8 100413410.844 8      2751.417 8        49.915 8  24521979.951 9  96229516.599 9      2636.775 9        56.515 9
G07  24604653.817 9 129298328.498 9     -2972.942 9        54.356 9  24604651.649 8 100751935.408 8     -2316.578 8        49.856 8  24604653.817 9  96553946.605 9     -2220.054 9        56.456 9
G18  24769716.617 9 130165739.369 9     -1372.782 9        54.335 9  24769714.991 8 101427842.202 8     -1069.700 8        49.835 8  24769716.617 9  97201688.490 9     -1025.129 9        56.435 9
G20  23523288.850 9 123615717.242 9     -3650.774 9        54.724 9  23523287.224 8  96323928.857 8     -2844.759 8        50.224 8  23523288.850 9  92310438.200 9     -2726.228 9        56.824 9
G14  20963367.626 9 110163240.413 9       120.230 9        55.781 9  20963366.090 8  85841479.749 8        93.686 8        51.281 8  20963367.626 9  82264757.451 9        89.782 9        57.881 9
G23  24862154.926 9 130651505.959 9      3225.760 9        54.293 9  24862153.300 8 101806361.623 8      2513.579 8        49.793 8  24862154.926 9  97564436.268 9      2408.847 9        56.393 9
G05  21747758.352 9 114285241.503 9     -2435.608 9        55.469 9  21747756.185 8  89053426.062 8     -1897.877 8        50.969 8  21747758.352 9  85342875.149 9     -1818.798 9        57.569 9
G30  21861839.155 9 114884740.167 9     -2265.472 9        55.474 9  21861839.877 8  89520579.712 8     -1765.303 8        50.974 8  21861839.155 9  85790552.722 9     -1691.748 9        57.574 9
G15  21113469.523 9 110952031.209 9      2290.218 9        55.712 9  21113467.446 8  86456119.709 8      1784.585 8        51.212 8  21113469.523 9  82853789.539 9      1710.227 9        57.812 9
E05  23313033.166 9 122510816.167 9       356.169 9        57.977 9  23313033.166 9 122510816.167 9       356.169 9        57.977 9  23313034.107 9  91485353.429 9       265.971 9        57.837 9  23313034.107 9  91485353.429 9       265.971 9        57.837 9  23313034.107 9  93871927.867 9       272.909 9        57.837 9  23313034.107 9  93871927.867 9       272.909 9        57.837 9  23313034.107 9  92678640.648 9       269.440 9        60.847 9  23313034.107 9  92678640.648 9       269.440 9        60.847 9
E09  25219855.647 9 132531235.938 9     -2097.690 9        57.364 9  25219855.647 9 132531235.938 9     -2097.690 9        57.364 9  25219856.146 9  98968132.689 9     -1566.457 9        57.224 9  25219856.146 9  98968132.689 9     -1566.457 9        57.224 9  25219856.146 9 101549910.063 9     -1607.321 9        57.224 9  25219856.146 9 101549910.063 9     -1607.321 9        57.224 9  25219856.146 9 100259021.376 9     -1586.889 9        60.234 9  25219856.146 9 100259021.376 9     -1586.889 9        60.234 9
E13  28146871.353 9 147912807.291 9       320.755 9        56.288 9  28146871.353 9 147912807.291 9       320.755 9        56.288 9  28146871.519 9 110454369.733 9       239.525 9        56.148 9  28146871.519 9 110454369.733 9       239.525 9        56.148 9  28146871.519 9 113335788.074 9       245.773 9        56.148 9  28146871.519 9 113335788.074 9       245.773 9        56.148 9  28146871.519 9 111895078.903 9       242.649 9        59.159 9  28146871.519 9 111895078.903 9       242.649 9        59.159 9
E25  27070987.001 9 142258996.857 9      3129.095 9        56.724 9  27070987.001 9 142258996.857 9      3129.095 9        56.724 9  27070988.053 9 106232371.911 9      2336.662 9        56.584 9  27070988.053 9 106232371.911 9      2336.662 9        56.584 9  27070988.053 9 109003651.179 9      2397.618 9        56.584 9  27070988.053 9 109003651.179 9      2397.618 9        56.584 9  27070988.053 9 107618011.545 9      2367.140 9        59.594 9  27070988.053 9 107618011.545 9      2367.140 9        59.594 9
E31  24970856.086 9 131222734.411 9     -1543.490 9        57.422 9  24970856.086 9 131222734.411 9     -1543.490 9        57.422 9  24970857.082 9  97991006.881 9     -1152.606 9        57.282 9  24970857.082 9  97991006.881 9     -1152.606 9        57.282 9  24970857.082 9 100547294.017 9     -1182.674 9        57.282 9  24970857.082 9 100547294.017 9     -1182.674 9        57.282 9  24970857.082 9  99269150.449 9     -1167.640 9        60.292 9  24970857.082 9  99269150.449 9     -1167.640 9        60.292 9
E15  27830177.543 9 146248570.086 9     -1863.202 9        56.361 9  27830177.543 9 146248570.086 9     -1863.202 9        56.361 9  27830179.149 9 109211600.846 9     -1391.352 9        56.221 9  27830179.149 9 109211600.846 9     -1391.352 9        56.221 9  27830179.149 9 112060599.129 9     -1427.648 9        56.221 9  27830179.149 9 112060599.129 9     -1427.648 9        56.221 9  27830179.149 9 110636099.988 9     -1409.500 9        59.232 9  27830179.149 9 110636099.988 9     -1409.500 9        59.232 9
E03  26320030.517 9 138312693.900 9      2462.066 9        56.974 9  26320030.517 9 138312693.900 9      2462.066 9        56.974 9  26320031.403 9 103285456.714 9      1838.556 9        56.834 9  26320031.403 9 103285456.714 9      1838.556 9        56.834 9  26320031.403 9 105979859.932 9      1886.518 9        56.834 9  26320031.403 9 105979859.932 9      1886.518 9        56.834 9  26320031.403 9 104632658.323 9      1862.537 9        59.845 9  26320031.403 9 104632658.323 9      1862.537 9        59.845 9
E24  24082412.817 9 126553933.521 9      1239.378 9        57.796 9  24082412.817 9 126553933.521 9      1239.378 9        57.796 9  24082412.042 9  94504557.704 9       925.510 9        57.657 9  24082412.042 9  94504557.704 9       925.510 9        57.657 9  24082412.042 9  96969893.992 9       949.654 9        57.657 9  24082412.042 9  96969893.992 9       949.654 9        57.657 9  24082412.042 9  95737225.848 9       937.582 9        60.667 9  24082412.042 9  95737225.848 9       937.582 9        60.667 9
> 2023 01 08 10 00 27.0000000  0 20       0.000000000000
G08  25072828.563 9 131758603.395 9     -1492.459 9        54.230 9  25072829.556 8 102669045.674 8     -1162.955 8        49.730 8  25072828.563 9  98391164.873 9     -1114.499 9        56.330 9
G13  20025896.044 9 105236794.001 9       572.129 9        56.113 9  20025893.786 8  82002687.379 8       445.815 8        51.613 8  20025896.044 9  78585917.598 9       427.239 9        58.213 9
G17  24963747.886 9 131185380.569 9      2931.337 9        54.186 9  24963745.718 8 102222365.594 8      2284.159 8        49.686 8  24963747.886 9  97963108.867 9      2188.986 9        56.286 9
G24  24521308.036 9 128860343.466 9      3530.881 9        54.415 9  24521308.578 8 100410659.465 8      2751.336 8        49.915 8  24521308.036 9  96226879.861 9      2636.697 9        56.515 9
G07  24605219.553 9 129301301.462 9     -2972.991 9        54.355 9  24605217.385 8 100754252.003 8     -2316.617 8        49.855 8  24605219.553 9  96556166.676 9     -2220.091 9        56.455 9
G18  24769977.899 9 130167112.415 9     -1373.309 9        54.335 9  24769976.273 8 101428912.108 8     -1070.111 8        49.835 8  24769977.899 9  97202713.817 9     -1025.523 9        56.435 9
G20  23523983.583 9 123619368.091 9     -3650.921 9        54.723 9  23523981.957 8  96326773.674 8     -2844.874 8        50.223 8  23523983.583 9  92313164.483 9     -2726.337 9        56.823 9
G14  20963344.809 9 110163120.513 9       119.571 9        55.781 9  20963343.274 8  85841386.320 8        93.172 8        51.281 8  20963344.809 9  82264667.915 9        89.290 9        57.881 9
G23  24861541.113 9 130648280.352 9      3225.451 9        54.293 9  24861539.487 8 101803848.163 8      2513.339 8        49.793 8  24861541.113 9  97562027.536 9      2408.616 9        56.393 9
G05  21748221.883 9 114287677.372 9     -2436.126 9        55.469 9  21748219.715 8  89055324.141 8     -1898.280 8        50.969 8  21748221.883 9  85344694.141 9     -1819.185 9        57.569 9
G30  21862270.285 9 114887005.771 9     -2265.740 9        55.474 9  21862271.007 8  89522345.118 8     -1765.512 8        50.974 8  21862270.285 9  85792244.569 9     -1691.949 9        57.574 9
G15  21113033.750 9 110949741.206 9      2289.786 9        55.713 9  21113031.673 8  86454335.291 8      1784.249 8        51.213 8  21113033.750 9  82852079.472 9      1709.905 9        57.813 9
E05  23312965.419 9 122510460.156 9       355.852 9        57.977 9  23312965.419 9 122510460.156 9       355.852 9        57.977 9  23312966.361 9  91485087.577 9       265.734 9        57.837 9  23312966.361 9  91485087.577 9       265.734 9        57.837 9  23312966.361 9  93871655.079 9       272.666 9        57.837 9  23312966.361 9  93871655.079 9       272.666 9        57.837 9  23312966.361 9  92678371.328 9       269.200 9        60.847 9  23312966.361 9  92678371.328 9       269.200 9        60.847 9
E09  25220254.846 9 132533333.744 9     -2097.925 9        57.364 9  25220254.846 9 132533333.744 9     -2097.925 9        57.364 9  25220255.345 9  98969699.232 9     -1566.632 9        57.224 9  25220255.345 9  98969699.232 9     -1566.632 9        57.224 9  25220255.345 9 101551517.473 9     -1607.501 9        57.224 9  25220255.345 9 101551517.473 9     -1607.501 9        57.224 9  25220255.345 9 100260608.353 9     -1587.067 9        60.234 9  25220255.345 9 100260608.353 9     -1587.067 9        60.234 9
E13  28146810.363 9 147912486.783 9       320.260 9        56.288 9  28146810.363 9 147912486.783 9       320.260 9        56.288 9  28146810.529 9 110454130.393 9       239.155 9        56.148 9  28146810.529 9 110454130.393 9       239.155 9        56.148 9  28146810.529 9 113335542.490 9       245.394 9        56.148 9  28146810.529 9 113335542.490 9       245.394 9        56.148 9  28146810.529 9 111894836.441 9       242.275 9        59.159 9  28146810.529 9 111894836.441 9       242.275 9        59.159 9
E25  27070391.565 9 142255867.821 9      3128.976 9        56.724 9  27070391.565 9 142255867.821 9      3128.976 9        56.724 9  27070392.617 9 106230035.293 9      2336.573 9        56.584 9  27070392.617 9 106230035.293 9      2336.573 9        56.584 9  27070392.617 9 109001253.605 9      2397.527 9        56.584 9  27070392.617 9 109001253.605 9      2397.527 9        56.584 9  27070392.617 9 107615644.449 9      2367.050 9        59.595 9  27070392.617 9 107615644.449 9      2367.050 9        59.595 9
E31  24971149.838 9 131224278.087 9     -1543.864 9        57.421 9  24971149.838 9 131224278.087 9     -1543.864 9        57.421 9  24971150.834 9  97992159.626 9     -1152.885 9        57.282 9  24971150.834 9  97992159.626 9     -1152.885 9        57.282 9  24971150.834 9 100548476.833 9     -1182.961 9        57.282 9  24971150.834 9 100548476.833 9     -1182.961 9        57.282 9  24971150.834 9  99270318.229 9     -1167.923 9        60.292 9  24971150.834 9  99270318.229 9     -1167.923 9        60.292 9
E15  27830532.132 9 146250433.463 9     -1863.549 9        56.361 9  27830532.132 9 146250433.463 9     -1863.549 9        56.361 9  27830533.738 9 109212992.329 9     -1391.611 9        56.221 9  27830533.738 9 109212992.329 9     -1391.611 9        56.221 9  27830533.738 9 112062026.911 9     -1427.914 9        56.221 9  27830533.738 9 112062026.911 9     -1427.914 9        56.221 9  27830533.738 9 110637509.620 9     -1409.763 9        59.232 9  27830533.738 9 110637509.620 9     -1409.763 9        59.232 9
E03  26319562.010 9 138310231.881 9      2461.968 9        56.974 9  26319562.010 9 138310231.881 9      2461.968 9        56.974 9  26319562.896 9 103283618.193 9      1838.482 9        56.834 9  26319562.896 9 103283618.193 9      1838.482 9        56.834 9  26319562.896 9 105977973.450 9      1886.443 9        56.834 9  26319562.896 9 105977973.450 9      1886.443 9        56.834 9  26319562.896 9 104630795.822 9      1862.462 9        59.845 9  26319562.896 9 104630795.822 9      1862.462 9        59.845 9
E24  24082177.012 9 126552694.360 9      1238.945 9        57.797 9  24082177.012 9 126552694.360 9      1238.945 9        57.797 9  24082176.237 9  94503632.357 9       925.186 9        57.657 9  24082176.237 9  94503632.357 9       925.186 9        57.657 9  24082176.237 9  96968944.505 9       949.321 9        57.657 9  24082176.237 9  96968944.505 9       949.321 9        57.657 9  24082176.237 9  95736288.431 9       937.254 9        60.667 9  24082176.237 9  95736288.431 9       937.254 9        60.667 9
> 2023 01 08 10 00 28.0000000  0 20       0.000000000000
G08  25073112.623 9 131760096.142 9     -1493.037 9        54.230 9  25073113.617 8 102670208.854 8     -1163.405 8        49.730 8  25073112.623 9  98392279.587 9     -1114.930 9        56.330 9
G13  20025787.217 9 105236222.109 9       571.655 9        56.113 9  20025784.959 8  82002241.749 8       445.445 8        51.613 8  20025787.217 9  78585490.536 9       426.885 9        58.213 9
G17  24963190.076 9 131182449.257 9      2931.291 9        54.186 9  24963187.908 8 102220081.455 8      2284.123 8        49.686 8  24963190.076 9  97960919.900 9      2188.951 9        56.286 9
G24  24520636.141 9 128856812.634 9      3530.776 9        54.415 9  24520636.683 8 100407908.168 8      2751.254 8        49.915 8  24520636.141 9  96224243.201 9      2636.618 9        56.515 9
G07  24605785.298 9 129304274.475 9     -2973.041 9        54.355 9  24605783.131 8 100756568.637 8     -2316.655 8        49.855 8  24605785.298 9  96558386.783 9     -2220.128 9        56.455 9
G18  24770239.281 9 130168485.988 9     -1373.835 9        54.335 9  24770237.656 8 101429982.425 8     -1070.521 8        49.835 8  24770239.281 9  97203739.537 9     -1025.916 9        56.435 9
G20  23524678.344 9 123623019.086 9     -3651.068 9        54.723 9  23524676.719 8  96329618.605 8     -2844.988 8        50.223 8  23524678.344 9  92315890.876 9     -2726.447 9        56.823 9
G14  20963322.118 9 110163001.271 9       118.912 9        55.781 9  20963320.583 8  85841293.405 8        92.659 8        51.281 8  20963322.118 9  82264578.871 9        88.798 9        57.881 9
G23  24860927.359 9 130645055.054 9      3225.142 9        54.293 9  24860925.733 8 101801334.943 8      2513.098 8        49.793 8  24860927.359 9  97559619.034 9      2408.385 9        56.393 9
G05  21748685.512 9 114290113.758 9     -2436.644 9        55.468 9  21748683.344 8  89057222.624 8     -1898.684 8        50.968 8  21748685.512 9  85346513.520 9     -1819.572 9        57.568 9
G30  21862701.466 9 114889271.644 9     -2266.008 9        55.474 9  21862702.189 8  89524110.733 8     -1765.721 8        50.974 8  21862701.466 9  85793936.617 9     -1692.149 9        57.574 9
G15  21112598.059 9 110947451.633 9      2289.355 9        55.713 9  21112595.982 8  86452551.208 8      1783.913 8        51.213 8  21112598.059 9  82850369.726 9      1709.583 9        57.813 9
E05  23312897.733 9 122510104.463 9       355.535 9        57.977 9  23312897.733 9 122510104.463 9       355.535 9        57.977 9  23312898.674 9  91484821.961 9       265.497 9        57.837 9  23312898.674 9  91484821.961 9       265.497 9        57.837 9  23312898.674 9  93871382.534 9       272.423 9        57.837 9  23312898.674 9  93871382.534 9       272.423 9        57.837 9  23312898.674 9  92678102.248 9       268.960 9        60.847 9  23312898.674 9  92678102.248 9       268.960 9        60.847 9
E09  25220654.090 9 132535431.786 9     -2098.160 9        57.364 9  25220654.090 9 132535431.786 9     -2098.160 9        57.364 9  25220654.589 9  98971265.951 9     -1566.808 9        57.224 9  25220654.589 9  98971265.951 9     -1566.808 9        57.224 9  25220654.589 9 101553125.063 9     -1607.681 9        57.224 9  25220654.589 9 101553125.063 9     -1607.681 9        57.224 9  25220654.589 9 100262195.507 9     -1587.244 9        60.234 9  25220654.589 9 100262195.507 9     -1587.244 9        60.234 9
E13  28146749.466 9 147912166.770 9       319.765 9        56.288 9  28146749.466 9 147912166.770 9       319.765 9        56.288 9  28146749.632 9 110453891.422 9       238.786 9        56.148 9  28146749.632 9 110453891.422 9       238.786 9        56.148 9  28146749.632 9 113335297.285 9       245.015 9        56.148 9  28146749.632 9 113335297.285 9       245.015 9        56.148 9  28146749.632 9 111894594.354 9       241.901 9        59.159 9  28146749.632 9 111894594.354 9       241.901 9        59.159 9
E25  27069796.152 9 142252738.904 9      3128.856 9        56.724 9  27069796.152 9 142252738.904 9      3128.856 9        56.724 9  27069797.204 9 106227698.765 9      2336.484 9        56.585 9  27069797.204 9 106227698.765 9      2336.484 9        56.585 9  27069797.204 9 108998856.124 9      2397.435 9        56.585 9  27069797.204 9 108998856.124 9      2397.435 9        56.585 9  27069797.204 9 107613277.444 9      2366.960 9        59.595 9  27069797.204 9 107613277.444 9      2366.960 9        59.595 9
E31  24971443.660 9 131225822.137 9     -1544.238 9        57.421 9  24971443.660 9 131225822.137 9     -1544.238 9        57.421 9  24971444.657 9  97993312.650 9     -1153.165 9        57.281 9  24971444.657 9  97993312.650 9     -1153.165 9        57.281 9  24971444.657 9 100549659.936 9     -1183.247 9        57.281 9  24971444.657 9 100549659.936 9     -1183.247 9        57.281 9  24971444.657 9  99271486.293 9     -1168.206 9        60.292 9  24971444.657 9  99271486.293 9     -1168.206 9        60.292 9
E15  27830886.787 9 146252297.187 9     -1863.896 9        56.361 9  27830886.787 9 146252297.187 9     -1863.896 9        56.361 9  27830888.393 9 109214384.071 9     -1391.870 9        56.221 9  27830888.393 9 109214384.071 9     -1391.870 9        56.221 9  27830888.393 9 112063454.960 9     -1428.180 9        56.221 9  27830888.393 9 112063454.960 9     -1428.180 9        56.221 9  27830888.393 9 110638919.515 9     -1410.025 9        59.232 9  27830888.393 9 110638919.515 9     -1410.025 9        59.232 9
E03  26319093.522 9 138307769.961 9      2461.869 9        56.975 9  26319093.522 9 138307769.961 9      2461.869 9        56.975 9  26319094.408 9 103281779.746 9      1838.408 9        56.835 9  26319094.408 9 103281779.746 9      1838.408 9        56.835 9  26319094.408 9 105976087.044 9      1886.367 9        56.835 9  26319094.408 9 105976087.044 9      1886.367 9        56.835 9  26319094.408 9 104628933.395 9      1862.388 9        59.845 9  26319094.408 9 104628933.395 9      1862.388 9        59.845 9
E24  24081941.290 9 126551455.632 9      1238.511 9        57.797 9  24081941.290 9 126551455.632 9      1238.511 9        57.797 9  24081940.515 9  94502707.333 9       924.862 9        57.657 9  24081940.515 9  94502707.333 9       924.862 9        57.657 9  24081940.515 9  96967995.350 9       948.989 9        57.657 9  24081940.515 9  96967995.350 9       948.989 9        57.657 9  24081940.515 9  95735351.341 9       936.925 9        60.667 9  24081940.515 9  95735351.341 9       936.925 9        60.667 9
> 2023 01 08 10 00 29.0000000  0 20       0.000000000000
G08  25073396.793 9 131761589.467 9     -1493.614 9        54.230 9  25073397.787 8 102671372.484 8     -1163.855 8        49.730 8  25073396.793 9  98393394.731 9     -1115.361 9        56.330 9
G13  20025678.479 9 105235650.691 9       571.181 9        56.113 9  20025676.221 8  82001796.488 8       445.076 8        51.613 8  20025678.479 9  78585063.828 9       426.531 9        58.213 9
G17  24962632.275 9 131179517.992 9      2931.245 9        54.186 9  24962630.107 8 102217797.352 8      2284.087 8        49.686 8  24962632.275 9  97958730.968 9      2188.917 9        56.286 9
G24  24519964.266 9 128853281.908 9      3530.671 9        54.416 9  24519964.808 8 100405156.952 8      2751.172 8        49.916 8  24519964.266 9  96221606.619 9      2636.540 9        56.516 9
G07  24606351.053 9 129307247.538 9     -2973.090 9        54.355 9  24606348.886 8 100758885.310 8     -2316.694 8        49.855 8  24606351.053 9  96560606.928 9     -2220.165 9        56.455 9
G18  24770500.764 9 130169860.088 9     -1374.362 9        54.335 9  24770499.138 8 101431053.152 8     -1070.931 8        49.835 8  24770500.764 9  97204765.650 9     -1026.309 9        56.435 9
G20  23525373.133 9 123626670.228 9     -3651.214 9        54.723 9  23525371.508 8  96332463.650 8     -2845.102 8        50.223 8  23525373.133 9  92318617.378 9     -2726.556 9        56.823 9
G14  20963299.553 9 110162882.689 9       118.253 9        55.781 9  20963298.018 8  85841201.003 8        92.145 8        51.281 8  20963299.553 9  82264490.319 9        88.306 9        57.881 9
G23  24860313.664 9 130641830.064 9      3224.833 9        54.294 9  24860312.038 8 101798821.965 8      2512.857 8        49.794 8  24860313.664 9  97557210.762 9      2408.155 9        56.394 9
G05  21749149.239 9 114292550.662 9     -2437.161 9        55.468 9  21749147.071 8  89059121.510 8     -1899.087 8        50.968 8  21749149.239 9  85348333.286 9     -1819.958 9        57.568 9
G30  21863132.698 9 114891537.785 9     -2266.276 9        55.473 9  21863133.421 8  89525876.557 8     -1765.930 8        50.973 8  21863132.698 9  85795628.865 9     -1692.349 9        57.573 9
G15  21112162.450 9 110945162.493 9      2288.924 9        55.713 9  21112160.373 8  86450767.463 8      1783.577 8        51.213 8  21112162.450 9  82848660.303 9      1709.261 9        57.813 9
E05  23312830.107 9 122509749.086 9       355.218 9        57.977 9  23312830.107 9 122509749.086 9       355.218 9        57.977 9  23312831.048 9  91484556.583 9       265.260 9        57.837 9  23312831.048 9  91484556.583 9       265.260 9        57.837 9  23312831.048 9  93871110.233 9       272.180 9        57.837 9  23312831.048 9  93871110.233 9       272.180 9        57.837 9  23312831.048 9  92677833.408 9       268.720 9        60.847 9  23312831.048 9  92677833.408 9       268.720 9        60.847 9
E09  25221053.379 9 132537530.062 9     -2098.395 9        57.364 9  25221053.379 9 132537530.062 9     -2098.395 9        57.364 9  25221053.877 9  98972832.846 9     -1566.983 9        57.224 9  25221053.877 9  98972832.846 9     -1566.983 9        57.224 9  25221053.877 9 101554732.833 9     -1607.861 9        57.224 9  25221053.877 9 101554732.833 9     -1607.861 9        57.224 9  25221053.877 9 100263782.839 9     -1587.422 9        60.234 9  25221053.877 9 100263782.839 9     -1587.422 9        60.234 9
E13  28146688.664 9 147911847.252 9       319.271 9        56.288 9  28146688.664 9 147911847.252 9       319.271 9        56.288 9  28146688.830 9 110453652.821 9       238.417 9        56.148 9  28146688.830 9 110453652.821 9       238.417 9        56.148 9  28146688.830 9 113335052.459 9       244.636 9        56.148 9  28146688.830 9 113335052.459 9       244.636 9        56.148 9  28146688.830 9 111894352.640 9       241.526 9        59.159 9  28146688.830 9 111894352.640 9       241.526 9        59.159 9
E25  27069200.761 9 142249610.106 9      3128.737 9        56.725 9  27069200.761 9 142249610.106 9      3128.737 9        56.725 9  27069201.813 9 106225362.325 9      2336.395 9        56.585 9  27069201.813 9 106225362.325 9      2336.395 9        56.585 9  27069201.813 9 108996458.733 9      2397.344 9        56.585 9  27069201.813 9 108996458.733 9      2397.344 9        56.585 9  27069201.813 9 107610910.529 9      2366.869 9        59.595 9  27069201.813 9 107610910.529 9      2366.869 9        59.595 9
E31  24971737.555 9 131227366.561 9     -1544.612 9        57.421 9  24971737.555 9 131227366.561 9     -1544.612 9        57.421 9  24971738.551 9  97994465.954 9     -1153.444 9        57.281 9  24971738.551 9  97994465.954 9     -1153.444 9        57.281 9  24971738.551 9 100550843.326 9     -1183.534 9        57.281 9  24971738.551 9 100550843.326 9     -1183.534 9        57.281 9  24971738.551 9  99272654.640 9     -1168.489 9        60.292 9  24971738.551 9  99272654.640 9     -1168.489 9        60.292 9
E15  27831241.508 9 146254161.258 9     -1864.243 9        56.361 9  27831241.508 9 146254161.258 9     -1864.243 9        56.361 9  27831243.114 9 109215776.072 9     -1392.130 9        56.221 9  27831243.114 9 109215776.072 9     -1392.130 9        56.221 9  27831243.114 9 112064883.274 9     -1428.446 9        56.221 9  27831243.114 9 112064883.274 9     -1428.446 9        56.221 9  27831243.114 9 110640329.673 9     -1410.288 9        59.231 9  27831243.114 9 110640329.673 9     -1410.288 9        59.231 9
E03  26318625.054 9 138305308.140 9      2461.770 9        56.975 9  26318625.054 9 138305308.140 9      2461.770 9        56.975 9  26318625.939 9 103279941.373 9      1838.335 9        56.835 9  26318625.939 9 103279941.373 9      1838.335 9        56.835 9  26318625.939 9 105974200.714 9      1886.291 9        56.835 9  26318625.939 9 105974200.714 9      1886.291 9        56.835 9  26318625.939 9 104627071.044 9      1862.313 9        59.845 9  26318625.939 9 104627071.044 9      1862.313 9        59.845 9
E24  24081705.651 9 126550217.339 9      1238.077 9        57.797 9  24081705.651 9 126550217.339 9      1238.077 9        57.797 9  24081704.876 9  94501782.633 9       924.538 9        57.657 9  24081704.876 9  94501782.633 9       924.538 9        57.657 9  24081704.876 9  96967046.528 9       948.657 9        57.657 9  24081704.876 9  96967046.528 9       948.657 9        57.657 9  24081704.876 9  95734414.580 9       936.597 9        60.667 9  24081704.876 9  95734414.580 9       936.597 9        60.667 9
> 2023 01 08 10 00 30.0000000  0 20       0.000000000000
G08  25073681.073 9 131763083.368 9     -1494.191 9        54.230 9  25073682.067 8 102672536.563 8     -1164.304 8        49.730 8  25073681.073 9  98394510.307 9     -1115.792 9        56.330 9
G13  20025569.832 9 105235079.747 9       570.707 9        56.113 9  20025567.575 8  82001351.597 8       444.706 8        51.613 8  20025569.832 9  78584637.474 9       426.177 9        58.213 9
G17  24962074.482 9 131176586.773 9      2931.199 9        54.187 9  24962072.315 8 102215513.285 8      2284.051 8        49.687 8  24962074.482 9  97956542.070 9      2188.882 9        56.287 9
G24  24519292.411 9 128849751.285 9      3530.566 9        54.416 9  24519292.953 8 100402405.818 8      2751.091 8        49.916 8  24519292.411 9  96218970.116 9      2636.462 9        56.516 9
G07  24606916.818 9 129310220.650 9     -2973.140 9        54.355 9  24606914.650 8 100761202.021 8     -2316.732 8        49.855 8  24606916.818 9  96562827.109 9     -2220.202 9        56.455 9
G18  24770762.346 9 130171234.714 9     -1374.888 9        54.335 9  24770760.721 8 101432124.289 8     -1071.341 8        49.835 8  24770762.346 9  97205792.156 9     -1026.702 9        56.435 9
G20  23526067.950 9 123630321.516 9     -3651.361 9        54.723 9  23526066.325 8  96335308.810 8     -2845.216 8        50.223 8  23526067.950 9  92321343.989 9     -2726.665 9        56.823 9
G14  20963277.113 9 110162764.765 9       117.594 9        55.781 9  20963275.577 8  85841109.114 8        91.632 8        51.281 8  20963277.113 9  82264402.259 9        87.814 9        57.881 9
G23  24859700.028 9 130638605.384 9      3224.524 9        54.294 9  24859698.402 8 101796309.227 8      2512.616 8        49.794 8  24859700.028 9  97554802.722 9      2407.924 9        56.394 9
G05  21749613.065 9 114294988.083 9     -2437.679 9        55.468 9  21749610.897 8  89061020.799 8     -1899.490 8        50.968 8  21749613.065 9  85350153.439 9     -1820.345 9        57.568 9
G30  21863563.982 9 114893804.194 9     -2266.545 9        55.473 9  21863564.704 8  89527642.590 8     -1766.139 8        50.973 8  21863563.982 9  85797321.313 9     -1692.550 9        57.573 9
G15  21111726.923 9 110942873.784 9      2288.492 9        55.713 9  21111724.846 8  86448984.053 8      1783.241 8        51.213 8  21111726.923 9  82846951.202 9      1708.939 9        57.813 9
E05  23312762.542 9 122509394.027 9       354.901 9        57.977 9  23312762.542 9 122509394.027 9       354.901 9        57.977 9  23312763.483 9  91484291.441 9       265.023 9        57.837 9  23312763.483 9  91484291.441 9       265.023 9        57.837 9  23312763.483 9  93870838.174 9       271.937 9        57.837 9  23312763.483 9  93870838.174 9       271.937 9        57.837 9  23312763.483 9  92677564.808 9       268.480 9        60.847 9  23312763.483 9  92677564.808 9       268.480 9        60.847 9
E09  25221452.712 9 132539628.573 9     -2098.630 9        57.363 9  25221452.712 9 132539628.573 9     -2098.630 9        57.363 9  25221453.211 9  98974399.916 9     -1567.159 9        57.223 9  25221453.211 9  98974399.916 9     -1567.159 9        57.223 9  25221453.211 9 101556340.783 9     -1608.041 9        57.223 9  25221453.211 9 101556340.783 9     -1608.041 9        57.223 9  25221453.211 9 100265370.349 9     -1587.600 9        60.234 9  25221453.211 9 100265370.349 9     -1587.600 9        60.234 9
E13  28146627.956 9 147911528.228 9       318.776 9        56.288 9  28146627.956 9 147911528.228 9       318.776 9        56.288 9  28146628.122 9 110453414.589 9       238.047 9        56.148 9  28146628.122 9 110453414.589 9       238.047 9        56.148 9  28146628.122 9 113334808.013 9       244.257 9        56.148 9  28146628.122 9 113334808.013 9       244.257 9        56.148 9  28146628.122 9 111894111.301 9       241.152 9        59.159 9  28146628.122 9 111894111.301 9       241.152 9        59.159 9
E25  27068605.393 9 142246481.427 9      3128.618 9        56.725 9  27068605.393 9 142246481.427 9      3128.618 9        56.725 9  27068606.445 9 106223025.974 9      2336.306 9        56.585 9  27068606.445 9 106223025.974 9      2336.306 9        56.585 9  27068606.445 9 108994061.434 9      2397.253 9        56.585 9  27068606.445 9 108994061.434 9      2397.253 9        56.585 9  27068606.445 9 107608543.704 9      2366.779 9        59.595 9  27068606.445 9 107608543.704 9      2366.779 9        59.595 9
E31  24972031.520 9 131228911.359 9     -1544.986 9        57.421 9  24972031.520 9 131228911.359 9     -1544.986 9        57.421 9  24972032.517 9  97995619.537 9     -1153.723 9        57.281 9  24972032.517 9  97995619.537 9     -1153.723 9        57.281 9  24972032.517 9 100552027.003 9     -1183.820 9        57.281 9  24972032.517 9 100552027.003 9     -1183.820 9        57.281 9  24972032.517 9  99273823.270 9     -1168.772 9        60.292 9  24972032.517 9  99273823.270 9     -1168.772 9        60.292 9
E15  27831596.295 9 146256025.677 9     -1864.590 9        56.361 9  27831596.295 9 146256025.677 9     -1864.590 9        56.361 9  27831597.901 9 109217168.333 9     -1392.389 9        56.221 9  27831597.901 9 109217168.333 9     -1392.389 9        56.221 9  27831597.901 9 112066311.854 9     -1428.712 9        56.221 9  27831597.901 9 112066311.854 9     -1428.712 9        56.221 9  27831597.901 9 110641740.093 9     -1410.550 9        59.231 9  27831597.901 9 110641740.093 9     -1410.550 9        59.231 9
E03  26318156.603 9 138302846.418 9      2461.671 9        56.975 9  26318156.603 9 138302846.418 9      2461.671 9        56.975 9  26318157.489 9 103278103.074 9      1838.261 9        56.835 9  26318157.489 9 103278103.074 9      1838.261 9        56.835 9  26318157.489 9 105972314.459 9      1886.215 9        56.835 9  26318157.489 9 105972314.459 9      1886.215 9        56.835 9  26318157.489 9 104625208.767 9      1862.238 9        59.845 9  26318157.489 9 104625208.767 9      1862.238 9        59.845 9
E24  24081470.094 9 126548979.479 9      1237.643 9        57.797 9  24081470.094 9 126548979.479 9      1237.643 9        57.797 9  24081469.319 9  94500858.257 9       924.214 9        57.657 9  24081469.319 9  94500858.257 9       924.214 9        57.657 9  24081469.319 9  96966098.038 9       948.324 9        57.657 9  24081469.319 9  96966098.038 9       948.324 9        57.657 9  24081469.319 9  95733478.147 9       936.269 9        60.667 9  24081469.319 9  95733478.147 9       936.269 9        60.667 9
> 2023 01 08 10 00 31.0000000  0 20       0.000000000000
G08  25073965.463 9 131764577.847 9     -1494.768 9        54.230 9  25073966.457 8 102673701.091 8     -1164.754 8        49.730 8  25073965.463 9  98395626.314 9     -1116.223 9        56.330 9
G13  20025461.276 9 105234509.278 9       570.232 9        56.113 9  20025459.018 8  82000907.075 8       444.337 8        51.613 8  20025461.276 9  78584211.474 9       425.823 9        58.213 9
G17  24961516.698 9 131173655.600 9      2931.152 9        54.187 9  24961514.531 8 102213229.254 8      2284.015 8        49.687 8  24961516.698 9  97954353.208 9      2188.847 9        56.287 9
G24  24518620.576 9 128846220.768 9      3530.461 9        54.416 9  24518621.118 8 100399654.766 8      2751.009 8        49.916 8  24518620.576 9  96216333.691 9      2636.383 9        56.516 9
G07  24607482.592 9 129313193.812 9     -2973.189 9        54.355 9  24607480.424 8 100763518.770 8     -2316.771 8        49.855 8  24607482.592 9  96565047.327 9     -2220.239 9        56.455 9
G18  24771024.029 9 130172609.866 9     -1375.414 9        54.335 9  24771022.403 8 101433195.836 8     -1071.751 8        49.835 8  24771024.029 9  97206819.056 9     -1027.095 9        56.435 9
G20  23526762.795 9 123633972.950 9     -3651.507 9        54.722 9  23526761.170 8  96338154.084 8     -2845.330 8        50.222 8  23526762.795 9  92324070.710 9     -2726.775 9        56.822 9
G14  20963254.798 9 110162647.500 9       116.935 9        55.781 9  20963253.263 8  85841017.739 8        91.119 8        51.281 8  20963254.798 9  82264314.692 9        87.322 9        57.881 9
G23  24859086.450 9 130635381.013 9      3224.215 9        54.294 9  24859084.825 8 101793796.730 8      2512.375 8        49.794 8  24859086.450 9  97552394.912 9      2407.693 9        56.394 9
G05  21750076.989 9 114297426.022 9     -2438.196 9        55.468 9  21750074.821 8  89062920.492 8     -1899.893 8        50.968 8  21750076.989 9  85351973.977 9     -1820.731 9        57.568 9
G30  21863995.316 9 114896070.871 9     -2266.813 9        55.473 9  21863996.039 8  89529408.832 8     -1766.348 8        50.973 8  21863995.316 9  85799013.962 9     -1692.750 9        57.573 9
G15  21111291.478 9 110940585.506 9      2288.060 9        55.713 9  21111289.401 8  86447200.979 8      1782.904 8        51.213 8  21111291.478 9  82845242.423 9      1708.617 9        57.813 9
E05  23312695.036 9 122509039.284 9       354.584 9        57.977 9  23312695.036 9 122509039.284 9       354.584 9        57.977 9  23312695.978 9  91484026.536 9       264.786 9        57.837 9  23312695.978 9  91484026.536 9       264.786 9        57.837 9  23312695.978 9  93870566.359 9       271.694 9        57.837 9  23312695.978 9  93870566.359 9       271.694 9        57.837 9  23312695.978 9  92677296.447 9       268.240 9        60.847 9  23312695.978 9  92677296.447 9       268.240 9        60.847 9
E09  25221852.091 9 132541727.319 9     -2098.865 9        57.363 9  25221852.091 9 132541727.319 9     -2098.865 9        57.363 9  25221852.589 9  98975967.161 9     -1567.334 9        57.223 9  25221852.589 9  98975967.161 9     -1567.334 9        57.223 9  25221852.589 9 101557948.913 9     -1608.221 9        57.223 9  25221852.589 9 101557948.913 9     -1608.221 9        57.223 9  25221852.589 9 100266958.037 9     -1587.778 9        60.234 9  25221852.589 9 100266958.037 9     -1587.778 9        60.234 9
E13  28146567.342 9 147911209.700 9       318.282 9        56.288 9  28146567.342 9 147911209.700 9       318.282 9        56.288 9  28146567.508 9 110453176.726 9       237.678 9        56.148 9  28146567.508 9 110453176.726 9       237.678 9        56.148 9  28146567.508 9 113334563.945 9       243.878 9        56.148 9  28146567.508 9 113334563.945 9       243.878 9        56.148 9  28146567.508 9 111893870.336 9       240.778 9        59.159 9  28146567.508 9 111893870.336 9       240.778 9        59.159 9
E25  27068010.048 9 142243352.868 9      3128.499 9        56.725 9  27068010.048 9 142243352.868 9      3128.499 9        56.725 9  27068011.100 9 106220689.712 9      2336.217 9        56.585 9  27068011.100 9 106220689.712 9      2336.217 9        56.585 9  27068011.100 9 108991664.226 9      2397.162 9        56.585 9  27068011.100 9 108991664.226 9      2397.162 9        56.585 9  27068011.100 9 107606176.969 9      2366.689 9        59.595 9  27068011.100 9 107606176.969 9      2366.689 9        59.595 9
E31  24972325.556 9 131230456.531 9     -1545.360 9        57.421 9  24972325.556 9 131230456.531 9     -1545.360 9        57.421 9  24972326.553 9  97996773.399 9     -1154.002 9        57.281 9  24972326.553 9  97996773.399 9     -1154.002 9        57.281 9  24972326.553 9 100553210.966 9     -1184.107 9        57.281 9  24972326.553 9 100553210.966 9     -1184.107 9        57.281 9  24972326.553 9  99274992.182 9     -1169.055 9        60.291 9  24972326.553 9  99274992.182 9     -1169.055 9        60.291 9
E15  27831951.148 9 146257890.442 9     -1864.937 9        56.361 9  27831951.148 9 146257890.442 9     -1864.937 9        56.361 9  27831952.754 9 109218560.852 9     -1392.648 9        56.221 9  27831952.754 9 109218560.852 9     -1392.648 9        56.221 9  27831952.754 9 112067740.700 9     -1428.978 9        56.221 9  27831952.754 9 112067740.700 9     -1428.978 9        56.221 9  27831952.754 9 110643150.776 9     -1410.813 9        59.231 9  27831952.754 9 110643150.776 9     -1410.813 9        59.231 9
E03  26317688.172 9 138300384.795 9      2461.572 9        56.975 9  26317688.172 9 138300384.795 9      2461.572 9        56.975 9  26317689.058 9 103276264.849 9      1838.187 9        56.835 9  26317689.058 9 103276264.849 9      1838.187 9        56.835 9  26317689.058 9 105970428.280 9      1886.140 9        56.835 9  26317689.058 9 105970428.280 9      1886.140 9        56.835 9  26317689.058 9 104623346.565 9      1862.163 9        59.845 9  26317689.058 9 104623346.565 9      1862.163 9        59.845 9
E24  24081234.619 9 126547742.052 9      1237.210 9        57.797 9  24081234.619 9 126547742.052 9      1237.210 9        57.797 9  24081233.844 9  94499934.205 9       923.890 9        57.657 9  24081233.844 9  94499934.205 9       923.890 9        57.657 9  24081233.844 9  96965149.880 9       947.992 9        57.657 9  24081233.844 9  96965149.880 9       947.992 9        57.657 9  24081233.844 9  95732542.042 9       935.941 9        60.667 9  24081233.844 9  95732542.042 9       935.941 9        60.667 9
> 2023 01 08 10 00 32.0000000  0 20       0.000000000000
G08  25074249.963 9 131766072.902 9     -1495.345 9        54.230 9  25074250.956 8 102674866.070 8     -1165.204 8        49.730 8  25074249.963 9  98396742.752 9     -1116.653 9        56.330 9
G13  20025352.809 9 105233939.283 9       569.758 9        56.113 9  20025350.551 8  82000462.923 8       443.967 8        51.613 8  20025352.809 9  78583785.828 9       425.469 9        58.213 9
G17  24960958.924 9 131170724.473 9      2931.106 9        54.187 9  24960956.756 8 102210945.259 8      2283.978 8        49.687 8  24960958.924 9  97952164.379 9      2188.813 9        56.287 9
G24  24517948.761 9 128842690.356 9      3530.356 9        54.416 9  24517949.303 8 100396903.795 8      2750.927 8        49.916 8  24517948.761 9  96213697.344 9      2636.305 9        56.516 9
G07  24608048.375 9 129316167.023 9     -2973.238 9        54.354 9  24608046.207 8 100765835.558 8     -2316.809 8        49.854 8  24608048.375 9  96567267.582 9     -2220.275 9        56.454 9
G18  24771285.812 9 130173985.544 9     -1375.940 9        54.335 9  24771284.186 8 101434267.793 8     -1072.161 8        49.835 8  24771285.812 9  97207846.348 9     -1027.488 9        56.435 9
G20  23527457.668 9 123637624.531 9     -3651.653 9        54.722 9  23527456.042 8  96340999.471 8     -2845.444 8        50.222 8  23527457.668 9  92326797.539 9     -2726.884 9        56.822 9
G14  20963232.609 9 110162530.894 9       116.277 9        55.781 9  20963231.073 8  85840926.877 8        90.605 8        51.281 8  20963232.609 9  82264227.616 9        86.830 9        57.881 9
G23  24858472.932 9 130632156.952 9      3223.905 9        54.294 9  24858471.306 8 101791284.474 8      2512.134 8        49.794 8  24858472.932 9  97549987.334 9      2407.462 9        56.394 9
G05  21750541.012 9 114299864.478 9     -2438.714 9        55.468 9  21750538.844 8  89064820.587 8     -1900.296 8        50.968 8  21750541.012 9  85353794.902 9     -1821.117 9        57.568 9
G30  21864426.701 9 114898337.816 9     -2267.081 9        55.473 9  21864427.424 8  89531175.283 8     -1766.556 8        50.973 8  21864426.701 9  85800706.811 9     -1692.950 9        57.573 9
G15  21110856.116 9 110938297.660 9      2287.629 9        55.713 9  21110854.038 8  86445418.242 8      1782.568 8        51.213 8  21110856.116 9  82843533.967 9      1708.294 9        57.813 9
E05  23312627.592 9 122508684.859 9       354.266 9        57.977 9  23312627.592 9 122508684.859 9       354.266 9        57.977 9  23312628.533 9  91483761.868 9       264.549 9        57.837 9  23312628.533 9  91483761.868 9       264.549 9        57.837 9  23312628.533 9  93870294.786 9       271.451 9        57.837 9  23312628.533 9  93870294.786 9       271.451 9        57.837 9  23312628.533 9  92677028.327 9       268.000 9        60.847 9  23312628.533 9  92677028.327 9       268.000 9        60.847 9
E09  25222251.513 9 132543826.300 9     -2099.100 9        57.363 9  25222251.513 9 132543826.300 9     -2099.100 9        57.363 9  25222252.012 9  98977534.582 9     -1567.509 9        57.223 9  25222252.012 9  98977534.582 9     -1567.509 9        57.223 9  25222252.012 9 101559557.223 9     -1608.401 9        57.223 9  25222252.012 9 101559557.223 9     -1608.401 9        57.223 9  25222252.012 9 100268545.903 9     -1587.955 9        60.234 9  25222252.012 9 100268545.903 9     -1587.955 9        60.234 9
E13  28146506.822 9 147910891.665 9       317.787 9        56.288 9  28146506.822 9 147910891.665 9       317.787 9        56.288 9  28146506.988 9 110452939.233 9       237.308 9        56.148 9  28146506.988 9 110452939.233 9       237.308 9        56.148 9  28146506.988 9 113334320.256 9       243.499 9        56.148 9  28146506.988 9 113334320.256 9       243.499 9        56.148 9  28146506.988 9 111893629.745 9       240.404 9        59.159 9  28146506.988 9 111893629.745 9       240.404 9        59.159 9
E25  27067414.726 9 142240224.427 9      3128.380 9        56.725 9  27067414.726 9 142240224.427 9      3128.380 9        56.725 9  27067415.778 9 106218353.539 9      2336.128 9        56.585 9  27067415.778 9 106218353.539 9      2336.128 9        56.585 9  27067415.778 9 108989267.109 9      2397.070 9        56.585 9  27067415.778 9 108989267.109 9      2397.070 9        56.585 9  27067415.778 9 107603810.324 9      2366.599 9        59.596 9  27067415.778 9 107603810.324 9      2366.599 9        59.596 9
E31  24972619.664 9 131232002.077 9     -1545.734 9        57.421 9  24972619.664 9 131232002.077 9     -1545.734 9        57.421 9  24972620.661 9  97997927.540 9     -1154.282 9        57.281 9  24972620.661 9  97997927.540 9     -1154.282 9        57.281 9  24972620.661 9 100554395.215 9     -1184.393 9        57.281 9  24972620.661 9 100554395.215 9     -1184.393 9        57.281 9  24972620.661 9  99276161.377 9     -1169.337 9        60.291 9  24972620.661 9  99276161.377 9     -1169.337 9        60.291 9
E15  27832306.067 9 146259755.554 9     -1865.284 9        56.361 9  27832306.067 9 146259755.554 9     -1865.284 9        56.361 9  27832307.673 9 109219953.631 9     -1392.907 9        56.221 9  27832307.673 9 109219953.631 9     -1392.907 9        56.221 9  27832307.673 9 112069169.812 9     -1429.243 9        56.221 9  27832307.673 9 112069169.812 9     -1429.243 9        56.221 9  27832307.673 9 110644561.721 9     -1411.075 9        59.231 9  27832307.673 9 110644561.721 9     -1411.075 9        59.231 9
E03  26317219.759 9 138297923.270 9      2461.473 9        56.975 9  26317219.759 9 138297923.270 9      2461.473 9        56.975 9  26317220.645 9 103274426.698 9      1838.113 9        56.835 9  26317220.645 9 103274426.698 9      1838.113 9        56.835 9  26317220.645 9 105968542.177 9      1886.064 9        56.835 9  26317220.645 9 105968542.177 9      1886.064 9        56.835 9  26317220.645 9 104621484.437 9      1862.088 9        59.846 9  26317220.645 9 104621484.437 9      1862.088 9        59.846 9
E24  24080999.228 9 126546505.060 9      1236.776 9        57.797 9  24080999.228 9 126546505.060 9      1236.776 9        57.797 9  24080998.452 9  94499010.477 9       923.566 9        57.657 9  24080998.452 9  94499010.477 9       923.566 9        57.657 9  24080998.452 9  96964202.054 9       947.659 9        57.657 9  24080998.452 9  96964202.054 9       947.659 9        57.657 9  24080998.452 9  95731606.266 9       935.613 9        60.667 9  24080998.452 9  95731606.266 9       935.613 9        60.667 9
> 2023 01 08 10 00 33.0000000  0 20       0.000000000000
G08  25074534.572 9 131767568.535 9     -1495.922 9        54.230 9  25074535.566 8 102676031.498 8     -1165.653 8        49.730 8  25074534.572 9  98397859.620 9     -1117.084 9        56.330 9
G13  20025244.433 9 105233369.762 9       569.283 9        56.113 9  20025242.175 8  82000019.140 8       443.598 8        51.613 8  20025244.433 9  78583360.537 9       425.114 9        58.213 9
G17  24960401.158 9 131167793.393 9      2931.059 9        54.187 9  24960398.990 8 102208661.301 8      2283.942 8        49.687 8  24960401.158 9  97949975.586 9      2188.778 9        56.287 9
G24  24517276.966 9 128839160.049 9      3530.251 9        54.417 9  24517277.508 8 100394152.906 8      2750.845 8        49.917 8  24517276.966 9  96211061.075 9      2636.227 9        56.517 9
G07  24608614.168 9 129319140.283 9     -2973.288 9        54.354 9  24608612.000 8 100768152.384 8     -2316.848 8        49.854 8  24608614.168 9  96569487.874 9     -2220.312 9        56.454 9
G18  24771547.695 9 130175361.749 9     -1376.466 9        54.335 9  24771546.069 8 101435340.161 8     -1072.571 8        49.835 8  24771547.695 9  97208874.033 9     -1027.881 9        56.435 9
G20  23528152.569 9 123641276.258 9     -3651.799 9        54.722 9  23528150.943 8  96343844.973 8     -2845.558 8        50.222 8  23528152.569 9  92329524.478 9     -2726.993 9        56.822 9
G14  20963210.545 9 110162414.947 9       115.618 9        55.781 9  20963209.009 8  85840836.529 8        90.092 8        51.281 8  20963210.545 9  82264141.032 9        86.338 9        57.881 9
G23  24857859.472 9 130628933.199 9      3223.596 9        54.294 9  24857857.847 8 101788772.460 8      2511.893 8        49.794 8  24857859.472 9  97547579.987 9      2407.230 9        56.394 9
G05  21751005.133 9 114302303.451 9     -2439.231 9        55.467 9  21751002.965 8  89066721.086 8     -1900.699 8        50.967 8  21751005.133 9  85355616.213 9     -1821.503 9        57.567 9
G30  21864858.138 9 114900605.029 9     -2267.349 9        55.473 9  21864858.860 8  89532941.942 8     -1766.765 8        50.973 8  21864858.138 9  85802399.859 9     -1693.150 9        57.573 9
G15  21110420.835 9 110936010.246 9      2287.197 9        55.714 9  21110418.758 8  86443635.841 8      1782.231 8        51.214 8  21110420.835 9  82841825.833 9      1707.972 9        57.814 9
E05  23312560.207 9 122508330.752 9       353.949 9        57.977 9  23312560.207 9 122508330.752 9       353.949 9        57.977 9  23312561.148 9  91483497.437 9       264.313 9        57.837 9  23312561.148 9  91483497.437 9       264.313 9        57.837 9  23312561.148 9  93870023.457 9       271.208 9        57.837 9  23312561.148 9  93870023.457 9       271.208 9        57.837 9  23312561.148 9  92676760.447 9       267.760 9        60.847 9  23312561.148 9  92676760.447 9       267.760 9        60.847 9
E09  25222650.981 9 132545925.515 9     -2099.335 9        57.363 9  25222650.981 9 132545925.515 9     -2099.335 9        57.363 9  25222651.479 9  98979102.178 9     -1567.685 9        57.223 9  25222651.479 9  98979102.178 9     -1567.685 9        57.223 9  25222651.479 9 101561165.713 9     -1608.581 9        57.223 9  25222651.479 9 101561165.713 9     -1608.581 9        57.223 9  25222651.479 9 100270133.946 9     -1588.133 9        60.233 9  25222651.479 9 100270133.946 9     -1588.133 9        60.233 9
E13  28146446.396 9 147910574.126 9       317.292 9        56.288 9  28146446.396 9 147910574.126 9       317.292 9        56.288 9  28146446.562 9 110452702.109 9       236.939 9        56.148 9  28146446.562 9 110452702.109 9       236.939 9        56.148 9  28146446.562 9 113334076.947 9       243.120 9        56.148 9  28146446.562 9 113334076.947 9       243.120 9        56.148 9  28146446.562 9 111893389.528 9       240.030 9        59.159 9  28146446.562 9 111893389.528 9       240.030 9        59.159 9
E25  27066819.426 9 142237096.106 9      3128.260 9        56.725 9  27066819.426 9 142237096.106 9      3128.260 9        56.725 9  27066820.478 9 106216017.455 9      2336.039 9        56.586 9  27066820.478 9 106216017.455 9      2336.039 9        56.586 9  27066820.478 9 108986870.084 9      2396.979 9        56.586 9  27066820.478 9 108986870.084 9      2396.979 9        56.586 9  27066820.478 9 107601443.769 9      2366.509 9        59.596 9  27066820.478 9 107601443.769 9      2366.509 9        59.596 9
E31  24972913.843 9 131233547.996 9     -1546.107 9        57.421 9  24972913.843 9 131233547.996 9     -1546.107 9        57.421 9  24972914.839 9  97999081.960 9     -1154.561 9        57.281 9  24972914.839 9  97999081.960 9     -1154.561 9        57.281 9  24972914.839 9 100555579.751 9     -1184.680 9        57.281 9  24972914.839 9 100555579.751 9     -1184.680 9        57.281 9  24972914.839 9  99277330.855 9     -1169.620 9        60.291 9  24972914.839 9  99277330.855 9     -1169.620 9        60.291 9
E15  27832661.052 9 146261621.013 9     -1865.631 9        56.361 9  27832661.052 9 146261621.013 9     -1865.631 9        56.361 9  27832662.658 9 109221346.668 9     -1393.166 9        56.221 9  27832662.658 9 109221346.668 9     -1393.166 9        56.221 9  27832662.658 9 112070599.190 9     -1429.509 9        56.221 9  27832662.658 9 112070599.190 9     -1429.509 9        56.221 9  27832662.658 9 110645972.929 9     -1411.337 9        59.231 9  27832662.658 9 110645972.929 9     -1411.337 9        59.231 9
E03  26316751.366 9 138295461.845 9      2461.374 9        56.975 9  26316751.366 9 138295461.845 9      2461.374 9        56.975 9  26316752.252 9 103272588.621 9      1838.039 9        56.835 9  26316752.252 9 103272588.621 9      1838.039 9        56.835 9  26316752.252 9 105966656.150 9      1885.988 9        56.835 9  26316752.252 9 105966656.150 9      1885.988 9        56.835 9  26316752.252 9 104619622.385 9      1862.013 9        59.846 9  26316752.252 9 104619622.385 9      1862.013 9        59.846 9
E24  24080763.918 9 126545268.501 9      1236.342 9        57.797 9  24080763.918 9 126545268.501 9      1236.342 9        57.797 9  24080763.143 9  94498087.073 9       923.242 9        57.657 9  24080763.143 9  94498087.073 9       923.242 9        57.657 9  24080763.143 9  96963254.562 9       947.327 9        57.657 9  24080763.143 9  96963254.562 9       947.327 9        57.657 9  24080763.143 9  95730670.817 9       935.285 9        60.667 9  24080763.143 9  95730670.817 9       935.285 9        60.667 9
> 2023 01 08 10 00 34.0000000  0 20       0.000000000000
G08  25074819.291 9 131769064.744 9     -1496.498 9        54.230 9  25074820.285 8 102677197.375 8     -1166.103 8        49.730 8  25074819.291 9  98398976.919 9     -1117.515 9        56.330 9
G13  20025136.147 9 105232800.716 9       568.809 9        56.113 9  20025133.889 8  81999575.728 8       443.228 8        51.613 8  20025136.147 9  78582935.599 9       424.760 9        58.213 9
G17  24959843.401 9 131164862.360 9      2931.012 9        54.187 9  24959841.233 8 102206377.379 8      2283.906 8        49.687 8  24959843.401 9  97947786.827 9      2188.743 9        56.287 9
G24  24516605.191 9 128835629.846 9      3530.146 9        54.417 9  24516605.733 8 100391402.099 8      2750.763 8        49.917 8  24516605.191 9  96208424.885 9      2636.148 9        56.517 9
G07  24609179.970 9 129322113.593 9     -2973.337 9        54.354 9  24609177.802 8 100770469.249 8     -2316.886 8        49.854 8  24609179.970 9  96571708.202 9     -2220.349 9        56.454 9
G18  24771809.678 9 130176738.480 9     -1376.993 9        54.334 9  24771808.053 8 101436412.938 8     -1072.981 8        49.834 8  24771809.678 9  97209902.112 9     -1028.274 9        56.434 9
G20  23528847.497 9 123644928.131 9     -3651.945 9        54.722 9  23528845.871 8  96346690.588 8     -2845.671 8        50.222 8  23528847.497 9  92332251.526 9     -2727.102 9        56.822 9
G14  20963188.606 9 110162299.659 9       114.959 9        55.781 9  20963187.071 8  85840746.694 8        89.578 8        51.281 8  20963188.606 9  82264054.940 9        85.846 9        57.881 9
G23  24857246.072 9 130625709.757 9      3223.286 9        54.295 9  24857244.446 8 101786260.686 8      2511.651 8        49.795 8  24857246.072 9  97545172.870 9      2406.999 9        56.395 9
G05  21751469.353 9 114304742.941 9     -2439.748 9        55.467 9  21751467.185 8  89068621.988 8     -1901.102 8        50.967 8  21751469.353 9  85357437.911 9     -1821.890 9        57.567 9
G30  21865289.625 9 114902872.510 9     -2267.617 9        55.473 9  21865290.348 8  89534708.811 8     -1766.974 8        50.973 8  21865289.625 9  85804093.108 9     -1693.350 9        57.573 9
G15  21109985.637 9 110933723.263 9      2286.765 9        55.714 9  21109983.560 8  86441853.777 8      1781.895 8        51.214 8  21109985.637 9  82840118.021 9      1707.649 9        57.814 9
E05  23312492.883 9 122507976.962 9       353.632 9        57.977 9  23312492.883 9 122507976.962 9       353.632 9        57.977 9  23312493.824 9  91483233.243 9       264.076 9        57.837 9  23312493.824 9  91483233.243 9       264.076 9        57.837 9  23312493.824 9  93869752.371 9       270.964 9        57.837 9  23312493.824 9  93869752.371 9       270.964 9        57.837 9  23312493.824 9  92676492.807 9       267.520 9        60.847 9  23312493.824 9  92676492.807 9       267.520 9        60.847 9
E09  25223050.493 9 132548024.966 9     -2099.569 9        57.363 9  25223050.493 9 132548024.966 9     -2099.569 9        57.363 9  25223050.991 9  98980669.950 9     -1567.860 9        57.223 9  25223050.991 9  98980669.950 9     -1567.860 9        57.223 9  25223050.991 9 101562774.383 9     -1608.761 9        57.223 9  25223050.991 9 101562774.383 9     -1608.761 9        57.223 9  25223050.991 9 100271722.166 9     -1588.311 9        60.233 9  25223050.991 9 100271722.166 9     -1588.311 9        60.233 9
E13  28146386.064 9 147910257.081 9       316.798 9        56.288 9  28146386.064 9 147910257.081 9       316.798 9        56.288 9  28146386.231 9 110452465.355 9       236.570 9        56.148 9  28146386.231 9 110452465.355 9       236.570 9        56.148 9  28146386.231 9 113333834.016 9       242.741 9        56.148 9  28146386.231 9 113333834.016 9       242.741 9        56.148 9  28146386.231 9 111893149.686 9       239.655 9        59.159 9  28146386.231 9 111893149.686 9       239.655 9        59.159 9
E25  27066224.149 9 142233967.905 9      3128.141 9        56.726 9  27066224.149 9 142233967.905 9      3128.141 9        56.726 9  27066225.201 9 106213681.460 9      2335.949 9        56.586 9  27066225.201 9 106213681.460 9      2335.949 9        56.586 9  27066225.201 9 108984473.150 9      2396.887 9        56.586 9  27066225.201 9 108984473.150 9      2396.887 9        56.586 9  27066225.201 9 107599077.305 9      2366.418 9        59.596 9  27066225.201 9 107599077.305 9      2366.418 9        59.596 9
E31  24973208.092 9 131235094.289 9     -1546.481 9        57.421 9  24973208.092 9 131235094.289 9     -1546.481 9        57.421 9  24973209.089 9  98000236.660 9     -1154.840 9        57.281 9  24973209.089 9  98000236.660 9     -1154.840 9        57.281 9  24973209.089 9 100556764.573 9     -1184.966 9        57.281 9  24973209.089 9 100556764.573 9     -1184.966 9        57.281 9  24973209.089 9  99278500.616 9     -1169.903 9        60.291 9  24973209.089 9  99278500.616 9     -1169.903 9        60.291 9
E15  27833016.103 9 146263486.819 9     -1865.977 9        56.360 9  27833016.103 9 146263486.819 9     -1865.977 9        56.360 9  27833017.709 9 109222739.965 9     -1393.425 9        56.221 9  27833017.709 9 109222739.965 9     -1393.425 9        56.221 9  27833017.709 9 112072028.833 9     -1429.775 9        56.221 9  27833017.709 9 112072028.833 9     -1429.775 9        56.221 9  27833017.709 9 110647384.399 9     -1411.600 9        59.231 9  27833017.709 9 110647384.399 9     -1411.600 9        59.231 9
E03  26316282.991 9 138293000.519 9      2461.275 9        56.975 9  26316282.991 9 138293000.519 9      2461.275 9        56.975 9  26316283.877 9 103270750.617 9      1837.965 9        56.836 9  26316283.877 9 103270750.617 9      1837.965 9        56.836 9  26316283.877 9 105964770.198 9      1885.912 9        56.836 9  26316283.877 9 105964770.198 9      1885.912 9        56.836 9  26316283.877 9 104617760.408 9      1861.938 9        59.846 9  26316283.877 9 104617760.408 9      1861.938 9        59.846 9
E24  24080528.692 9 126544032.377 9      1235.908 9        57.797 9  24080528.692 9 126544032.377 9      1235.908 9        57.797 9  24080527.916 9  94497163.993 9       922.918 9        57.657 9  24080527.916 9  94497163.993 9       922.918 9        57.657 9  24080527.916 9  96962307.401 9       946.994 9        57.657 9  24080527.916 9  96962307.401 9       946.994 9        57.657 9  24080527.916 9  95729735.697 9       934.956 9        60.668 9  24080527.916 9  95729735.697 9       934.956 9        60.668 9
> 2023 01 08 10 00 35.0000000  0 20       0.000000000000
G08  25075104.120 9 131770561.530 9     -1497.075 9        54.230 9  25075105.114 8 102678363.702 8     -1166.552 8        49.730 8  25075104.120 9  98400094.649 9     -1117.946 9        56.330 9
G13  20025027.951 9 105232232.144 9       568.335 9        56.113 9  20025025.694 8  81999132.685 8       442.858 8        51.613 8  20025027.951 9  78582511.016 9       424.406 9        58.213 9
G17  24959285.652 9 131161931.374 9      2930.965 9        54.188 9  24959283.485 8 102204093.493 8      2283.869 8        49.688 8  24959285.652 9  97945598.104 9      2188.708 9        56.288 9
G24  24515933.436 9 128832099.749 9      3530.041 9        54.417 9  24515933.977 8 100388651.374 8      2750.682 8        49.917 8  24515933.436 9  96205788.773 9      2636.070 9        56.517 9
G07  24609745.781 9 129325086.952 9     -2973.386 9        54.354 9  24609743.613 8 100772786.152 8     -2316.924 8        49.854 8  24609745.781 9  96573928.568 9     -2220.386 9        56.454 9
G18  24772071.761 9 130178115.737 9     -1377.518 9        54.334 9  24772070.136 8 101437486.125 8     -1073.391 8        49.834 8  24772071.761 9  97210930.582 9     -1028.666 9        56.434 9
G20  23529542.453 9 123648580.149 9     -3652.091 9        54.721 9  23529540.827 8  96349536.317 8     -2845.785 8        50.221 8  23529542.453 9  92334978.683 9     -2727.211 9        56.821 9
G14  20963166.793 9 110162185.030 9       114.300 9        55.781 9  20963165.257 8  85840657.372 8        89.065 8        51.281 8  20963166.793 9  82263969.340 9        85.354 9        57.881 9
G23  24856632.730 9 130622486.624 9      3222.976 9        54.295 9  24856631.104 8 101783749.154 8      2511.410 8        49.795 8  24856632.730 9  97542765.985 9      2406.768 9        56.395 9
G05  21751933.671 9 114307182.949 9     -2440.265 9        55.467 9  21751931.503 8  89070523.292 8     -1901.505 8        50.967 8  21751933.671 9  85359259.994 9     -1822.276 9        57.567 9
G30  21865721.163 9 114905140.260 9     -2267.885 9        55.472 9  21865721.886 8  89536475.888 8     -1767.183 8        50.972 8  21865721.163 9  85805786.557 9     -1693.550 9        57.572 9
G15  21109550.521 9 110931436.713 9      2286.333 9        55.714 9  21109548.444 8  86440072.049 8      1781.558 8        51.214 8  21109550.521 9  82838410.532 9      1707.327 9        57.814 9
E05  23312425.619 9 122507623.489 9       353.314 9        57.977 9  23312425.619 9 122507623.489 9       353.314 9        57.977 9  23312426.561 9  91482969.286 9       263.839 9        57.837 9  23312426.561 9  91482969.286 9       263.839 9        57.837 9  23312426.561 9  93869481.528 9       270.721 9        57.837 9  23312426.561 9  93869481.528 9       270.721 9        57.837 9  23312426.561 9  92676225.407 9       267.280 9        60.847 9  23312426.561 9  92676225.407 9       267.280 9        60.847 9
E09  25223450.050 9 132550124.651 9     -2099.804 9        57.363 9  25223450.050 9 132550124.651 9     -2099.804 9        57.363 9  25223450.548 9  98982237.897 9     -1568.036 9        57.223 9  25223450.548 9  98982237.897 9     -1568.036 9        57.223 9  25223450.548 9 101564383.233 9     -1608.941 9        57.223 9  25223450.548 9 101564383.233 9     -1608.941 9        57.223 9  25223450.548 9 100273310.565 9     -1588.488 9        60.233 9  25223450.548 9 100273310.565 9     -1588.488 9        60.233 9
E13  28146325.827 9 147909940.530 9       316.303 9        56.288 9  28146325.827 9 147909940.530 9       316.303 9        56.288 9  28146325.993 9 110452228.970 9       236.200 9        56.149 9  28146325.993 9 110452228.970 9       236.200 9        56.149 9  28146325.993 9 113333591.465 9       242.362 9        56.149 9  28146325.993 9 113333591.465 9       242.362 9        56.149 9  28146325.993 9 111892910.217 9       239.281 9        59.159 9  28146325.993 9 111892910.217 9       239.281 9        59.159 9
E25  27065628.895 9 142230839.823 9      3128.021 9        56.726 9  27065628.895 9 142230839.823 9      3128.021 9        56.726 9  27065629.947 9 106211345.554 9      2335.860 9        56.586 9  27065629.947 9 106211345.554 9      2335.860 9        56.586 9  27065629.947 9 108982076.308 9      2396.796 9        56.586 9  27065629.947 9 108982076.308 9      2396.796 9        56.586 9  27065629.947 9 107596710.931 9      2366.328 9        59.596 9  27065629.947 9 107596710.931 9      2366.328 9        59.596 9
E31  24973502.413 9 131236640.956 9     -1546.855 9        57.421 9  24973502.413 9 131236640.956 9     -1546.855 9        57.421 9  24973503.410 9  98001391.638 9     -1155.119 9        57.281 9  24973503.410 9  98001391.638 9     -1155.119 9        57.281 9  24973503.410 9 100557949.681 9     -1185.252 9        57.281 9  24973503.410 9 100557949.681 9     -1185.252 9        57.281 9  24973503.410 9  99279670.660 9     -1170.186 9        60.291 9  24973503.410 9  99279670.660 9     -1170.186 9        60.291 9
E15  27833371.220 9 146265352.971 9     -1866.324 9        56.360 9  27833371.220 9 146265352.971 9     -1866.324 9        56.360 9  27833372.826 9 109224133.520 9     -1393.684 9        56.220 9  27833372.826 9 109224133.520 9     -1393.684 9        56.220 9  27833372.826 9 112073458.742 9     -1430.041 9        56.220 9  27833372.826 9 112073458.742 9     -1430.041 9        56.220 9  27833372.826 9 110648796.131 9     -1411.862 9        59.231 9  27833372.826 9 110648796.131 9     -1411.862 9        59.231 9
E03  26315814.635 9 138290539.291 9      2461.176 9        56.976 9  26315814.635 9 138290539.291 9      2461.176 9        56.976 9  26315815.521 9 103268912.688 9      1837.891 9        56.836 9  26315815.521 9 103268912.688 9      1837.891 9        56.836 9  26315815.521 9 105962884.323 9      1885.836 9        56.836 9  26315815.521 9 105962884.323 9      1885.836 9        56.836 9  26315815.521 9 104615898.505 9      1861.863 9        59.846 9  26315815.521 9 104615898.505 9      1861.863 9        59.846 9
E24  24080293.548 9 126542796.686 9      1235.474 9        57.797 9  24080293.548 9 126542796.686 9      1235.474 9        57.797 9  24080292.772 9  94496241.236 9       922.594 9        57.657 9  24080292.772 9  94496241.236 9       922.594 9        57.657 9  24080292.772 9  96961360.573 9       946.662 9        57.657 9  24080292.772 9  96961360.573 9       946.662 9        57.657 9  24080292.772 9  95728800.905 9       934.628 9        60.668 9  24080292.772 9  95728800.905 9       934.628 9        60.668 9
> 2023 01 08 10 00 36.0000000  0 20       0.000000000000
G08  25075389.059 9 131772058.893 9     -1497.652 9        54.230 9  25075390.052 8 102679530.478 8     -1167.001 8        49.730 8  25075389.059 9  98401212.810 9     -1118.376 9        56.330 9
G13  20024919.846 9 105231664.046 9       567.860 9        56.113 9  20024917.588 8  81998690.011 8       442.488 8        51.613 8  20024919.846 9  78582086.788 9       424.051 9        58.213 9
G17  24958727.913 9 131159000.434 9      2930.918 9        54.188 9  24958725.746 8 102201809.645 8      2283.833 8        49.688 8  24958727.913 9  97943409.415 9      2188.673 9        56.288 9
G24  24515261.700 9 128828569.756 9      3529.936 9        54.417 9  24515262.242 8 100385900.730 8      2750.600 8        49.917 8  24515261.700 9  96203152.740 9      2635.991 9        56.517 9
G07  24610311.602 9 129328060.360 9     -2973.436 9        54.354 9  24610309.434 8 100775103.093 8     -2316.963 8        49.854 8  24610311.602 9  96576148.970 9     -2220.423 9        56.454 9
G18  24772333.945 9 130179493.519 9     -1378.044 9        54.334 9  24772332.319 8 101438559.722 8     -1073.801 8        49.834 8  24772333.945 9  97211959.446 9     -1029.059 9        56.434 9
G20  23530237.437 9 123652232.314 9     -3652.237 9        54.721 9  23530235.811 8  96352382.159 8     -2845.899 8        50.221 8  23530237.437 9  92337705.949 9     -2727.320 9        56.821 9
G14  20963145.105 9 110162071.059 9       113.641 9        55.781 9  20963143.570 8  85840568.564 8        88.551 8        51.281 8  20963145.105 9  82263884.233 9        84.862 9        57.881 9
G23  24856019.447 9 130619263.801 9      3222.666 9        54.295 9  24856017.821 8 101781237.863 8      2511.169 8        49.795 8  24856019.447 9  97540359.332 9      2406.537 9        56.395 9
G05  21752398.087 9 114309623.473 9     -2440.782 9        55.467 9  21752395.919 8  89072425.000 8     -1901.908 8        50.967 8  21752398.087 9  85361082.464 9     -1822.662 9        57.567 9
G30  21866152.753 9 114907408.277 9     -2268.152 9        55.472 9  21866153.475 8  89538243.174 8     -1767.392 8        50.972 8  21866152.753 9  85807480.207 9     -1693.750 9        57.572 9
G15  21109115.487 9 110929150.594 9      2285.901 9        55.714 9  21109113.410 8  86438290.658 8      1781.222 8        51.214 8  21109115.487 9  82836703.366 9      1707.004 9        57.814 9
E05  23312358.416 9 122507270.333 9       352.997 9        57.977 9  23312358.416 9 122507270.333 9       352.997 9        57.977 9  23312359.357 9  91482705.566 9       263.602 9        57.837 9  23312359.357 9  91482705.566 9       263.602 9        57.837 9  23312359.357 9  93869210.928 9       270.478 9        57.837 9  23312359.357 9  93869210.928 9       270.478 9        57.837 9  23312359.357 9  92675958.247 9       267.040 9        60.847 9  23312359.357 9  92675958.247 9       267.040 9        60.847 9
E09  25223849.651 9 132552224.572 9     -2100.039 9        57.363 9  25223849.651 9 132552224.572 9     -2100.039 9        57.363 9  25223850.150 9  98983806.019 9     -1568.211 9        57.223 9  25223850.150 9  98983806.019 9     -1568.211 9        57.223 9  25223850.150 9 101565992.263 9     -1609.121 9        57.223 9  25223850.150 9 101565992.263 9     -1609.121 9        57.223 9  25223850.150 9 100274899.141 9     -1588.666 9        60.233 9  25223850.150 9 100274899.141 9     -1588.666 9        60.233 9
E13  28146265.683 9 147909624.475 9       315.808 9        56.288 9  28146265.683 9 147909624.475 9       315.808 9        56.288 9  28146265.850 9 110451992.954 9       235.831 9        56.149 9  28146265.850 9 110451992.954 9       235.831 9        56.149 9  28146265.850 9 113333349.292 9       241.983 9        56.149 9  28146265.850 9 113333349.292 9       241.983 9        56.149 9  28146265.850 9 111892671.123 9       238.907 9        59.159 9  28146265.850 9 111892671.123 9       238.907 9        59.159 9
E25  27065033.664 9 142227711.860 9      3127.902 9        56.726 9  27065033.664 9 142227711.860 9      3127.902 9        56.726 9  27065034.716 9 106209009.738 9      2335.771 9        56.586 9  27065034.716 9 106209009.738 9      2335.771 9        56.586 9  27065034.716 9 108979679.557 9      2396.704 9        56.586 9  27065034.716 9 108979679.557 9      2396.704 9        56.586 9  27065034.716 9 107594344.648 9      2366.238 9        59.596 9  27065034.716 9 107594344.648 9      2366.238 9        59.596 9
E31  24973796.805 9 131238187.997 9     -1547.228 9        57.420 9  24973796.805 9 131238187.997 9     -1547.228 9        57.420 9  24973797.802 9  98002546.896 9     -1155.398 9        57.281 9  24973797.802 9  98002546.896 9     -1155.398 9        57.281 9  24973797.802 9 100559135.076 9     -1185.539 9        57.281 9  24973797.802 9 100559135.076 9     -1185.539 9        57.281 9  24973797.802 9  99280840.986 9     -1170.468 9        60.291 9  24973797.802 9  99280840.986 9     -1170.468 9        60.291 9
E15  27833726.403 9 146267219.470 9     -1866.671 9        56.360 9  27833726.403 9 146267219.470 9     -1866.671 9        56.360 9  27833728.009 9 109225527.334 9     -1393.942 9        56.220 9  27833728.009 9 109225527.334 9     -1393.942 9        56.220 9  27833728.009 9 112074888.917 9     -1430.306 9        56.220 9  27833728.009 9 112074888.917 9     -1430.306 9        56.220 9  27833728.009 9 110650208.126 9     -1412.124 9        59.231 9  27833728.009 9 110650208.126 9     -1412.124 9        59.231 9
E03  26315346.298 9 138288078.163 9      2461.077 9        56.976 9  26315346.298 9 138288078.163 9      2461.077 9        56.976 9  26315347.184 9 103267074.832 9      1837.817 9        56.836 9  26315347.184 9 103267074.832 9      1837.817 9        56.836 9  26315347.184 9 105960998.524 9      1885.760 9        56.836 9  26315347.184 9 105960998.524 9      1885.760 9        56.836 9  26315347.184 9 104614036.678 9      1861.788 9        59.846 9  26315347.184 9 104614036.678 9      1861.788 9        59.846 9
E24  24080058.486 9 126541561.429 9      1235.040 9        57.797 9  24080058.486 9 126541561.429 9      1235.040 9        57.797 9  24080057.711 9  94495318.804 9       922.270 9        57.657 9  24080057.711 9  94495318.804 9       922.270 9        57.657 9  24080057.711 9  96960414.077 9       946.330 9        57.657 9  24080057.711 9  96960414.077 9       946.330 9        57.657 9  24080057.711 9  95727866.441 9       934.300 9        60.668 9  24080057.711 9  95727866.441 9       934.300 9        60.668 9
> 2023 01 08 10 00 37.0000000  0 20       0.000000000000
G08  25075674.107 9 131773556.832 9     -1498.228 9        54.229 9  25075675.101 8 102680697.704 8     -1167.451 8        49.729 8  25075674.107 9  98402331.401 9     -1118.807 9        56.329 9
G13  20024811.831 9 105231096.423 9       567.386 9        56.114 9  20024809.573 8  81998247.708 8       442.119 8        51.614 8  20024811.831 9  78581662.914 9       423.697 9        58.214 9
G17  24958170.183 9 131156069.542 9      2930.871 9        54.188 9  24958168.015 8 102199525.832 8      2283.796 8        49.688 8  24958170.183 9  97941220.762 9      2188.638 9        56.288 9
G24  24514589.985 9 128825039.869 9      3529.831 9        54.418 9  24514590.527 8 100383150.169 8      2750.518 8        49.918 8  24514589.985 9  96200516.785 9      2635.913 9        56.518 9
G07  24610877.432 9 129331033.817 9     -2973.485 9        54.353 9  24610875.264 8 100777420.073 8     -2317.001 8        49.853 8  24610877.432 9  96578369.409 9     -2220.459 9        56.453 9
G18  24772596.228 9 130180871.828 9     -1378.570 9        54.334 9  24772594.603 8 101439633.728 8     -1074.211 8        49.834 8  24772596.228 9  97212988.703 9     -1029.452 9        56.434 9
G20  23530932.448 9 123655884.624 9     -3652.382 9        54.721 9  23530930.823 8  96355228.115 8     -2846.012 8        50.221 8  23530932.448 9  92340433.323 9     -2727.428 9        56.821 9
G14  20963123.542 9 110161957.748 9       112.982 9        55.781 9  20963122.007 8  85840480.270 8        88.038 8        51.281 8  20963123.542 9  82263799.617 9        84.370 9        57.881 9
G23  24855406.223 9 130616041.287 9      3222.357 9        54.295 9  24855404.597 8 101778726.814 8      2510.927 8        49.795 8  24855406.223 9  97537952.909 9      2406.305 9        56.395 9
G05  21752862.602 9 114312064.515 9     -2441.299 9        55.467 9  21752860.434 8  89074327.110 8     -1902.311 8        50.967 8  21752862.602 9  85362905.319 9     -1823.048 9        57.567 9
G30  21866584.393 9 114909676.561 9     -2268.420 9        55.472 9  21866585.115 8  89540010.669 8     -1767.600 8        50.972 8  21866584.393 9  85809174.056 9     -1693.950 9        57.572 9
G15  21108680.535 9 110926864.907 9      2285.469 9        55.714 9  21108678.458 8  86436509.604 8      1780.885 8        51.214 8  21108680.535 9  82834996.522 9      1706.682 9        57.814 9
E05  23312291.273 9 122506917.495 9       352.679 9        57.977 9  23312291.273 9 122506917.495 9       352.679 9        57.977 9  23312292.215 9  91482442.083 9       263.365 9        57.837 9  23312292.215 9  91482442.083 9       263.365 9        57.837 9  23312292.215 9  93868940.572 9       270.235 9        57.837 9  23312292.215 9  93868940.572 9       270.235 9        57.837 9  23312292.215 9  92675691.327 9       266.800 9        60.847 9  23312292.215 9  92675691.327 9       266.800 9        60.847 9
E09  25224249.298 9 132554324.727 9     -2100.274 9        57.362 9  25224249.298 9 132554324.727 9     -2100.274 9        57.362 9  25224249.796 9  98985374.317 9     -1568.386 9        57.223 9  25224249.796 9  98985374.317 9     -1568.386 9        57.223 9  25224249.796 9 101567601.473 9     -1609.301 9        57.223 9  25224249.796 9 101567601.473 9     -1609.301 9        57.223 9  25224249.796 9 100276487.895 9     -1588.844 9        60.233 9  25224249.796 9 100276487.895 9     -1588.844 9        60.233 9
E13  28146205.634 9 147909308.914 9       315.313 9        56.288 9  28146205.634 9 147909308.914 9       315.313 9        56.288 9  28146205.800 9 110451757.308 9       235.461 9        56.149 9  28146205.800 9 110451757.308 9       235.461 9        56.149 9  28146205.800 9 113333107.499 9       241.604 9        56.149 9  28146205.800 9 113333107.499 9       241.604 9        56.149 9  28146205.800 9 111892432.403 9       238.533 9        59.159 9  28146205.800 9 111892432.403 9       238.533 9        59.159 9
E25  27064438.455 9 142224584.017 9      3127.782 9        56.726 9  27064438.455 9 142224584.017 9      3127.782 9        56.726 9  27064439.507 9 106206674.011 9      2335.682 9        56.586 9  27064439.507 9 106206674.011 9      2335.682 9        56.586 9  27064439.507 9 108977282.898 9      2396.613 9        56.586 9  27064439.507 9 108977282.898 9      2396.613 9        56.586 9  27064439.507 9 107591978.455 9      2366.147 9        59.597 9  27064439.507 9 107591978.455 9      2366.147 9        59.597 9
E31  24974091.268 9 131239735.411 9     -1547.602 9        57.420 9  24974091.268 9 131239735.411 9     -1547.602 9        57.420 9  24974092.265 9  98003702.433 9     -1155.677 9        57.280 9  24974092.265 9  98003702.433 9     -1155.677 9        57.280 9  24974092.265 9 100560320.757 9     -1185.825 9        57.280 9  24974092.265 9 100560320.757 9     -1185.825 9        57.280 9  24974092.265 9  99282011.595 9     -1170.751 9        60.291 9  24974092.265 9  99282011.595 9     -1170.751 9        60.291 9
E15  27834081.652 9 146269086.316 9     -1867.017 9        56.360 9  27834081.652 9 146269086.316 9     -1867.017 9        56.360 9  27834083.258 9 109226921.407 9     -1394.201 9        56.220 9  27834083.258 9 109226921.407 9     -1394.201 9        56.220 9  27834083.258 9 112076319.357 9     -1430.572 9        56.220 9  27834083.258 9 112076319.357 9     -1430.572 9        56.220 9  27834083.258 9 110651620.382 9     -1412.386 9        59.231 9  27834083.258 9 110651620.382 9     -1412.386 9        59.231 9
E03  26314877.980 9 138285617.135 9      2460.977 9        56.976 9  26314877.980 9 138285617.135 9      2460.977 9        56.976 9  26314878.866 9 103265237.051 9      1837.743 9        56.836 9  26314878.866 9 103265237.051 9      1837.743 9        56.836 9  26314878.866 9 105959112.800 9      1885.684 9        56.836 9  26314878.866 9 105959112.800 9      1885.684 9        56.836 9  26314878.866 9 104612174.926 9      1861.713 9        59.846 9  26314878.866 9 104612174.926 9      1861.713 9        59.846 9
E24  24079823.507 9 126540326.606 9      1234.606 9        57.797 9  24079823.507 9 126540326.606 9      1234.606 9        57.797 9  24079822.732 9  94494396.696 9       921.946 9        57.658 9  24079822.732 9  94494396.696 9       921.946 9        57.658 9  24079822.732 9  96959467.914 9       945.997 9        57.658 9  24079822.732 9  96959467.914 9       945.997 9        57.658 9  24079822.732 9  95726932.305 9       933.972 9        60.668 9  24079822.732 9  95726932.305 9       933.972 9        60.668 9
> 2023 01 08 10 00 38.0000000  0 20       0.000000000000
G08  25075959.265 9 131775055.348 9     -1498.805 9        54.229 9  25075960.259 8 102681865.379 8     -1167.900 8        49.729 8  25075959.265 9  98403450.423 9     -1119.238 9        56.329 9
G13  20024703.906 9 105230529.275 9       566.911 9        56.114 9  20024701.648 8  81997805.774 8       441.749 8        51.614 8  20024703.906 9  78581239.394 9       423.343 9        58.214 9
G17  24957612.462 9 131153138.697 9      2930.824 9        54.188 9  24957610.294 8 102197242.057 8      2283.759 8        49.688 8  24957612.462 9  97939032.144 9      2188.602 9        56.288 9
G24  24513918.290 9 128821510.087 9      3529.726 9        54.418 9  24513918.832 8 100380399.689 8      2750.436 8        49.918 8  24513918.290 9  96197880.909 9      2635.834 9        56.518 9
G07  24611443.271 9 129334007.324 9     -2973.534 9        54.353 9  24611441.104 8 100779737.091 8     -2317.039 8        49.853 8  24611443.271 9  96580589.885 9     -2220.496 9        56.453 9
G18  24772858.612 9 130182250.662 9     -1379.096 9        54.334 9  24772856.986 8 101440708.145 8     -1074.620 8        49.834 8  24772858.612 9  97214018.352 9     -1029.844 9        56.434 9
G20  23531627.487 9 123659537.079 9     -3652.528 9        54.721 9  23531625.862 8  96358074.184 8     -2846.125 8        50.221 8  23531627.487 9  92343160.806 9     -2727.537 9        56.821 9
G14  20963102.105 9 110161845.095 9       112.323 9        55.781 9  20963100.570 8  85840392.488 8        87.525 8        51.281 8  20963102.105 9  82263715.493 9        83.878 9        57.881 9
G23  24854793.058 9 130612819.084 9      3222.047 9        54.295 9  24854791.432 8 101776216.006 8      2510.686 8        49.795 8  24854793.058 9  97535546.719 9      2406.074 9        56.395 9
G05  21753327.215 9 114314506.073 9     -2441.815 9        55.466 9  21753325.047 8  89076229.623 8     -1902.713 8        50.966 8  21753327.215 9  85364728.561 9     -1823.434 9        57.566 9
G30  21867016.084 9 114911945.114 9     -2268.688 9        55.472 9  21867016.807 8  89541778.372 8     -1767.809 8        50.972 8  21867016.084 9  85810868.105 9     -1694.150 9        57.572 9
G15  21108245.666 9 110924579.653 9      2285.037 9        55.715 9  21108243.588 8  86434728.886 8      1780.548 8        51.215 8  21108245.666 9  82833290.000 9      1706.359 9        57.815 9
E05  23312224.191 9 122506564.974 9       352.362 9        57.977 9  23312224.191 9 122506564.974 9       352.362 9        57.977 9  23312225.132 9  91482178.837 9       263.128 9        57.837 9  23312225.132 9  91482178.837 9       263.128 9        57.837 9  23312225.132 9  93868670.459 9       269.992 9        57.837 9  23312225.132 9  93868670.459 9       269.992 9        57.837 9  23312225.132 9  92675424.648 9       266.560 9        60.847 9  23312225.132 9  92675424.648 9       266.560 9        60.847 9
E09  25224648.989 9 132556425.117 9     -2100.509 9        57.362 9  25224648.989 9 132556425.117 9     -2100.509 9        57.362 9  25224649.487 9  98986942.790 9     -1568.562 9        57.222 9  25224649.487 9  98986942.790 9     -1568.562 9        57.222 9  25224649.487 9 101569210.863 9     -1609.481 9        57.222 9  25224649.487 9 101569210.863 9     -1609.481 9        57.222 9  25224649.487 9 100278076.826 9     -1589.021 9        60.233 9  25224649.487 9 100278076.826 9     -1589.021 9        60.233 9
E13  28146145.679 9 147908993.847 9       314.819 9        56.288 9  28146145.679 9 147908993.847 9       314.819 9        56.288 9  28146145.845 9 110451522.031 9       235.092 9        56.149 9  28146145.845 9 110451522.031 9       235.092 9        56.149 9  28146145.845 9 113332866.084 9       241.225 9        56.149 9  28146145.845 9 113332866.084 9       241.225 9        56.149 9  28146145.845 9 111892194.058 9       238.158 9        59.159 9  28146145.845 9 111892194.058 9       238.158 9        59.159 9
E25  27063843.269 9 142221456.293 9      3127.663 9        56.726 9  27063843.269 9 142221456.293 9      3127.663 9        56.726 9  27063844.321 9 106204338.373 9      2335.592 9        56.586 9  27063844.321 9 106204338.373 9      2335.592 9        56.586 9  27063844.321 9 108974886.331 9      2396.521 9        56.586 9  27063844.321 9 108974886.331 9      2396.521 9        56.586 9  27063844.321 9 107589612.352 9      2366.057 9        59.597 9  27063844.321 9 107589612.352 9      2366.057 9        59.597 9
E31  24974385.803 9 131241283.199 9     -1547.975 9        57.420 9  24974385.803 9 131241283.199 9     -1547.975 9        57.420 9  24974386.799 9  98004858.248 9     -1155.956 9        57.280 9  24974386.799 9  98004858.248 9     -1155.956 9        57.280 9  24974386.799 9 100561506.724 9     -1186.111 9        57.280 9  24974386.799 9 100561506.724 9     -1186.111 9        57.280 9  24974386.799 9  99283182.486 9     -1171.033 9        60.291 9  24974386.799 9  99283182.486 9     -1171.033 9        60.291 9
E15  27834436.967 9 146270953.508 9     -1867.364 9        56.360 9  27834436.967 9 146270953.508 9     -1867.364 9        56.360 9  27834438.573 9 109228315.739 9     -1394.460 9        56.220 9  27834438.573 9 109228315.739 9     -1394.460 9        56.220 9  27834438.573 9 112077750.063 9     -1430.837 9        56.220 9  27834438.573 9 112077750.063 9     -1430.837 9        56.220 9  27834438.573 9 110653032.901 9     -1412.648 9        59.230 9  27834438.573 9 110653032.901 9     -1412.648 9        59.230 9
E03  26314409.680 9 138283156.205 9      2460.878 9        56.976 9  26314409.680 9 138283156.205 9      2460.878 9        56.976 9  26314410.566 9 103263399.344 9      1837.669 9        56.836 9  26314410.566 9 103263399.344 9      1837.669 9        56.836 9  26314410.566 9 105957227.153 9      1885.608 9        56.836 9  26314410.566 9 105957227.153 9      1885.608 9        56.836 9  26314410.566 9 104610313.248 9      1861.638 9        59.846 9  26314410.566 9 104610313.248 9      1861.638 9        59.846 9
E24  24079588.610 9 126539092.217 9      1234.172 9        57.797 9  24079588.610 9 126539092.217 9      1234.172 9        57.797 9  24079587.835 9  94493474.912 9       921.622 9        57.658 9  24079587.835 9  94493474.912 9       921.622 9        57.658 9  24079587.835 9  96958522.084 9       945.665 9        57.658 9  24079587.835 9  96958522.084 9       945.665 9        57.658 9  24079587.835 9  95725998.498 9       933.643 9        60.668 9  24079587.835 9  95725998.498 9       933.643 9        60.668 9
> 2023 01 08 10 00 39.0000000  0 20       0.000000000000
G08  25076244.533 9 131776554.441 9     -1499.382 9        54.229 9  25076245.527 8 102683033.503 8     -1168.349 8        49.729 8  25076244.533 9  98404569.875 9     -1119.668 9        56.329 9
G13  20024596.072 9 105229962.601 9       566.436 9        56.114 9  20024593.814 8  81997364.210 8       441.379 8        51.614 8  20024596.072 9  78580816.228 9       422.988 9        58.214 9
G17  24957054.749 9 131150207.899 9      2930.777 9        54.188 9  24957052.582 8 102194958.318 8      2283.722 8        49.688 8  24957054.749 9  97936843.561 9      2188.567 9        56.288 9
G24  24513246.615 9 128817980.410 9      3529.621 9        54.418 9  24513247.157 8 100377649.292 8      2750.354 8        49.918 8  24513246.615 9  96195245.111 9      2635.756 9        56.518 9
G07  24612009.120 9 129336980.879 9     -2973.583 9        54.353 9  24612006.953 8 100782054.147 8     -2317.078 8        49.853 8  24612009.120 9  96582810.397 9     -2220.533 9        56.453 9
G18  24773121.095 9 130183630.022 9     -1379.622 9        54.334 9  24773119.469 8 101441782.971 8     -1075.030 8        49.834 8  24773121.095 9  97215048.393 9     -1030.237 9        56.434 9
G20  23532322.554 9 123663189.681 9     -3652.673 9        54.720 9  23532320.929 8  96360920.367 8     -2846.239 8        50.220 8  23532322.554 9  92345888.398 9     -2727.645 9        56.820 9
G14  20963080.794 9 110161733.101 9       111.664 9        55.781 9  20963079.258 8  85840305.221 8        87.011 8        51.281 8  20963080.794 9  82263631.861 9        83.386 9        57.881 9
G23  24854179.952 9 130609597.191 9      3221.736 9        54.296 9  24854178.326 8 101773705.440 8      2510.444 8        49.796 8  24854179.952 9  97533140.759 9      2405.842 9        56.396 9
G05  21753791.926 9 114316948.148 9     -2442.332 9        55.466 9  21753789.759 8  89078132.538 8     -1903.116 8        50.966 8  21753791.926 9  85366552.188 9     -1823.819 9        57.566 9
G30  21867447.826 9 114914213.935 9     -2268.956 9        55.472 9  21867448.549 8  89543546.284 8     -1768.018 8        50.972 8  21867447.826 9  85812562.354 9     -1694.350 9        57.572 9
G15  21107810.878 9 110922294.830 9      2284.605 9        55.715 9  21107808.801 8  86432948.505 8      1780.212 8        51.215 8  21107810.878 9  82831583.802 9      1706.036 9        57.815 9
E05  23312157.169 9 122506212.770 9       352.045 9        57.977 9  23312157.169 9 122506212.770 9       352.045 9        57.977 9  23312158.110 9  91481915.828 9       262.890 9        57.837 9  23312158.110 9  91481915.828 9       262.890 9        57.837 9  23312158.110 9  93868400.588 9       269.748 9        57.837 9  23312158.110 9  93868400.588 9       269.748 9        57.837 9  23312158.110 9  92675158.208 9       266.319 9        60.847 9  23312158.110 9  92675158.208 9       266.319 9        60.847 9
E09  25225048.724 9 132558525.742 9     -2100.744 9        57.362 9  25225048.724 9 132558525.742 9     -2100.744 9        57.362 9  25225049.223 9  98988511.438 9     -1568.737 9        57.222 9  25225049.223 9  98988511.438 9     -1568.737 9        57.222 9  25225049.223 9 101570820.432 9     -1609.661 9        57.222 9  25225049.223 9 101570820.432 9     -1609.661 9        57.222 9  25225049.223 9 100279665.935 9     -1589.199 9        60.233 9  25225049.223 9 100279665.935 9     -1589.199 9        60.233 9
E13  28146085.818 9 147908679.276 9       314.324 9        56.288 9  28146085.818 9 147908679.276 9       314.324 9        56.288 9  28146085.984 9 110451287.124 9       234.723 9        56.149 9  28146085.984 9 110451287.124 9       234.723 9        56.149 9  28146085.984 9 113332625.049 9       240.846 9        56.149 9  28146085.984 9 113332625.049 9       240.846 9        56.149 9  28146085.984 9 111891956.087 9       237.784 9        59.159 9  28146085.984 9 111891956.087 9       237.784 9        59.159 9
E25  27063248.105 9 142218328.689 9      3127.543 9        56.727 9  27063248.105 9 142218328.689 9      3127.543 9        56.727 9  27063249.157 9 106202002.825 9      2335.503 9        56.587 9  27063249.157 9 106202002.825 9      2335.503 9        56.587 9  27063249.157 9 108972489.855 9      2396.429 9        56.587 9  27063249.157 9 108972489.855 9      2396.429 9        56.587 9  27063249.157 9 107587246.340 9      2365.966 9        59.597 9  27063249.157 9 107587246.340 9      2365.966 9        59.597 9
E31  24974680.408 9 131242831.360 9     -1548.349 9        57.420 9  24974680.408 9 131242831.360 9     -1548.349 9        57.420 9  24974681.405 9  98006014.342 9     -1156.235 9        57.280 9  24974681.405 9  98006014.342 9     -1156.235 9        57.280 9  24974681.405 9 100562692.977 9     -1186.397 9        57.280 9  24974681.405 9 100562692.977 9     -1186.397 9        57.280 9  24974681.405 9  99284353.660 9     -1171.316 9        60.291 9  24974681.405 9  99284353.660 9     -1171.316 9        60.291 9
E15  27834792.348 9 146272821.047 9     -1867.710 9        56.360 9  27834792.348 9 146272821.047 9     -1867.710 9        56.360 9  27834793.953 9 109229710.330 9     -1394.719 9        56.220 9  27834793.953 9 109229710.330 9     -1394.719 9        56.220 9  27834793.953 9 112079181.034 9     -1431.103 9        56.220 9  27834793.953 9 112079181.034 9     -1431.103 9        56.220 9  27834793.953 9 110654445.682 9     -1412.911 9        59.230 9  27834793.953 9 110654445.682 9     -1412.911 9        59.230 9
E03  26313941.400 9 138280695.375 9      2460.779 9        56.976 9  26313941.400 9 138280695.375 9      2460.779 9        56.976 9  26313942.286 9 103261561.711 9      1837.595 9        56.836 9  26313942.286 9 103261561.711 9      1837.595 9        56.836 9  26313942.286 9 105955341.582 9      1885.532 9        56.836 9  26313942.286 9 105955341.582 9      1885.532 9        56.836 9  26313942.286 9 104608451.646 9      1861.563 9        59.847 9  26313942.286 9 104608451.646 9      1861.563 9        59.847 9
E24  24079353.797 9 126537858.262 9      1233.739 9        57.798 9  24079353.797 9 126537858.262 9      1233.739 9        57.798 9  24079353.021 9  94492553.452 9       921.298 9        57.658 9  24079353.021 9  94492553.452 9       921.298 9        57.658 9  24079353.021 9  96957576.585 9       945.332 9        57.658 9  24079353.021 9  96957576.585 9       945.332 9        57.658 9  24079353.021 9  95725065.019 9       933.315 9        60.668 9  24079353.021 9  95725065.019 9       933.315 9        60.668 9
> 2023 01 08 10 00 40.0000000  0 20       0.000000000000
G08  25076529.911 9 131778054.110 9     -1499.958 9        54.229 9  25076530.904 8 102684202.076 8     -1168.799 8        49.729 8  25076529.911 9  98405689.758 9     -1120.099 9        56.329 9
G13  20024488.328 9 105229396.402 9       565.962 9        56.114 9  20024486.070 8  81996923.016 8       441.009 8        51.614 8  20024488.328 9  78580393.417 9       422.634 9        58.214 9
G17  24956497.046 9 131147277.148 9      2930.729 9        54.188 9  24956494.878 8 102192674.616 8      2283.685 8        49.688 8  24956497.046 9  97934655.013 9      2188.532 9        56.288 9
G24  24512574.960 9 128814450.838 9      3529.516 9        54.418 9  24512575.501 8 100374898.976 8      2750.272 8        49.918 8  24512574.960 9  96192609.392 9      2635.677 9        56.518 9
G07  24612574.978 9 129339954.484 9     -2973.632 9        54.353 9  24612572.811 8 100784371.242 8     -2317.116 8        49.853 8  24612574.978 9  96585030.946 9     -2220.569 9        56.453 9
G18  24773383.679 9 130185009.908 9     -1380.147 9        54.334 9  24773382.053 8 101442858.206 8     -1075.439 8        49.834 8  24773383.679 9  97216078.827 9     -1030.629 9        56.434 9
G20  23533017.649 9 123666842.427 9     -3652.818 9        54.720 9  23533016.023 8  96363766.663 8     -2846.352 8        50.220 8  23533017.649 9  92348616.098 9     -2727.754 9        56.820 9
G14  20963059.607 9 110161621.766 9       111.006 9        55.781 9  20963058.072 8  85840218.466 8        86.498 8        51.281 8  20963059.607 9  82263548.722 9        82.894 9        57.881 9
G23  24853566.905 9 130606375.608 9      3221.426 9        54.296 9  24853565.280 8 101771195.115 8      2510.202 8        49.796 8  24853566.905 9  97530735.032 9      2405.610 9        56.396 9
G05  21754256.736 9 114319390.739 9     -2442.849 9        55.466 9  21754254.568 8  89080035.856 8     -1903.518 8        50.966 8  21754256.736 9  85368376.201 9     -1824.205 9        57.566 9
G30  21867879.619 9 114916483.023 9     -2269.223 9        55.472 9  21867880.342 8  89545314.405 8     -1768.226 8        50.972 8  21867879.619 9  85814256.803 9     -1694.550 9        57.572 9
G15  21107376.173 9 110920010.440 9      2284.173 9        55.715 9  21107374.096 8  86431168.460 8      1779.875 8        51.215 8  21107376.173 9  82829877.926 9      1705.713 9        57.815 9
E05  23312090.207 9 122505860.885 9       351.727 9        57.977 9  23312090.207 9 122505860.885 9       351.727 9        57.977 9  23312091.148 9  91481653.056 9       262.653 9        57.837 9  23312091.148 9  91481653.056 9       262.653 9        57.837 9  23312091.148 9  93868130.962 9       269.505 9        57.837 9  23312091.148 9  93868130.962 9       269.505 9        57.837 9  23312091.148 9  92674892.009 9       266.079 9        60.847 9  23312091.148 9  92674892.009 9       266.079 9        60.847 9
E09  25225448.504 9 132560626.602 9     -2100.978 9        57.362 9  25225448.504 9 132560626.602 9     -2100.978 9        57.362 9  25225449.003 9  98990080.262 9     -1568.912 9        57.222 9  25225449.003 9  98990080.262 9     -1568.912 9        57.222 9  25225449.003 9 101572430.182 9     -1609.841 9        57.222 9  25225449.003 9 101572430.182 9     -1609.841 9        57.222 9  25225449.003 9 100281255.222 9     -1589.377 9        60.232 9  25225449.003 9 100281255.222 9     -1589.377 9        60.232 9
E13  28146026.051 9 147908365.199 9       313.829 9        56.288 9  28146026.051 9 147908365.199 9       313.829 9        56.288 9  28146026.217 9 110451052.586 9       234.353 9        56.149 9  28146026.217 9 110451052.586 9       234.353 9        56.149 9  28146026.217 9 113332384.393 9       240.467 9        56.149 9  28146026.217 9 113332384.393 9       240.467 9        56.149 9  28146026.217 9 111891718.490 9       237.410 9        59.159 9  28146026.217 9 111891718.490 9       237.410 9        59.159 9
E25  27062652.965 9 142215201.204 9      3127.424 9        56.727 9  27062652.965 9 142215201.204 9      3127.424 9        56.727 9  27062654.017 9 106199667.366 9      2335.414 9        56.587 9  27062654.017 9 106199667.366 9      2335.414 9        56.587 9  27062654.017 9 108970093.471 9      2396.338 9        56.587 9  27062654.017 9 108970093.471 9      2396.338 9        56.587 9  27062654.017 9 107584880.418 9      2365.876 9        59.597 9  27062654.017 9 107584880.418 9      2365.876 9        59.597 9
E31  24974975.084 9 131244379.895 9     -1548.722 9        57.420 9  24974975.084 9 131244379.895 9     -1548.722 9        57.420 9  24974976.081 9  98007170.716 9     -1156.513 9        57.280 9  24974976.081 9  98007170.716 9     -1156.513 9        57.280 9  24974976.081 9 100563879.517 9     -1186.683 9        57.280 9  24974976.081 9 100563879.517 9     -1186.683 9        57.280 9  24974976.081 9  99285525.116 9     -1171.598 9        60.290 9  24974976.081 9  99285525.116 9     -1171.598 9        60.290 9
E15  27835147.794 9 146274688.932 9     -1868.056 9        56.360 9  27835147.794 9 146274688.932 9     -1868.056 9        56.360 9  27835149.400 9 109231105.179 9     -1394.977 9        56.220 9  27835149.400 9 109231105.179 9     -1394.977 9        56.220 9  27835149.400 9 112080612.270 9     -1431.368 9        56.220 9  27835149.400 9 112080612.270 9     -1431.368 9        56.220 9  27835149.400 9 110655858.725 9     -1413.173 9        59.230 9  27835149.400 9 110655858.725 9     -1413.173 9        59.230 9
E03  26313473.138 9 138278234.643 9      2460.680 9        56.976 9  26313473.138 9 138278234.643 9      2460.680 9        56.976 9  26313474.024 9 103259724.152 9      1837.520 9        56.837 9  26313474.024 9 103259724.152 9      1837.520 9        56.837 9  26313474.024 9 105953456.086 9      1885.456 9        56.837 9  26313474.024 9 105953456.086 9      1885.456 9        56.837 9  26313474.024 9 104606590.119 9      1861.488 9        59.847 9  26313474.024 9 104606590.119 9      1861.488 9        59.847 9
E24  24079119.065 9 126536624.740 9      1233.305 9        57.798 9  24079119.065 9 126536624.740 9      1233.305 9        57.798 9  24079118.290 9  94491632.316 9       920.974 9        57.658 9  24079118.290 9  94491632.316 9       920.974 9        57.658 9  24079118.290 9  96956631.420 9       945.000 9        57.658 9  24079118.290 9  96956631.420 9       945.000 9        57.658 9  24079118.290 9  95724131.868 9       932.987 9        60.668 9  24079118.290 9  95724131.868 9       932.987 9        60.668 9
> 2023 01 08 10 00 41.0000000  0 20       0.000000000000
G08  25076815.398 9 131779554.356 9     -1500.535 9        54.229 9  25076816.392 8 102685371.099 8     -1169.248 8        49.729 8  25076815.398 9  98406810.071 9     -1120.529 9        56.329 9
G13  20024380.674 9 105228830.677 9       565.487 9        56.114 9  20024378.416 8  81996482.191 8       440.639 8        51.614 8  20024380.674 9  78579970.960 9       422.279 9        58.214 9
G17  24955939.352 9 131144346.445 9      2930.682 9        54.189 9  24955937.184 8 102190390.952 8      2283.648 8        49.689 8  24955939.352 9  97932466.501 9      2188.496 9        56.289 9
G24  24511903.324 9 128810921.372 9      3529.410 9        54.419 9  24511903.866 8 100372148.742 8      2750.190 8        49.919 8  24511903.324 9  96189973.752 9      2635.599 9        56.519 9
G07  24613140.846 9 129342928.138 9     -2973.681 9        54.353 9  24613138.678 8 100786688.375 8     -2317.154 8        49.853 8  24613140.846 9  96587251.532 9     -2220.606 9        56.453 9
G18  24773646.362 9 130186390.319 9     -1380.673 9        54.334 9  24773644.736 8 101443933.851 8     -1075.849 8        49.834 8  24773646.362 9  97217109.654 9     -1031.022 9        56.434 9
G20  23533712.771 9 123670495.319 9     -3652.964 9        54.720 9  23533711.145 8  96366613.072 8     -2846.465 8        50.220 8  23533712.771 9  92351343.907 9     -2727.862 9        56.820 9
G14  20963038.546 9 110161511.090 9       110.347 9        55.781 9  20963037.011 8  85840132.225 8        85.984 8        51.281 8  20963038.546 9  82263466.074 9        82.402 9        57.881 9
G23  24852953.917 9 130603154.335 9      3221.116 9        54.296 9  24852952.292 8 101768685.033 8      2509.960 8        49.796 8  24852953.917 9  97528329.536 9      2405.379 9        56.396 9
G05  21754721.644 9 114321833.847 9     -2443.365 9        55.466 9  21754719.476 8  89081939.577 8     -1903.921 8        50.966 8  21754721.644 9  85370200.600 9     -1824.591 9        57.566 9
G30  21868311.463 9 114918752.378 9     -2269.491 9        55.471 9  21868312.186 8  89547082.734 8     -1768.435 8        50.971 8  21868311.463 9  85815951.451 9     -1694.750 9        57.571 9
G15  21106941.551 9 110917726.482 9      2283.740 9        55.715 9  21106939.474 8  86429388.753 8      1779.538 8        51.215 8  21106941.551 9  82828172.373 9      1705.390 9        57.815 9
E05  23312023.306 9 122505509.316 9       351.410 9        57.977 9  23312023.306 9 122505509.316 9       351.410 9        57.977 9  23312024.247 9  91481390.521 9       262.416 9        57.837 9  23312024.247 9  91481390.521 9       262.416 9        57.837 9  23312024.247 9  93867861.578 9       269.262 9        57.837 9  23312024.247 9  93867861.578 9       269.262 9        57.837 9  23312024.247 9  92674626.049 9       265.839 9        60.847 9  23312024.247 9  92674626.049 9       265.839 9        60.847 9
E09  25225848.329 9 132562727.696 9     -2101.213 9        57.362 9  25225848.329 9 132562727.696 9     -2101.213 9        57.362 9  25225848.828 9  98991649.261 9     -1569.088 9        57.222 9  25225848.828 9  98991649.261 9     -1569.088 9        57.222 9  25225848.828 9 101574040.111 9     -1610.020 9        57.222 9  25225848.828 9 101574040.111 9     -1610.020 9        57.222 9  25225848.828 9 100282844.686 9     -1589.554 9        60.232 9  25225848.828 9 100282844.686 9     -1589.554 9        60.232 9
E13  28145966.379 9 147908051.617 9       313.335 9        56.289 9  28145966.379 9 147908051.617 9       313.335 9        56.289 9  28145966.545 9 110450818.418 9       233.984 9        56.149 9  28145966.545 9 110450818.418 9       233.984 9        56.149 9  28145966.545 9 113332144.116 9       240.088 9        56.149 9  28145966.545 9 113332144.116 9       240.088 9        56.149 9  28145966.545 9 111891481.267 9       237.036 9        59.159 9  28145966.545 9 111891481.267 9       237.036 9        59.159 9
E25  27062057.847 9 142212073.840 9      3127.304 9        56.727 9  27062057.847 9 142212073.840 9      3127.304 9        56.727 9  27062058.899 9 106197331.996 9      2335.324 9        56.587 9  27062058.899 9 106197331.996 9      2335.324 9        56.587 9  27062058.899 9 108967697.178 9      2396.246 9        56.587 9  27062058.899 9 108967697.178 9      2396.246 9        56.587 9  27062058.899 9 107582514.587 9      2365.785 9        59.597 9  27062058.899 9 107582514.587 9      2365.785 9        59.597 9
E31  24975269.832 9 131245928.803 9     -1549.096 9        57.420 9  24975269.832 9 131245928.803 9     -1549.096 9        57.420 9  24975270.828 9  98008327.368 9     -1156.792 9        57.280 9  24975270.828 9  98008327.368 9     -1156.792 9        57.280 9  24975270.828 9 100565066.343 9     -1186.969 9        57.280 9  24975270.828 9 100565066.343 9     -1186.969 9        57.280 9  24975270.828 9  99286696.855 9     -1171.881 9        60.290 9  24975270.828 9  99286696.855 9     -1171.881 9        60.290 9
E15  27835503.307 9 146276557.163 9     -1868.403 9        56.360 9  27835503.307 9 146276557.163 9     -1868.403 9        56.360 9  27835504.913 9 109232500.287 9     -1395.236 9        56.220 9  27835504.913 9 109232500.287 9     -1395.236 9        56.220 9  27835504.913 9 112082043.772 9     -1431.633 9        56.220 9  27835504.913 9 112082043.772 9     -1431.633 9        56.220 9  27835504.913 9 110657272.029 9     -1413.435 9        59.230 9  27835504.913 9 110657272.029 9     -1413.435 9        59.230 9
E03  26313004.896 9 138275774.012 9      2460.580 9        56.977 9  26313004.896 9 138275774.012 9      2460.580 9        56.977 9  26313005.782 9 103257886.667 9      1837.446 9        56.837 9  26313005.782 9 103257886.667 9      1837.446 9        56.837 9  26313005.782 9 105951570.667 9      1885.380 9        56.837 9  26313005.782 9 105951570.667 9      1885.380 9        56.837 9  26313005.782 9 104604728.667 9      1861.413 9        59.847 9  26313005.782 9 104604728.667 9      1861.413 9        59.847 9
E24  24078884.417 9 126535391.653 9      1232.871 9        57.798 9  24078884.417 9 126535391.653 9      1232.871 9        57.798 9  24078883.641 9  94490711.504 9       920.650 9        57.658 9  24078883.641 9  94490711.504 9       920.650 9        57.658 9  24078883.641 9  96955686.587 9       944.667 9        57.658 9  24078883.641 9  96955686.587 9       944.667 9        57.658 9  24078883.641 9  95723199.045 9       932.659 9        60.668 9  24078883.641 9  95723199.045 9       932.659 9        60.668 9
> 2023 01 08 10 00 42.0000000  0 20       0.000000000000
G08  25077100.995 9 131781055.178 9     -1501.111 9        54.229 9  25077101.989 8 102686540.570 8     -1169.697 8        49.729 8  25077100.995 9  98407930.815 9     -1120.959 9        56.329 9
G13  20024273.110 9 105228265.427 9       565.013 9        56.114 9  20024270.852 8  81996041.737 8       440.270 8        51.614 8  20024273.110 9  78579548.858 9       421.925 9        58.214 9
G17  24955381.667 9 131141415.789 9      2930.634 9        54.189 9  24955379.499 8 102188107.324 8      2283.611 8        49.689 8  24955381.667 9  97930278.025 9      2188.461 9        56.289 9
G24  24511231.709 9 128807392.010 9      3529.305 9        54.419 9  24511232.251 8 100369398.591 8      2750.108 8        49.919 8  24511231.709 9  96187338.190 9      2635.520 9        56.519 9
G07  24613706.723 9 129345901.841 9     -2973.730 9        54.352 9  24613704.555 8 100789005.546 8     -2317.192 8        49.852 8  24613706.723 9  96589472.154 9     -2220.643 9        56.452 9
G18  24773909.146 9 130187771.256 9     -1381.198 9        54.334 9  24773907.520 8 101445009.906 8     -1076.258 8        49.834 8  24773909.146 9  97218140.873 9     -1031.414 9        56.434 9
G20  23534407.921 9 123674148.356 9     -3653.109 9        54.719 9  23534406.295 8  96369459.594 8     -2846.578 8        50.219 8  23534407.921 9  92354071.824 9     -2727.971 9        56.819 9
G14  20963017.611 9 110161401.073 9       109.688 9        55.781 9  20963016.075 8  85840046.497 8        85.471 8        51.281 8  20963017.611 9  82263383.918 9        81.910 9        57.881 9
G23  24852340.989 9 130599933.372 9      3220.805 9        54.296 9  24852339.363 8 101766175.192 8      2509.719 8        49.796 8  24852340.989 9  97525924.272 9      2405.147 9        56.396 9
G05  21755186.650 9 114324277.472 9     -2443.881 9        55.466 9  21755184.483 8  89083843.700 8     -1904.323 8        50.966 8  21755186.650 9  85372025.385 9     -1824.976 9        57.566 9
G30  21868743.358 9 114921022.002 9     -2269.759 9        55.471 9  21868744.081 8  89548851.272 8     -1768.643 8        50.971 8  21868743.358 9  85817646.300 9     -1694.950 9        57.571 9
G15  21106507.010 9 110915442.957 9      2283.308 9        55.715 9  21106504.933 8  86427609.383 8      1779.201 8        51.215 8  21106507.010 9  82826467.143 9      1705.068 9        57.815 9
E05  23311956.465 9 122505158.065 9       351.092 9        57.977 9  23311956.465 9 122505158.065 9       351.092 9        57.977 9  23311957.406 9  91481128.223 9       262.179 9        57.837 9  23311957.406 9  91481128.223 9       262.179 9        57.837 9  23311957.406 9  93867592.438 9       269.019 9        57.837 9  23311957.406 9  93867592.438 9       269.019 9        57.837 9  23311957.406 9  92674360.330 9       265.599 9        60.847 9  23311957.406 9  92674360.330 9       265.599 9        60.847 9
E09  25226248.199 9 132564829.025 9     -2101.448 9        57.362 9  25226248.199 9 132564829.025 9     -2101.448 9        57.362 9  25226248.697 9  98993218.435 9     -1569.263 9        57.222 9  25226248.697 9  98993218.435 9     -1569.263 9        57.222 9  25226248.697 9 101575650.221 9     -1610.200 9        57.222 9  25226248.697 9 101575650.221 9     -1610.200 9        57.222 9  25226248.697 9 100284434.328 9     -1589.732 9        60.232 9  25226248.697 9 100284434.328 9     -1589.732 9        60.232 9
E13  28145906.800 9 147907738.530 9       312.840 9        56.289 9  28145906.800 9 147907738.530 9       312.840 9        56.289 9  28145906.966 9 110450584.619 9       233.614 9        56.149 9  28145906.966 9 110450584.619 9       233.614 9        56.149 9  28145906.966 9 113331904.218 9       239.708 9        56.149 9  28145906.966 9 113331904.218 9       239.708 9        56.149 9  28145906.966 9 111891244.418 9       236.661 9        59.159 9  28145906.966 9 111891244.418 9       236.661 9        59.159 9
E25  27061462.752 9 142208946.595 9      3127.184 9        56.727 9  27061462.752 9 142208946.595 9      3127.184 9        56.727 9  27061463.804 9 106194996.715 9      2335.235 9        56.587 9  27061463.804 9 106194996.715 9      2335.235 9        56.587 9  27061463.804 9 108965300.978 9      2396.154 9        56.587 9  27061463.804 9 108965300.978 9      2396.154 9        56.587 9  27061463.804 9 107580148.847 9      2365.694 9        59.598 9  27061463.804 9 107580148.847 9      2365.694 9        59.598 9
E31  24975564.650 9 131247478.084 9     -1549.469 9        57.420 9  24975564.650 9 131247478.084 9     -1549.469 9        57.420 9  24975565.647 9  98009484.299 9     -1157.071 9        57.280 9  24975565.647 9  98009484.299 9     -1157.071 9        57.280 9  24975565.647 9 100566253.454 9     -1187.255 9        57.280 9  24975565.647 9 100566253.454 9     -1187.255 9        57.280 9  24975565.647 9  99287868.876 9     -1172.163 9        60.290 9  24975565.647 9  99287868.876 9     -1172.163 9        60.290 9
E15  27835858.885 9 146278425.740 9     -1868.749 9        56.360 9  27835858.885 9 146278425.740 9     -1868.749 9        56.360 9  27835860.491 9 109233895.653 9     -1395.494 9        56.220 9  27835860.491 9 109233895.653 9     -1395.494 9        56.220 9  27835860.491 9 112083475.540 9     -1431.899 9        56.220 9  27835860.491 9 112083475.540 9     -1431.899 9        56.220 9  27835860.491 9 110658685.596 9     -1413.696 9        59.230 9  27835860.491 9 110658685.596 9     -1413.696 9        59.230 9
E03  26312536.672 9 138273313.479 9      2460.481 9        56.977 9  26312536.672 9 138273313.479 9      2460.481 9        56.977 9  26312537.558 9 103256049.257 9      1837.372 9        56.837 9  26312537.558 9 103256049.257 9      1837.372 9        56.837 9  26312537.558 9 105949685.324 9      1885.303 9        56.837 9  26312537.558 9 105949685.324 9      1885.303 9        56.837 9  26312537.558 9 104602867.290 9      1861.338 9        59.847 9  26312537.558 9 104602867.290 9      1861.338 9        59.847 9
E24  24078649.850 9 126534159.000 9      1232.437 9        57.798 9  24078649.850 9 126534159.000 9      1232.437 9        57.798 9  24078649.075 9  94489791.016 9       920.326 9        57.658 9  24078649.075 9  94489791.016 9       920.326 9        57.658 9  24078649.075 9  96954742.086 9       944.335 9        57.658 9  24078649.075 9  96954742.086 9       944.335 9        57.658 9  24078649.075 9  95722266.551 9       932.330 9        60.668 9  24078649.075 9  95722266.551 9       932.330 9        60.668 9
> 2023 01 08 10 00 43.0000000  0 20       0.000000000000
G08  25077386.702 9 131782556.576 9     -1501.687 9        54.229 9  25077387.695 8 102687710.491 8     -1170.146 8        49.729 8  25077386.702 9  98409051.989 9     -1121.390 9        56.329 9
G13  20024165.637 9 105227700.652 9       564.538 9        56.114 9  20024163.379 8  81995601.652 8       439.900 8        51.614 8  20024165.637 9  78579127.110 9       421.570 9        58.214 9
G17  24954823.990 9 131138485.181 9      2930.587 9        54.189 9  24954821.823 8 102185823.733 8      2283.574 8        49.689 8  24954823.990 9  97928089.584 9      2188.425 9        56.289 9
G24  24510560.114 9 128803862.755 9      3529.200 9        54.419 9  24510560.656 8 100366648.521 8      2750.026 8        49.919 8  24510560.114 9  96184702.706 9      2635.441 9        56.519 9
G07  24614272.609 9 129348875.593 9     -2973.779 9        54.352 9  24614270.441 8 100791322.755 8     -2317.231 8        49.852 8  24614272.609 9  96591692.813 9     -2220.679 9        56.452 9
G18  24774172.029 9 130189152.718 9     -1381.724 9        54.334 9  24774170.403 8 101446086.370 8     -1076.668 8        49.834 8  24774172.029 9  97219172.484 9     -1031.807 9        56.434 9
G20  23535103.098 9 123677801.537 9     -3653.254 9        54.719 9  23535101.473 8  96372306.230 8     -2846.691 8        50.219 8  23535103.098 9  92356799.849 9     -2728.079 9        56.819 9
G14  20962996.801 9 110161291.715 9       109.029 9        55.781 9  20962995.265 8  85839961.283 8        84.958 8        51.281 8  20962996.801 9  82263302.255 9        81.418 9        57.881 9
G23  24851728.119 9 130596712.720 9      3220.495 9        54.297 9  24851726.493 8 101763665.593 8      2509.477 8        49.797 8  24851728.119 9  97523519.239 9      2404.915 9        56.397 9
G05  21755651.755 9 114326721.612 9     -2444.398 9        55.466 9  21755649.587 8  89085748.225 8     -1904.726 8        50.966 8  21755651.755 9  85373850.555 9     -1825.362 9        57.566 9
G30  21869175.304 9 114923291.893 9     -2270.026 9        55.471 9  21869176.027 8  89550620.018 8     -1768.852 8        50.971 8  21869175.304 9  85819341.348 9     -1695.149 9        57.571 9
G15  21106072.552 9 110913159.864 9      2282.875 9        55.715 9  21106070.475 8  86425830.349 8      1778.864 8        51.215 8  21106072.552 9  82824762.236 9      1704.745 9        57.815 9
E05  23311889.685 9 122504807.132 9       350.775 9        57.977 9  23311889.685 9 122504807.132 9       350.775 9        57.977 9  23311890.626 9  91480866.163 9       261.942 9        57.837 9  23311890.626 9  91480866.163 9       261.942 9        57.837 9  23311890.626 9  93867323.541 9       268.775 9        57.837 9  23311890.626 9  93867323.541 9       268.775 9        57.837 9  23311890.626 9  92674094.852 9       265.359 9        60.847 9  23311890.626 9  92674094.852 9       265.359 9        60.847 9
E09  25226648.113 9 132566930.589 9     -2101.683 9        57.362 9  25226648.113 9 132566930.589 9     -2101.683 9        57.362 9  25226648.612 9  98994787.785 9     -1569.438 9        57.222 9  25226648.612 9  98994787.785 9     -1569.438 9        57.222 9  25226648.612 9 101577260.510 9     -1610.380 9        57.222 9  25226648.612 9 101577260.510 9     -1610.380 9        57.222 9  25226648.612 9 100286024.148 9     -1589.909 9        60.232 9  25226648.612 9 100286024.148 9     -1589.909 9        60.232 9
E13  28145847.316 9 147907425.937 9       312.345 9        56.289 9  28145847.316 9 147907425.937 9       312.345 9        56.289 9  28145847.482 9 110450351.189 9       233.245 9        56.149 9  28145847.482 9 110450351.189 9       233.245 9        56.149 9  28145847.482 9 113331664.699 9       239.329 9        56.149 9  28145847.482 9 113331664.699 9       239.329 9        56.149 9  28145847.482 9 111891007.944 9       236.287 9        59.159 9  28145847.482 9 111891007.944 9       236.287 9        59.159 9
E25  27060867.680 9 142205819.470 9      3127.064 9        56.727 9  27060867.680 9 142205819.470 9      3127.064 9        56.727 9  27060868.732 9 106192661.525 9      2335.145 9        56.587 9  27060868.732 9 106192661.525 9      2335.145 9        56.587 9  27060868.732 9 108962904.869 9      2396.062 9        56.587 9  27060868.732 9 108962904.869 9      2396.062 9        56.587 9  27060868.732 9 107577783.197 9      2365.604 9        59.598 9  27060868.732 9 107577783.197 9      2365.604 9        59.598 9
E31  24975859.540 9 131249027.739 9     -1549.842 9        57.420 9  24975859.540 9 131249027.739 9     -1549.842 9        57.420 9  24975860.536 9  98010641.508 9     -1157.350 9        57.280 9  24975860.536 9  98010641.508 9     -1157.350 9        57.280 9  24975860.536 9 100567440.852 9     -1187.541 9        57.280 9  24975860.536 9 100567440.852 9     -1187.541 9        57.280 9  24975860.536 9  99289041.180 9     -1172.446 9        60.290 9  24975860.536 9  99289041.180 9     -1172.446 9        60.290 9
E15  27836214.530 9 146280294.664 9     -1869.095 9        56.359 9  27836214.530 9 146280294.664 9     -1869.095 9        56.359 9  27836216.135 9 109235291.278 9     -1395.753 9        56.220 9  27836216.135 9 109235291.278 9     -1395.753 9        56.220 9  27836216.135 9 112084907.572 9     -1432.164 9        56.220 9  27836216.135 9 112084907.572 9     -1432.164 9        56.220 9  27836216.135 9 110660099.425 9     -1413.958 9        59.230 9  27836216.135 9 110660099.425 9     -1413.958 9        59.230 9
E03  26312068.467 9 138270853.046 9      2460.381 9        56.977 9  26312068.467 9 138270853.046 9      2460.381 9        56.977 9  26312069.353 9 103254211.920 9      1837.298 9        56.837 9  26312069.353 9 103254211.920 9      1837.298 9        56.837 9  26312069.353 9 105947800.057 9      1885.227 9        56.837 9  26312069.353 9 105947800.057 9      1885.227 9        56.837 9  26312069.353 9 104601005.989 9      1861.263 9        59.847 9  26312069.353 9 104601005.989 9      1861.263 9        59.847 9
E24  24078415.367 9 126532926.780 9      1232.003 9        57.798 9  24078415.367 9 126532926.780 9      1232.003 9        57.798 9  24078414.592 9  94488870.852 9       920.002 9        57.658 9  24078414.592 9  94488870.852 9       920.002 9        57.658 9  24078414.592 9  96953797.918 9       944.002 9        57.658 9  24078414.592 9  96953797.918 9       944.002 9        57.658 9  24078414.592 9  95721334.385 9       932.002 9        60.668 9  24078414.592 9  95721334.385 9       932.002 9        60.668 9
> 2023 01 08 10 00 44.0000000  0 20       0.000000000000
G08  25077672.518 9 131784058.551 9     -1502.263 9        54.229 9  25077673.511 8 102688880.861 8     -1170.595 8        49.729 8  25077672.518 9  98410173.593 9     -1121.820 9        56.329 9
G13  20024058.254 9 105227136.351 9       564.063 9        56.114 9  20024055.997 8  81995161.937 8       439.530 8        51.614 8  20024058.254 9  78578705.717 9       421.216 9        58.214 9
G17  24954266.323 9 131135554.621 9      2930.539 9        54.189 9  24954264.156 8 102183540.180 8      2283.537 8        49.689 8  24954266.323 9  97925901.178 9      2188.389 9        56.289 9
G24  24509888.539 9 128800333.604 9      3529.094 9        54.419 9  24509889.081 8 100363898.534 8      2749.944 8        49.919 8  24509888.539 9  96182067.302 9      2635.363 9        56.519 9
G07  24614838.504 9 129351849.394 9     -2973.828 9        54.352 9  24614836.337 8 100793640.002 8     -2317.269 8        49.852 8  24614838.504 9  96593913.508 9     -2220.716 9        56.452 9
G18  24774435.013 9 130190534.705 9     -1382.249 9        54.334 9  24774433.387 8 101447163.243 8     -1077.077 8        49.834 8  24774435.013 9  97220204.487 9     -1032.199 9        56.434 9
G20  23535798.303 9 123681454.864 9     -3653.398 9        54.719 9  23535796.677 8  96375152.978 8     -2846.804 8        50.219 8  23535798.303 9  92359527.983 9     -2728.187 9        56.819 9
G14  20962976.116 9 110161183.015 9       108.370 9        55.781 9  20962974.580 8  85839876.582 8        84.444 8        51.281 8  20962976.116 9  82263221.083 9        80.926 9        57.881 9
G23  24851115.308 9 130593492.379 9      3220.184 9        54.297 9  24851113.683 8 101761156.236 8      2509.235 8        49.797 8  24851115.308 9  97521114.439 9      2404.683 9        56.397 9
G05  21756116.957 9 114329166.269 9     -2444.914 9        55.465 9  21756114.790 8  89087653.152 8     -1905.128 8        50.965 8  21756116.957 9  85375676.110 9     -1825.747 9        57.565 9
G30  21869607.301 9 114925562.051 9     -2270.294 9        55.471 9  21869608.024 8  89552388.972 8     -1769.060 8        50.971 8  21869607.301 9  85821036.597 9     -1695.349 9        57.571 9
G15  21105638.176 9 110910877.203 9      2282.443 9        55.716 9  21105636.099 8  86424051.653 8      1778.527 8        51.216 8  21105638.176 9  82823057.652 9      1704.421 9        57.816 9
E05  23311822.965 9 122504456.516 9       350.457 9        57.977 9  23311822.965 9 122504456.516 9       350.457 9        57.977 9  23311823.906 9  91480604.339 9       261.705 9        57.837 9  23311823.906 9  91480604.339 9       261.705 9        57.837 9  23311823.906 9  93867054.887 9       268.532 9        57.837 9  23311823.906 9  93867054.887 9       268.532 9        57.837 9  23311823.906 9  92673829.613 9       265.118 9        60.847 9  23311823.906 9  92673829.613 9       265.118 9        60.847 9
E09  25227048.072 9 132569032.388 9     -2101.917 9        57.361 9  25227048.072 9 132569032.388 9     -2101.917 9        57.361 9  25227048.571 9  98996357.310 9     -1569.614 9        57.222 9  25227048.571 9  98996357.310 9     -1569.614 9        57.222 9  25227048.571 9 101578870.979 9     -1610.560 9        57.222 9  25227048.571 9 101578870.979 9     -1610.560 9        57.222 9  25227048.571 9 100287614.145 9     -1590.087 9        60.232 9  25227048.571 9 100287614.145 9     -1590.087 9        60.232 9
E13  28145787.925 9 147907113.839 9       311.850 9        56.289 9  28145787.925 9 147907113.839 9       311.850 9        56.289 9  28145788.092 9 110450118.129 9       232.875 9        56.149 9  28145788.092 9 110450118.129 9       232.875 9        56.149 9  28145788.092 9 113331425.559 9       238.950 9        56.149 9  28145788.092 9 113331425.559 9       238.950 9        56.149 9  28145788.092 9 111890771.844 9       235.913 9        59.159 9  28145788.092 9 111890771.844 9       235.913 9        59.159 9
E25  27060272.631 9 142202692.464 9      3126.944 9        56.728 9  27060272.631 9 142202692.464 9      3126.944 9        56.728 9  27060273.683 9 106190326.423 9      2335.056 9        56.588 9  27060273.683 9 106190326.423 9      2335.056 9        56.588 9  27060273.683 9 108960508.852 9      2395.970 9        56.588 9  27060273.683 9 108960508.852 9      2395.970 9        56.588 9  27060273.683 9 107575417.638 9      2365.513 9        59.598 9  27060273.683 9 107575417.638 9      2365.513 9        59.598 9
E31  24976154.500 9 131250577.767 9     -1550.215 9        57.420 9  24976154.500 9 131250577.767 9     -1550.215 9        57.420 9  24976155.497 9  98011798.997 9     -1157.628 9        57.280 9  24976155.497 9  98011798.997 9     -1157.628 9        57.280 9  24976155.497 9 100568628.536 9     -1187.827 9        57.280 9  24976155.497 9 100568628.536 9     -1187.827 9        57.280 9  24976155.497 9  99290213.766 9     -1172.728 9        60.290 9  24976155.497 9  99290213.766 9     -1172.728 9        60.290 9
E15  27836570.240 9 146282163.934 9     -1869.441 9        56.359 9  27836570.240 9 146282163.934 9     -1869.441 9        56.359 9  27836571.846 9 109236687.161 9     -1396.011 9        56.220 9  27836571.846 9 109236687.161 9     -1396.011 9        56.220 9  27836571.846 9 112086339.870 9     -1432.429 9        56.220 9  27836571.846 9 112086339.870 9     -1432.429 9        56.220 9  27836571.846 9 110661513.515 9     -1414.220 9        59.230 9  27836571.846 9 110661513.515 9     -1414.220 9        59.230 9
E03  26311600.281 9 138268392.713 9      2460.282 9        56.977 9  26311600.281 9 138268392.713 9      2460.282 9        56.977 9  26311601.167 9 103252374.658 9      1837.224 9        56.837 9  26311601.167 9 103252374.658 9      1837.224 9        56.837 9  26311601.167 9 105945914.867 9      1885.151 9        56.837 9  26311601.167 9 105945914.867 9      1885.151 9        56.837 9  26311601.167 9 104599144.762 9      1861.187 9        59.847 9  26311601.167 9 104599144.762 9      1861.187 9        59.847 9
E24  24078180.966 9 126531694.995 9      1231.569 9        57.798 9  24078180.966 9 126531694.995 9      1231.569 9        57.798 9  24078180.191 9  94487951.013 9       919.678 9        57.658 9  24078180.191 9  94487951.013 9       919.678 9        57.658 9  24078180.191 9  96952854.083 9       943.669 9        57.658 9  24078180.191 9  96952854.083 9       943.669 9        57.658 9  24078180.191 9  95720402.548 9       931.674 9        60.668 9  24078180.191 9  95720402.548 9       931.674 9        60.668 9
