     3.04           OBSERVATION DATA    M: MIXED            RINEX VERSION / TYPE
PosApp V8.01.00     Spirent             20230108 100018 UTC PGM / RUN BY / DATE 
                                                            MARKER NAME         
AIRBORNE                                                    MARKER TYPE         
gpssim              Spirent                                 OBSERVER / AGENCY   
rec_num             rec_type            rec_vers            REC # / TYPE / VERS 
1                   ant_type                                ANT # / TYPE        
     1.000                                                  INTERVAL            
  2023     1     8    10     0    0.0000000     GPS         TIME OF FIRST OBS   
  4157161.1260   671329.1980  4774767.0310                  APPROX POSITION XYZ 
        0.0000        0.0000        0.0000                  ANTENNA: DELTA X/Y/Z
G   12 C1C L1C D1C S1C C2X L2X D2X S2X C5I L5I D5I S5I      SYS / # / OBS TYPES 
E   32 C1B L1B D1B S1B C1C L1C D1C S1C C5I L5I D5I S5I C5Q  SYS / # / OBS TYPES 
       L5Q D5Q S5Q C7I L7I D7I S7I C7Q L7Q D7Q S7Q C8I L8I  SYS / # / OBS TYPES 
       D8I S8I C8Q L8Q D8Q S8Q                              SYS / # / OBS TYPES 
GNSS SIMULATOR OUTPUTS ALIGNED CARRIER PHASES.              COMMENT             
NO FURTHER PHASE SHIFTS APPLIED IN THE RINEX ENCODER.       COMMENT             
G L1C                                                       SYS / PHASE SHIFT   
G L2X  0.00000                                              SYS / PHASE SHIFT   
G L5I                                                       SYS / PHASE SHIFT   
E L1B                                                       SYS / PHASE SHIFT   
E L1C  0.00000                                              SYS / PHASE SHIFT   
E L5I                                                       SYS / PHASE SHIFT   
E L5Q  0.00000                                              SYS / PHASE SHIFT   
E L7I                                                       SYS / PHASE SHIFT   
E L7Q  0.00000                                              SYS / PHASE SHIFT   
E L8I                                                       SYS / PHASE SHIFT   
E L8Q  0.00000                                              SYS / PHASE SHIFT   
DBHZ                                                        SIGNAL STRENGTH UNIT
                                                            END OF HEADER       
> 2023 01 08 10 00  0.0000000  0 19       0.000000000000
G08  25065157.378 9 131718291.047 9     -1452.267 9        54.233 9  25065158.371 8 102637633.455 8     -1131.637 8        49.733 8  25065157.378 9  98361061.496 9     -1084.485 9        56.333 9
G13  20028882.805 9 105252489.537 9       588.650 9        56.112 9  20028880.547 8  82014917.666 8       458.688 8        51.612 8  20028882.805 9  78597638.290 9       439.576 9        58.212 9
G24  24539552.935 9 128956221.056 9      3527.501 9        54.409 9  24539553.477 8 100485369.275 8      2748.702 8        49.909 8  24539552.935 9  96298476.763 9      2634.172 9        56.509 9
G07  24589855.696 9 129220563.851 9     -2962.277 9        54.361 9  24589853.529 8 100691339.580 8     -2308.268 8        49.861 8  24589855.696 9  96495875.603 9     -2212.090 9        56.461 9
G18  24763044.515 9 130130677.234 9     -1345.786 9        54.338 9  24763042.889 8 101400521.058 8     -1048.665 8        49.838 8  24763044.515 9  97175505.727 9     -1004.970 9        56.438 9
G20  23505255.573 9 123520951.736 9     -3672.328 9        54.730 9  23505253.948 8  96250085.605 8     -2861.554 8        50.230 8  23505255.573 9  92239671.751 9     -2742.323 9        56.830 9
G14  20963954.097 9 110166322.340 9       134.774 9        55.781 9  20963952.562 8  85843881.251 8       105.019 8        51.281 8  20963954.097 9  82267058.891 9       100.643 9        57.881 9
G23  24878188.115 9 130735760.939 9      3256.611 9        54.287 9  24878186.490 8 101872014.854 8      2537.619 8        49.787 8  24878188.115 9  97627353.948 9      2431.885 9        56.387 9
G05  21735785.983 9 114222326.278 9     -2437.386 9        55.473 9  21735783.815 8  89004401.211 8     -1899.262 8        50.973 8  21735785.983 9  85295892.999 9     -1820.126 9        57.573 9
G30  21850582.365 9 114825585.339 9     -2251.117 9        55.478 9  21850583.088 8  89474485.041 8     -1754.117 8        50.978 8  21850582.365 9  85746378.662 9     -1681.029 9        57.578 9
G15  21124887.668 9 111012033.963 9      2310.140 9        55.708 9  21124885.590 8  86502875.102 8      1800.109 8        51.208 8  21124887.668 9  82898596.791 9      1725.105 9        57.808 9
E05  23314829.029 9 122520253.490 9       365.746 9        57.976 9  23314829.029 9 122520253.490 9       365.746 9        57.976 9  23314829.970 9  91492400.780 9       273.122 9        57.836 9  23314829.970 9  91492400.780 9       273.122 9        57.836 9  23314829.970 9  93879159.062 9       280.247 9        57.836 9  23314829.970 9  93879159.062 9       280.247 9        57.836 9  23314829.970 9  92685779.921 9       276.684 9        60.846 9  23314829.970 9  92685779.921 9       276.684 9        60.846 9
E09  25209430.376 9 132476450.768 9     -2103.057 9        57.368 9  25209430.376 9 132476450.768 9     -2103.057 9        57.368 9  25209430.874 9  98927221.685 9     -1570.465 9        57.228 9  25209430.874 9  98927221.685 9     -1570.465 9        57.228 9  25209430.874 9 101507931.816 9     -1611.433 9        57.228 9  25209430.874 9 101507931.816 9     -1611.433 9        57.228 9  25209430.874 9 100217576.751 9     -1590.949 9        60.238 9  25209430.874 9 100217576.751 9     -1590.949 9        60.238 9
E13  28148518.510 9 147921463.156 9       359.795 9        56.288 9  28148518.510 9 147921463.156 9       359.795 9        56.288 9  28148518.676 9 110460833.528 9       268.678 9        56.148 9  28148518.676 9 110460833.528 9       268.678 9        56.148 9  28148518.676 9 113342420.490 9       275.687 9        56.148 9  28148518.676 9 113342420.490 9       275.687 9        56.148 9  28148518.676 9 111901627.009 9       272.183 9        59.158 9  28148518.676 9 111901627.009 9       272.183 9        59.158 9
E25  27086507.687 9 142340558.613 9      3107.582 9        56.719 9  27086507.687 9 142340558.613 9      3107.582 9        56.719 9  27086508.739 9 106293278.418 9      2320.597 9        56.579 9  27086508.739 9 106293278.418 9      2320.597 9        56.579 9  27086508.739 9 109066146.550 9      2381.134 9        56.579 9  27086508.739 9 109066146.550 9      2381.134 9        56.579 9  27086508.739 9 107679712.484 9      2350.865 9        59.589 9  27086508.739 9 107679712.484 9      2350.865 9        59.589 9
E31  24963182.771 9 131182410.871 9     -1523.339 9        57.424 9  24963182.771 9 131182410.871 9     -1523.339 9        57.424 9  24963183.768 9  97960895.146 9     -1137.558 9        57.284 9  24963183.768 9  97960895.146 9     -1137.558 9        57.284 9  24963183.768 9 100516396.759 9     -1167.234 9        57.284 9  24963183.768 9 100516396.759 9     -1167.234 9        57.284 9  24963183.768 9  99238645.952 9     -1152.396 9        60.295 9  24963183.768 9  99238645.952 9     -1152.396 9        60.295 9
E15  27821071.054 9 146200715.164 9     -1842.606 9        56.364 9  27821071.054 9 146200715.164 9     -1842.606 9        56.364 9  27821072.660 9 109175865.028 9     -1375.972 9        56.224 9  27821072.660 9 109175865.028 9     -1375.972 9        56.224 9  27821072.660 9 112023931.072 9     -1411.867 9        56.224 9  27821072.660 9 112023931.072 9     -1411.867 9        56.224 9  27821072.660 9 110599898.050 9     -1393.919 9        59.235 9  27821072.660 9 110599898.050 9     -1393.919 9        59.235 9
E03  26332294.222 9 138377140.106 9      2477.354 9        56.970 9  26332294.222 9 138377140.106 9      2477.354 9        56.970 9  26332295.108 9 103333582.127 9      1849.972 9        56.830 9  26332295.108 9 103333582.127 9      1849.972 9        56.830 9  26332295.108 9 106029240.791 9      1898.232 9        56.830 9  26332295.108 9 106029240.791 9      1898.232 9        56.830 9  26332295.108 9 104681411.459 9      1874.102 9        59.841 9  26332295.108 9 104681411.459 9      1874.102 9        59.841 9
E24  24088550.170 9 126586185.528 9      1239.601 9        57.794 9  24088550.170 9 126586185.528 9      1239.601 9        57.794 9  24088549.394 9  94528641.995 9       925.676 9        57.654 9  24088549.394 9  94528641.995 9       925.676 9        57.654 9  24088549.394 9  96994606.569 9       949.824 9        57.654 9  24088549.394 9  96994606.569 9       949.824 9        57.654 9  24088549.394 9  95761624.282 9       937.750 9        60.665 9  24088549.394 9  95761624.282 9       937.750 9        60.665 9
> 2023 01 08 10 00  1.0000000  0 19       0.000000000000
G08  25065433.863 9 131719743.984 9     -1453.620 9        54.233 9  25065434.856 8 102638765.614 8     -1132.691 8        49.733 8  25065433.863 9  98362146.482 9     -1085.496 9        56.333 9
G13  20028770.811 9 105251901.004 9       588.407 9        56.112 9  20028768.553 8  82014459.069 8       458.499 8        51.612 8  20028770.811 9  78597198.801 9       439.394 9        58.212 9
G24  24538881.527 9 128952692.786 9      3529.030 9        54.409 9  24538882.069 8 100482619.974 8      2749.894 8        49.909 8  24538881.527 9  96295842.015 9      2635.315 9        56.509 9
G07  24590419.553 9 129223526.936 9     -2963.900 9        54.361 9  24590417.385 8 100693648.477 8     -2309.532 8        49.861 8  24590419.553 9  96498088.296 9     -2213.302 9        56.461 9
G18  24763300.524 9 130132022.575 9     -1344.905 9        54.337 9  24763298.899 8 101401569.375 8     -1047.978 8        49.837 8  24763300.524 9  97176510.364 9     -1004.312 9        56.437 9
G20  23505954.373 9 123524623.950 9     -3672.089 9        54.730 9  23505952.747 8  96252947.071 8     -2861.368 8        50.230 8  23505954.373 9  92242413.989 9     -2742.144 9        56.830 9
G14  20963928.592 9 110166188.314 9       133.277 9        55.781 9  20963927.057 8  85843776.815 8       103.853 8        51.281 8  20963928.592 9  82266958.806 9        99.525 9        57.881 9
G23  24877568.350 9 130732504.049 9      3257.151 9        54.288 9  24877566.724 8 101869477.018 8      2538.039 8        49.788 8  24877568.350 9  97624921.855 9      2432.288 9        56.388 9
G05  21736249.778 9 114224763.535 9     -2437.126 9        55.473 9  21736247.610 8  89006300.373 8     -1899.059 8        50.973 8  21736249.778 9  85297713.030 9     -1819.932 9        57.573 9
G30  21851010.869 9 114827837.142 9     -2252.499 9        55.478 9  21851011.592 8  89476239.693 8     -1755.194 8        50.978 8  21851010.869 9  85748060.204 9     -1682.061 9        57.578 9
G15  21124448.009 9 111009723.543 9      2310.685 9        55.708 9  21124445.932 8  86501074.774 8      1800.534 8        51.208 8  21124448.009 9  82896871.477 9      1725.512 9        57.808 9
E05  23314759.438 9 122519887.790 9       365.647 9        57.976 9  23314759.438 9 122519887.790 9       365.647 9        57.976 9  23314760.380 9  91492127.693 9       273.048 9        57.836 9  23314760.380 9  91492127.693 9       273.048 9        57.836 9  23314760.380 9  93878878.850 9       280.171 9        57.836 9  23314760.380 9  93878878.850 9       280.171 9        57.836 9  23314760.380 9  92685503.271 9       276.609 9        60.846 9  23314760.380 9  92685503.271 9       276.609 9        60.846 9
E09  25209830.694 9 132478554.452 9     -2104.308 9        57.367 9  25209830.694 9 132478554.452 9     -2104.308 9        57.367 9  25209831.192 9  98928792.617 9     -1571.399 9        57.228 9  25209831.192 9  98928792.617 9     -1571.399 9        57.228 9  25209831.192 9 101509543.729 9     -1612.392 9        57.228 9  25209831.192 9 101509543.729 9     -1612.392 9        57.228 9  25209831.192 9 100219168.173 9     -1591.895 9        60.238 9  25209831.192 9 100219168.173 9     -1591.895 9        60.238 9
E13  28148450.049 9 147921103.391 9       359.719 9        56.288 9  28148450.049 9 147921103.391 9       359.719 9        56.288 9  28148450.215 9 110460564.873 9       268.621 9        56.148 9  28148450.215 9 110460564.873 9       268.621 9        56.148 9  28148450.215 9 113342144.826 9       275.629 9        56.148 9  28148450.215 9 113342144.826 9       275.629 9        56.148 9  28148450.215 9 111901354.849 9       272.125 9        59.158 9  28148450.215 9 111901354.849 9       272.125 9        59.158 9
E25  27085916.290 9 142337450.802 9      3108.049 9        56.719 9  27085916.290 9 142337450.802 9      3108.049 9        56.719 9  27085917.342 9 106290957.649 9      2320.945 9        56.579 9  27085917.342 9 106290957.649 9      2320.945 9        56.579 9  27085917.342 9 109063765.240 9      2381.492 9        56.579 9  27085917.342 9 109063765.240 9      2381.492 9        56.579 9  27085917.342 9 107677361.445 9      2351.219 9        59.590 9  27085917.342 9 107677361.445 9      2351.219 9        59.590 9
E31  24963472.787 9 131183934.912 9     -1524.752 9        57.424 9  24963472.787 9 131183934.912 9     -1524.752 9        57.424 9  24963473.783 9  97962033.229 9     -1138.614 9        57.284 9  24963473.783 9  97962033.229 9     -1138.614 9        57.284 9  24963473.783 9 100517564.531 9     -1168.317 9        57.284 9  24963473.783 9 100517564.531 9     -1168.317 9        57.284 9  24963473.783 9  99239798.880 9     -1153.465 9        60.295 9  24963473.783 9  99239798.880 9     -1153.465 9        60.295 9
E15  27821421.583 9 146202557.203 9     -1841.479 9        56.364 9  27821421.583 9 146202557.203 9     -1841.479 9        56.364 9  27821423.188 9 109177240.576 9     -1375.131 9        56.224 9  27821423.188 9 109177240.576 9     -1375.131 9        56.224 9  27821423.188 9 112025342.504 9     -1411.004 9        56.224 9  27821423.188 9 112025342.504 9     -1411.004 9        56.224 9  27821423.188 9 110601291.540 9     -1393.067 9        59.234 9  27821423.188 9 110601291.540 9     -1393.067 9        59.234 9
E03  26331822.686 9 138374662.168 9      2478.504 9        56.970 9  26331822.686 9 138374662.168 9      2478.504 9        56.970 9  26331823.572 9 103331731.719 9      1850.831 9        56.830 9  26331823.572 9 103331731.719 9      1850.831 9        56.830 9  26331823.572 9 106027342.112 9      1899.113 9        56.830 9  26331823.572 9 106027342.112 9      1899.113 9        56.830 9  26331823.572 9 104679536.916 9      1874.972 9        59.841 9  26331823.572 9 104679536.916 9      1874.972 9        59.841 9
E24  24088314.356 9 126584946.318 9      1238.821 9        57.794 9  24088314.356 9 126584946.318 9      1238.821 9        57.794 9  24088313.581 9  94527716.611 9       925.094 9        57.654 9  24088313.581 9  94527716.611 9       925.094 9        57.654 9  24088313.581 9  96993657.044 9       949.227 9        57.654 9  24088313.581 9  96993657.044 9       949.227 9        57.654 9  24088313.581 9  95760686.827 9       937.160 9        60.665 9  24088313.581 9  95760686.827 9       937.160 9        60.665 9
> 2023 01 08 10 00  2.0000000  0 19       0.000000000000
G08  25065710.613 9 131721198.316 9     -1455.061 9        54.233 9  25065711.606 8 102639898.860 8     -1133.814 8        49.733 8  25065710.613 9  98363232.509 9     -1086.571 9        56.333 9
G13  20028658.865 9 105251312.724 9       588.148 9        56.112 9  20028656.607 8  82014000.669 8       458.297 8        51.612 8  20028658.865 9  78596759.502 9       439.202 9        58.212 9
G24  24538209.829 9 128949162.987 9      3530.564 9        54.409 9  24538210.371 8 100479869.481 8      2751.089 8        49.909 8  24538209.829 9  96293206.127 9      2636.460 9        56.509 9
G07  24590983.719 9 129226491.650 9     -2965.540 9        54.360 9  24590981.551 8 100695958.644 8     -2310.810 8        49.860 8  24590983.719 9  96500302.206 9     -2214.526 9        56.460 9
G18  24763556.373 9 130133367.070 9     -1344.093 9        54.337 9  24763554.748 8 101402617.034 8     -1047.345 8        49.837 8  24763556.373 9  97177514.370 9     -1003.706 9        56.437 9
G20  23506653.118 9 123528295.881 9     -3671.754 9        54.730 9  23506651.492 8  96255808.315 8     -2861.107 8        50.230 8  23506653.118 9  92245156.015 9     -2741.894 9        56.830 9
G14  20963903.371 9 110166055.774 9       131.804 9        55.781 9  20963901.836 8  85843673.537 8       102.704 8        51.281 8  20963903.371 9  82266859.831 9        98.425 9        57.881 9
G23  24876948.491 9 130729246.669 9      3257.590 9        54.288 9  24876946.865 8 101866938.800 8      2538.381 8        49.788 8  24876948.491 9  97622489.396 9      2432.616 9        56.388 9
G05  21736713.519 9 114227200.511 9     -2436.814 9        55.473 9  21736711.351 8  89008199.315 8     -1898.816 8        50.973 8  21736713.519 9  85299532.849 9     -1819.698 9        57.573 9
G30  21851439.638 9 114830090.335 9     -2253.894 9        55.478 9  21851440.360 8  89477995.427 8     -1756.281 8        50.978 8  21851439.638 9  85749742.782 9     -1683.103 9        57.578 9
G15  21124008.252 9 111007412.603 9      2311.185 9        55.708 9  21124006.175 8  86499274.042 8      1800.923 8        51.208 8  21124008.252 9  82895145.775 9      1725.885 9        57.808 9
E05  23314689.868 9 122519522.194 9       365.542 9        57.976 9  23314689.868 9 122519522.194 9       365.542 9        57.976 9  23314690.809 9  91491854.683 9       272.970 9        57.836 9  23314690.809 9  91491854.683 9       272.970 9        57.836 9  23314690.809 9  93878598.718 9       280.091 9        57.836 9  23314690.809 9  93878598.718 9       280.091 9        57.836 9  23314690.809 9  92685226.701 9       276.530 9        60.846 9  23314690.809 9  92685226.701 9       276.530 9        60.846 9
E09  25210231.244 9 132480659.358 9     -2105.499 9        57.367 9  25210231.244 9 132480659.358 9     -2105.499 9        57.367 9  25210231.742 9  98930364.463 9     -1572.289 9        57.227 9  25210231.742 9  98930364.463 9     -1572.289 9        57.227 9  25210231.742 9 101511156.580 9     -1613.305 9        57.227 9  25210231.742 9 101511156.580 9     -1613.305 9        57.227 9  25210231.742 9 100220760.521 9     -1592.797 9        60.238 9  25210231.742 9 100220760.521 9     -1592.797 9        60.238 9
E13  28148381.612 9 147920743.756 9       359.534 9        56.288 9  28148381.612 9 147920743.756 9       359.534 9        56.288 9  28148381.778 9 110460296.314 9       268.483 9        56.148 9  28148381.778 9 110460296.314 9       268.483 9        56.148 9  28148381.778 9 113341869.261 9       275.487 9        56.148 9  28148381.778 9 113341869.261 9       275.487 9        56.148 9  28148381.778 9 111901082.787 9       271.985 9        59.158 9  28148381.778 9 111901082.787 9       271.985 9        59.158 9
E25  27085324.796 9 142334342.481 9      3108.606 9        56.719 9  27085324.796 9 142334342.481 9      3108.606 9        56.719 9  27085325.848 9 106288636.501 9      2321.362 9        56.580 9  27085325.848 9 106288636.501 9      2321.362 9        56.580 9  27085325.848 9 109061383.540 9      2381.919 9        56.580 9  27085325.848 9 109061383.540 9      2381.919 9        56.580 9  27085325.848 9 107675010.020 9      2351.641 9        59.590 9  27085325.848 9 107675010.020 9      2351.641 9        59.590 9
E31  24963763.073 9 131185460.380 9     -1526.191 9        57.424 9  24963763.073 9 131185460.380 9     -1526.191 9        57.424 9  24963764.070 9  97963172.376 9     -1139.688 9        57.284 9  24963764.070 9  97963172.376 9     -1139.688 9        57.284 9  24963764.070 9 100518733.395 9     -1169.419 9        57.284 9  24963764.070 9 100518733.395 9     -1169.419 9        57.284 9  24963764.070 9  99240952.886 9     -1154.554 9        60.294 9  24963764.070 9  99240952.886 9     -1154.554 9        60.294 9
E15  27821771.903 9 146204398.149 9     -1840.417 9        56.364 9  27821771.903 9 146204398.149 9     -1840.417 9        56.364 9  27821773.509 9 109178615.308 9     -1374.337 9        56.224 9  27821773.509 9 109178615.308 9     -1374.337 9        56.224 9  27821773.509 9 112026753.099 9     -1410.190 9        56.224 9  27821773.509 9 112026753.099 9     -1410.190 9        56.224 9  27821773.509 9 110602684.204 9     -1392.263 9        59.234 9  27821773.509 9 110602684.204 9     -1392.263 9        59.234 9
E03  26331350.938 9 138372183.115 9      2479.589 9        56.970 9  26331350.938 9 138372183.115 9      2479.589 9        56.970 9  26331351.824 9 103329880.478 9      1851.641 9        56.831 9  26331351.824 9 103329880.478 9      1851.641 9        56.831 9  26331351.824 9 106025442.577 9      1899.945 9        56.831 9  26331351.824 9 106025442.577 9      1899.945 9        56.831 9  26331351.824 9 104677661.528 9      1875.793 9        59.841 9  26331351.824 9 104677661.528 9      1875.793 9        59.841 9
E24  24088078.686 9 126583707.865 9      1238.092 9        57.794 9  24088078.686 9 126583707.865 9      1238.092 9        57.794 9  24088077.911 9  94526791.792 9       924.549 9        57.655 9  24088077.911 9  94526791.792 9       924.549 9        57.655 9  24088077.911 9  96992708.100 9       948.668 9        57.655 9  24088077.911 9  96992708.100 9       948.668 9        57.655 9  24088077.911 9  95759749.946 9       936.609 9        60.665 9  24088077.911 9  95759749.946 9       936.609 9        60.665 9
> 2023 01 08 10 00  3.0000000  0 19       0.000000000000
G08  25065987.646 9 131722654.135 9     -1456.591 9        54.233 9  25065988.639 8 102641033.264 8     -1135.006 8        49.733 8  25065987.646 9  98364319.646 9     -1087.714 9        56.333 9
G13  20028546.971 9 105250724.715 9       587.869 9        56.112 9  20028544.713 8  82013542.481 8       458.080 8        51.612 8  20028546.971 9  78596320.404 9       438.993 9        58.212 9
G24  24537537.837 9 128945631.645 9      3532.112 9        54.409 9  24537538.379 8 100477117.787 8      2752.295 8        49.909 8  24537537.837 9  96290569.086 9      2637.616 9        56.509 9
G07  24591548.200 9 129229458.020 9     -2967.208 9        54.360 9  24591546.033 8 100698270.101 8     -2312.110 8        49.860 8  24591548.200 9  96502517.353 9     -2215.772 9        56.460 9
G18  24763812.073 9 130134710.781 9     -1343.339 9        54.337 9  24763810.447 8 101403664.082 8     -1046.758 8        49.837 8  24763812.073 9  97178517.791 9     -1003.143 9        56.437 9
G20  23507351.790 9 123531967.428 9     -3671.325 9        54.729 9  23507350.164 8  96258669.261 8     -2860.773 8        50.229 8  23507351.790 9  92247897.755 9     -2741.574 9        56.829 9
G14  20963878.429 9 110165924.705 9       130.340 9        55.781 9  20963876.894 8  85843571.405 8       101.563 8        51.281 8  20963878.429 9  82266761.955 9        97.332 9        57.881 9
G23  24876328.557 9 130725988.896 9      3257.937 9        54.288 9  24876326.932 8 101864400.275 8      2538.652 8        49.788 8  24876328.557 9  97620056.643 9      2432.875 9        56.388 9
G05  21737177.195 9 114229637.149 9     -2436.450 9        55.473 9  21737175.028 8  89010097.993 8     -1898.533 8        50.973 8  21737177.195 9  85301352.416 9     -1819.427 9        57.573 9
G30  21851868.674 9 114832344.938 9     -2255.316 9        55.478 9  21851869.397 8  89479752.261 8     -1757.389 8        50.978 8  21851868.674 9  85751426.415 9     -1684.164 9        57.578 9
G15  21123568.404 9 111005101.184 9      2311.643 9        55.708 9  21123566.327 8  86497472.936 8      1801.280 8        51.208 8  21123568.404 9  82893419.716 9      1726.227 9        57.808 9
E05  23314620.319 9 122519156.711 9       365.426 9        57.976 9  23314620.319 9 122519156.711 9       365.426 9        57.976 9  23314621.260 9  91491581.757 9       272.883 9        57.836 9  23314621.260 9  91491581.757 9       272.883 9        57.836 9  23314621.260 9  93878318.672 9       280.002 9        57.836 9  23314621.260 9  93878318.672 9       280.002 9        57.836 9  23314621.260 9  92684950.215 9       276.442 9        60.846 9  23314621.260 9  92684950.215 9       276.442 9        60.846 9
E09  25210632.017 9 132482765.435 9     -2106.645 9        57.367 9  25210632.017 9 132482765.435 9     -2106.645 9        57.367 9  25210632.515 9  98931937.183 9     -1573.144 9        57.227 9  25210632.515 9  98931937.183 9     -1573.144 9        57.227 9  25210632.515 9 101512770.327 9     -1614.183 9        57.227 9  25210632.515 9 101512770.327 9     -1614.183 9        57.227 9  25210632.515 9 100222353.755 9     -1593.664 9        60.238 9  25210632.515 9 100222353.755 9     -1593.664 9        60.238 9
E13  28148313.221 9 147920384.357 9       359.247 9        56.288 9  28148313.221 9 147920384.357 9       359.247 9        56.288 9  28148313.387 9 110460027.931 9       268.269 9        56.148 9  28148313.387 9 110460027.931 9       268.269 9        56.148 9  28148313.387 9 113341593.878 9       275.267 9        56.148 9  28148313.387 9 113341593.878 9       275.267 9        56.148 9  28148313.387 9 111900810.905 9       271.768 9        59.158 9  28148313.387 9 111900810.905 9       271.768 9        59.158 9
E25  27084733.188 9 142331233.558 9      3109.253 9        56.720 9  27084733.188 9 142331233.558 9      3109.253 9        56.720 9  27084734.240 9 106286314.902 9      2321.845 9        56.580 9  27084734.240 9 106286314.902 9      2321.845 9        56.580 9  27084734.240 9 109059001.378 9      2382.415 9        56.580 9  27084734.240 9 109059001.378 9      2382.415 9        56.580 9  27084734.240 9 107672658.140 9      2352.130 9        59.590 9  27084734.240 9 107672658.140 9      2352.130 9        59.590 9
E31  24964053.638 9 131186987.308 9     -1527.669 9        57.424 9  24964053.638 9 131186987.308 9     -1527.669 9        57.424 9  24964054.635 9  97964312.615 9     -1140.792 9        57.284 9  24964054.635 9  97964312.615 9     -1140.792 9        57.284 9  24964054.635 9 100519903.379 9     -1170.551 9        57.284 9  24964054.635 9 100519903.379 9     -1170.551 9        57.284 9  24964054.635 9  99242107.997 9     -1155.672 9        60.294 9  24964054.635 9  99242107.997 9     -1155.672 9        60.294 9
E15  27822122.026 9 146206238.057 9     -1839.406 9        56.364 9  27822122.026 9 146206238.057 9     -1839.406 9        56.364 9  27822123.632 9 109179989.266 9     -1373.583 9        56.224 9  27822123.632 9 109179989.266 9     -1373.583 9        56.224 9  27822123.632 9 112028162.899 9     -1409.415 9        56.224 9  27822123.632 9 112028162.899 9     -1409.415 9        56.224 9  27822123.632 9 110604076.082 9     -1391.499 9        59.234 9  27822123.632 9 110604076.082 9     -1391.499 9        59.234 9
E03  26330878.989 9 138369703.005 9      2480.617 9        56.971 9  26330878.989 9 138369703.005 9      2480.617 9        56.971 9  26330879.875 9 103328028.448 9      1852.409 9        56.831 9  26330879.875 9 103328028.448 9      1852.409 9        56.831 9  26330879.875 9 106023542.233 9      1900.733 9        56.831 9  26330879.875 9 106023542.233 9      1900.733 9        56.831 9  26330879.875 9 104675785.340 9      1876.571 9        59.841 9  26330879.875 9 104675785.340 9      1876.571 9        59.841 9
E24  24087843.152 9 126582470.123 9      1237.402 9        57.794 9  24087843.152 9 126582470.123 9      1237.402 9        57.794 9  24087842.376 9  94525867.504 9       924.034 9        57.655 9  24087842.376 9  94525867.504 9       924.034 9        57.655 9  24087842.376 9  96991759.700 9       948.139 9        57.655 9  24087842.376 9  96991759.700 9       948.139 9        57.655 9  24087842.376 9  95758813.602 9       936.086 9        60.665 9  24087842.376 9  95758813.602 9       936.086 9        60.665 9
> 2023 01 08 10 00  4.0000000  0 19       0.000000000000
G08  25066264.979 9 131724111.530 9     -1458.215 9        54.233 9  25066265.973 8 102642168.897 8     -1136.272 8        49.733 8  25066264.979 9  98365407.961 9     -1088.927 9        56.333 9
G13  20028435.131 9 105250136.996 9       587.565 9        56.112 9  20028432.874 8  82013084.517 8       457.843 8        51.612 8  20028435.131 9  78595881.523 9       438.766 9        58.212 9
G24  24536865.551 9 128942098.756 9      3533.655 9        54.410 9  24536866.093 8 100474364.886 8      2753.497 8        49.910 8  24536865.551 9  96287930.889 9      2638.768 9        56.510 9
G07  24592113.001 9 129232426.065 9     -2968.887 9        54.360 9  24592110.833 8 100700582.863 8     -2313.418 8        49.860 8  24592113.001 9  96504733.750 9     -2217.026 9        56.460 9
G18  24764067.637 9 130136053.780 9     -1342.673 9        54.337 9  24764066.012 8 101404710.574 8     -1046.239 8        49.837 8  24764067.637 9  97179520.680 9     -1002.646 9        56.437 9
G20  23508050.371 9 123535638.496 9     -3670.792 9        54.729 9  23508048.745 8  96261529.833 8     -2860.357 8        50.229 8  23508050.371 9  92250639.136 9     -2741.176 9        56.829 9
G14  20963853.764 9 110165795.087 9       128.902 9        55.781 9  20963852.228 8  85843470.404 8       100.443 8        51.281 8  20963853.764 9  82266665.162 9        96.258 9        57.881 9
G23  24875708.569 9 130722730.834 9      3258.164 9        54.288 9  24875706.943 8 101861861.525 8      2538.829 8        49.788 8  24875708.569 9  97617623.674 9      2433.045 9        56.388 9
G05  21737640.798 9 114232073.396 9     -2436.036 9        55.473 9  21737638.630 8  89011996.368 8     -1898.210 8        50.973 8  21737640.798 9  85303171.692 9     -1819.118 9        57.573 9
G30  21852297.983 9 114834600.969 9     -2256.749 9        55.478 9  21852298.705 8  89481510.207 8     -1758.506 8        50.978 8  21852297.983 9  85753111.113 9     -1685.235 9        57.578 9
G15  21123128.474 9 111002789.336 9      2312.039 9        55.708 9  21123126.396 8  86495671.496 8      1801.589 8        51.208 8  21123128.474 9  82891693.336 9      1726.523 9        57.808 9
E05  23314550.792 9 122518791.348 9       365.296 9        57.976 9  23314550.792 9 122518791.348 9       365.296 9        57.976 9  23314551.734 9  91491308.921 9       272.786 9        57.836 9  23314551.734 9  91491308.921 9       272.786 9        57.836 9  23314551.734 9  93878038.719 9       279.902 9        57.836 9  23314551.734 9  93878038.719 9       279.902 9        57.836 9  23314551.734 9  92684673.820 9       276.344 9        60.846 9  23314551.734 9  92684673.820 9       276.344 9        60.846 9
E09  25211033.002 9 132484872.623 9     -2107.721 9        57.367 9  25211033.002 9 132484872.623 9     -2107.721 9        57.367 9  25211033.500 9  98933510.732 9     -1573.948 9        57.227 9  25211033.500 9  98933510.732 9     -1573.948 9        57.227 9  25211033.500 9 101514384.925 9     -1615.007 9        57.227 9  25211033.500 9 101514384.925 9     -1615.007 9        57.227 9  25211033.500 9 100223947.829 9     -1594.477 9        60.237 9  25211033.500 9 100223947.829 9     -1594.477 9        60.237 9
E13  28148244.896 9 147920025.306 9       358.834 9        56.288 9  28148244.896 9 147920025.306 9       358.834 9        56.288 9  28148245.062 9 110459759.809 9       267.960 9        56.148 9  28148245.062 9 110459759.809 9       267.960 9        56.148 9  28148245.062 9 113341318.761 9       274.951 9        56.148 9  28148245.062 9 113341318.761 9       274.951 9        56.148 9  28148245.062 9 111900539.285 9       271.455 9        59.158 9  28148245.062 9 111900539.285 9       271.455 9        59.158 9
E25  27084141.447 9 142328123.939 9      3109.997 9        56.720 9  27084141.447 9 142328123.939 9      3109.997 9        56.720 9  27084142.499 9 106283992.784 9      2322.400 9        56.580 9  27084142.499 9 106283992.784 9      2322.400 9        56.580 9  27084142.499 9 109056618.683 9      2382.985 9        56.580 9  27084142.499 9 109056618.683 9      2382.985 9        56.580 9  27084142.499 9 107670305.734 9      2352.692 9        59.590 9  27084142.499 9 107670305.734 9      2352.692 9        59.590 9
E31  24964344.487 9 131188515.726 9     -1529.173 9        57.424 9  24964344.487 9 131188515.726 9     -1529.173 9        57.424 9  24964345.483 9  97965453.967 9     -1141.915 9        57.284 9  24964345.483 9  97965453.967 9     -1141.915 9        57.284 9  24964345.483 9 100521074.505 9     -1171.704 9        57.284 9  24964345.483 9 100521074.505 9     -1171.704 9        57.284 9  24964345.483 9  99243264.236 9     -1156.810 9        60.294 9  24964345.483 9  99243264.236 9     -1156.810 9        60.294 9
E15  27822471.964 9 146208076.992 9     -1838.477 9        56.364 9  27822471.964 9 146208076.992 9     -1838.477 9        56.364 9  27822473.569 9 109181362.497 9     -1372.889 9        56.224 9  27822473.569 9 109181362.497 9     -1372.889 9        56.224 9  27822473.569 9 112029571.953 9     -1408.703 9        56.224 9  27822473.569 9 112029571.953 9     -1408.703 9        56.224 9  27822473.569 9 110605467.225 9     -1390.796 9        59.234 9  27822473.569 9 110605467.225 9     -1390.796 9        59.234 9
E03  26330406.851 9 138367221.906 9      2481.561 9        56.971 9  26330406.851 9 138367221.906 9      2481.561 9        56.971 9  26330407.737 9 103326175.679 9      1853.114 9        56.831 9  26330407.737 9 103326175.679 9      1853.114 9        56.831 9  26330407.737 9 106021641.131 9      1901.456 9        56.831 9  26330407.737 9 106021641.131 9      1901.456 9        56.831 9  26330407.737 9 104673908.405 9      1877.285 9        59.841 9  26330407.737 9 104673908.405 9      1877.285 9        59.841 9
E24  24087607.743 9 126581233.044 9      1236.766 9        57.795 9  24087607.743 9 126581233.044 9      1236.766 9        57.795 9  24087606.968 9  94524943.712 9       923.559 9        57.655 9  24087606.968 9  94524943.712 9       923.559 9        57.655 9  24087606.968 9  96990811.808 9       947.651 9        57.655 9  24087606.968 9  96990811.808 9       947.651 9        57.655 9  24087606.968 9  95757877.760 9       935.605 9        60.665 9  24087606.968 9  95757877.760 9       935.605 9        60.665 9
> 2023 01 08 10 00  5.0000000  0 19       0.000000000000
G08  25066542.628 9 131725570.587 9     -1459.918 9        54.233 9  25066543.622 8 102643305.824 8     -1137.599 8        49.733 8  25066542.628 9  98366497.516 9     -1090.199 9        56.333 9
G13  20028323.351 9 105249549.583 9       587.252 9        56.112 9  20028321.093 8  82012626.793 8       457.599 8        51.612 8  20028323.351 9  78595442.871 9       438.532 9        58.212 9
G24  24536192.970 9 128938564.320 9      3535.204 9        54.410 9  24536193.512 8 100471610.780 8      2754.704 8        49.910 8  24536192.970 9  96285291.538 9      2639.925 9        56.510 9
G07  24592678.122 9 129235395.798 9     -2970.582 9        54.360 9  24592675.954 8 100702896.941 8     -2314.739 8        49.860 8  24592678.122 9  96506951.407 9     -2218.292 9        56.460 9
G18  24764323.080 9 130137396.140 9     -1342.068 9        54.337 9  24764321.454 8 101405756.569 8     -1045.767 8        49.837 8  24764323.080 9  97180523.092 9     -1002.194 9        56.437 9
G20  23508748.842 9 123539308.988 9     -3670.170 9        54.729 9  23508747.217 8  96264389.957 8     -2859.873 8        50.229 8  23508748.842 9  92253380.088 9     -2740.711 9        56.829 9
G14  20963829.370 9 110165666.896 9       127.487 9        55.781 9  20963827.834 8  85843370.515 8        99.340 8        51.281 8  20963829.370 9  82266569.435 9        95.201 9        57.881 9
G23  24875088.544 9 130719472.584 9      3258.302 9        54.288 9  24875086.919 8 101859322.630 8      2538.937 8        49.788 8  24875088.544 9  97615190.566 9      2433.148 9        56.388 9
G05  21738104.317 9 114234509.205 9     -2435.572 9        55.473 9  21738102.149 8  89013894.401 8     -1897.848 8        50.973 8  21738104.317 9  85304990.640 9     -1818.771 9        57.573 9
G30  21852727.565 9 114836858.438 9     -2258.194 9        55.478 9  21852728.287 8  89483269.274 8     -1759.632 8        50.978 8  21852727.565 9  85754796.886 9     -1686.314 9        57.578 9
G15  21122688.471 9 111000477.108 9      2312.399 9        55.709 9  21122686.394 8  86493869.760 8      1801.869 8        51.209 8  21122688.471 9  82889966.671 9      1726.791 9        57.809 9
E05  23314481.291 9 122518426.114 9       365.166 9        57.976 9  23314481.291 9 122518426.114 9       365.166 9        57.976 9  23314482.232 9  91491036.182 9       272.689 9        57.836 9  23314482.232 9  91491036.182 9       272.689 9        57.836 9  23314482.232 9  93877758.865 9       279.802 9        57.836 9  23314482.232 9  93877758.865 9       279.802 9        57.836 9  23314482.232 9  92684397.523 9       276.246 9        60.846 9  23314482.232 9  92684397.523 9       276.246 9        60.846 9
E09  25211434.186 9 132486980.861 9     -2108.742 9        57.367 9  25211434.186 9 132486980.861 9     -2108.742 9        57.367 9  25211434.684 9  98935085.066 9     -1574.710 9        57.227 9  25211434.684 9  98935085.066 9     -1574.710 9        57.227 9  25211434.684 9 101516000.329 9     -1615.789 9        57.227 9  25211434.684 9 101516000.329 9     -1615.789 9        57.227 9  25211434.684 9 100225542.698 9     -1595.250 9        60.237 9  25211434.684 9 100225542.698 9     -1595.250 9        60.237 9
E13  28148176.658 9 147919666.713 9       358.325 9        56.288 9  28148176.658 9 147919666.713 9       358.325 9        56.288 9  28148176.824 9 110459492.028 9       267.580 9        56.148 9  28148176.824 9 110459492.028 9       267.580 9        56.148 9  28148176.824 9 113341043.994 9       274.560 9        56.148 9  28148176.824 9 113341043.994 9       274.560 9        56.148 9  28148176.824 9 111900268.011 9       271.070 9        59.158 9  28148176.824 9 111900268.011 9       271.070 9        59.158 9
E25  27083549.557 9 142325013.537 9      3110.824 9        56.720 9  27083549.557 9 142325013.537 9      3110.824 9        56.720 9  27083550.609 9 106281670.081 9      2323.018 9        56.580 9  27083550.609 9 106281670.081 9      2323.018 9        56.580 9  27083550.609 9 109054235.388 9      2383.618 9        56.580 9  27083550.609 9 109054235.388 9      2383.618 9        56.580 9  27083550.609 9 107667952.735 9      2353.318 9        59.590 9  27083550.609 9 107667952.735 9      2353.318 9        59.590 9
E31  24964635.623 9 131190045.660 9     -1530.700 9        57.424 9  24964635.623 9 131190045.660 9     -1530.700 9        57.424 9  24964636.620 9  97966596.449 9     -1143.055 9        57.284 9  24964636.620 9  97966596.449 9     -1143.055 9        57.284 9  24964636.620 9 100522246.792 9     -1172.874 9        57.284 9  24964636.620 9 100522246.792 9     -1172.874 9        57.284 9  24964636.620 9  99244421.621 9     -1157.965 9        60.294 9  24964636.620 9  99244421.621 9     -1157.965 9        60.294 9
E15  27822821.729 9 146209915.023 9     -1837.603 9        56.364 9  27822821.729 9 146209915.023 9     -1837.603 9        56.364 9  27822823.335 9 109182735.053 9     -1372.236 9        56.224 9  27822823.335 9 109182735.053 9     -1372.236 9        56.224 9  27822823.335 9 112030980.315 9     -1408.034 9        56.224 9  27822823.335 9 112030980.315 9     -1408.034 9        56.224 9  27822823.335 9 110606857.684 9     -1390.135 9        59.234 9  27822823.335 9 110606857.684 9     -1390.135 9        59.234 9
E03  26329934.539 9 138364739.887 9      2482.450 9        56.971 9  26329934.539 9 138364739.887 9      2482.450 9        56.971 9  26329935.425 9 103324322.223 9      1853.778 9        56.831 9  26329935.425 9 103324322.223 9      1853.778 9        56.831 9  26329935.425 9 106019739.325 9      1902.137 9        56.831 9  26329935.425 9 106019739.325 9      1902.137 9        56.831 9  26329935.425 9 104672030.774 9      1877.957 9        59.841 9  26329935.425 9 104672030.774 9      1877.957 9        59.841 9
E24  24087372.452 9 126579996.578 9      1236.177 9        57.795 9  24087372.452 9 126579996.578 9      1236.177 9        57.795 9  24087371.676 9  94524020.377 9       923.119 9        57.655 9  24087371.676 9  94524020.377 9       923.119 9        57.655 9  24087371.676 9  96989864.387 9       947.201 9        57.655 9  24087371.676 9  96989864.387 9       947.201 9        57.655 9  24087371.676 9  95756942.382 9       935.160 9        60.665 9  24087371.676 9  95756942.382 9       935.160 9        60.665 9
> 2023 01 08 10 00  6.0000000  0 19       0.000000000000
G08  25066820.609 9 131727031.385 9     -1461.707 9        54.233 9  25066821.603 8 102644444.108 8     -1138.993 8        49.733 8  25066820.609 9  98367588.372 9     -1091.534 9        56.333 9
G13  20028211.632 9 105248962.498 9       586.911 9        56.112 9  20028209.374 8  82012169.324 8       457.333 8        51.612 8  20028211.632 9  78595004.463 9       438.277 9        58.212 9
G24  24535520.097 9 128935028.348 9      3536.736 9        54.410 9  24535520.639 8 100468855.477 8      2755.898 8        49.910 8  24535520.097 9  96282651.039 9      2641.069 9        56.510 9
G07  24593243.565 9 129238367.221 9     -2972.278 9        54.360 9  24593241.397 8 100705212.336 8     -2316.061 8        49.860 8  24593243.565 9  96509170.328 9     -2219.559 9        56.460 9
G18  24764578.416 9 130138737.943 9     -1341.555 9        54.337 9  24764576.791 8 101406802.130 8     -1045.368 8        49.837 8  24764578.416 9  97181525.087 9     -1001.811 9        56.437 9
G20  23509447.187 9 123542978.814 9     -3669.452 9        54.729 9  23509445.561 8  96267249.562 8     -2859.313 8        50.229 8  23509447.187 9  92256120.543 9     -2740.175 9        56.829 9
G14  20963805.242 9 110165540.105 9       126.098 9        55.781 9  20963803.707 8  85843271.717 8        98.259 8        51.281 8  20963805.242 9  82266474.753 9        94.164 9        57.881 9
G23  24874468.505 9 130716214.255 9      3258.321 9        54.289 9  24874466.879 8 101856783.672 8      2538.952 8        49.789 8  24874468.505 9  97612757.398 9      2433.162 9        56.389 9
G05  21738567.744 9 114236944.532 9     -2435.065 9        55.472 9  21738565.577 8  89015792.058 8     -1897.454 8        50.972 8  21738567.744 9  85306809.228 9     -1818.393 9        57.572 9
G30  21853157.422 9 114839117.353 9     -2259.647 9        55.477 9  21853158.145 8  89485029.468 8     -1760.764 8        50.977 8  21853157.422 9  85756483.738 9     -1687.398 9        57.577 9
G15  21122248.407 9 110998164.553 9      2312.692 9        55.709 9  21122246.329 8  86492067.769 8      1802.098 8        51.209 8  21122248.407 9  82888239.764 9      1727.010 9        57.809 9
E05  23314411.816 9 122518061.019 9       365.018 9        57.976 9  23314411.816 9 122518061.019 9       365.018 9        57.976 9  23314412.757 9  91490763.546 9       272.579 9        57.836 9  23314412.757 9  91490763.546 9       272.579 9        57.836 9  23314412.757 9  93877479.117 9       279.689 9        57.836 9  23314412.757 9  93877479.117 9       279.689 9        57.836 9  23314412.757 9  92684121.331 9       276.134 9        60.847 9  23314412.757 9  92684121.331 9       276.134 9        60.847 9
E09  25211835.558 9 132489090.084 9     -2109.692 9        57.367 9  25211835.558 9 132489090.084 9     -2109.692 9        57.367 9  25211836.056 9  98936660.135 9     -1575.419 9        57.227 9  25211836.056 9  98936660.135 9     -1575.419 9        57.227 9  25211836.056 9 101517616.487 9     -1616.517 9        57.227 9  25211836.056 9 101517616.487 9     -1616.517 9        57.227 9  25211836.056 9 100227138.311 9     -1595.968 9        60.237 9  25211836.056 9 100227138.311 9     -1595.968 9        60.237 9
E13  28148108.528 9 147919308.687 9       357.693 9        56.288 9  28148108.528 9 147919308.687 9       357.693 9        56.288 9  28148108.694 9 110459224.671 9       267.108 9        56.148 9  28148108.694 9 110459224.671 9       267.108 9        56.148 9  28148108.694 9 113340769.663 9       274.076 9        56.148 9  28148108.694 9 113340769.663 9       274.076 9        56.148 9  28148108.694 9 111899997.167 9       270.592 9        59.158 9  28148108.694 9 111899997.167 9       270.592 9        59.158 9
E25  27082957.502 9 142321902.268 9      3111.739 9        56.720 9  27082957.502 9 142321902.268 9      3111.739 9        56.720 9  27082958.554 9 106279346.731 9      2323.701 9        56.580 9  27082958.554 9 106279346.731 9      2323.701 9        56.580 9  27082958.554 9 109051851.428 9      2384.320 9        56.580 9  27082958.554 9 109051851.428 9      2384.320 9        56.580 9  27082958.554 9 107665599.080 9      2354.011 9        59.591 9  27082958.554 9 107665599.080 9      2354.011 9        59.591 9
E31  24964927.052 9 131191577.128 9     -1532.250 9        57.424 9  24964927.052 9 131191577.128 9     -1532.250 9        57.424 9  24964928.049 9  97967740.078 9     -1144.212 9        57.284 9  24964928.049 9  97967740.078 9     -1144.212 9        57.284 9  24964928.049 9 100523420.254 9     -1174.061 9        57.284 9  24964928.049 9 100523420.254 9     -1174.061 9        57.284 9  24964928.049 9  99245580.166 9     -1159.137 9        60.294 9  24964928.049 9  99245580.166 9     -1159.137 9        60.294 9
E15  27823171.337 9 146211752.225 9     -1836.816 9        56.364 9  27823171.337 9 146211752.225 9     -1836.816 9        56.364 9  27823172.943 9 109184106.989 9     -1371.649 9        56.224 9  27823172.943 9 109184106.989 9     -1371.649 9        56.224 9  27823172.943 9 112032388.041 9     -1407.431 9        56.224 9  27823172.943 9 112032388.041 9     -1407.431 9        56.224 9  27823172.943 9 110608247.515 9     -1389.540 9        59.234 9  27823172.943 9 110608247.515 9     -1389.540 9        59.234 9
E03  26329462.066 9 138362257.024 9      2483.250 9        56.971 9  26329462.066 9 138362257.024 9      2483.250 9        56.971 9  26329462.952 9 103322468.138 9      1854.375 9        56.831 9  26329462.952 9 103322468.138 9      1854.375 9        56.831 9  26329462.952 9 106017836.872 9      1902.750 9        56.831 9  26329462.952 9 106017836.872 9      1902.750 9        56.831 9  26329462.952 9 104670152.505 9      1878.563 9        59.841 9  26329462.952 9 104670152.505 9      1878.563 9        59.841 9
E24  24087137.267 9 126578760.676 9      1235.640 9        57.795 9  24087137.267 9 126578760.676 9      1235.640 9        57.795 9  24087136.492 9  94523097.463 9       922.718 9        57.655 9  24087136.492 9  94523097.463 9       922.718 9        57.655 9  24087136.492 9  96988917.397 9       946.789 9        57.655 9  24087136.492 9  96988917.397 9       946.789 9        57.655 9  24087136.492 9  95756007.430 9       934.753 9        60.665 9  24087136.492 9  95756007.430 9       934.753 9        60.665 9
> 2023 01 08 10 00  7.0000000  0 19       0.000000000000
G08  25067098.935 9 131728493.998 9     -1463.545 9        54.232 9  25067099.929 8 102645583.807 8     -1140.425 8        49.732 8  25067098.935 9  98368680.583 9     -1092.907 9        56.332 9
G13  20028099.979 9 105248375.760 9       586.559 9        56.112 9  20028097.722 8  82011712.126 8       457.059 8        51.612 8  20028099.979 9  78594566.314 9       438.015 9        58.212 9
G24  24534846.935 9 128931490.857 9      3538.240 9        54.410 9  24534847.476 8 100466098.991 8      2757.070 8        49.910 8  24534846.935 9  96280009.406 9      2642.193 9        56.510 9
G07  24593809.329 9 129241340.332 9     -2973.955 9        54.359 9  24593807.162 8 100707529.046 8     -2317.367 8        49.859 8  24593809.329 9  96511390.508 9     -2220.811 9        56.459 9
G18  24764833.663 9 130140079.274 9     -1341.123 9        54.337 9  24764832.038 8 101407847.323 8     -1045.031 8        49.837 8  24764833.663 9  97182526.730 9     -1001.488 9        56.437 9
G20  23510145.388 9 123546647.886 9     -3668.666 9        54.728 9  23510143.763 8  96270108.579 8     -2858.701 8        50.228 8  23510145.388 9  92258860.435 9     -2739.588 9        56.828 9
G14  20963781.375 9 110165414.683 9       124.749 9        55.781 9  20963779.840 8  85843173.985 8        97.207 8        51.281 8  20963781.375 9  82266381.094 9        93.157 9        57.881 9
G23  24873848.471 9 130712955.955 9      3258.248 9        54.289 9  24873846.845 8 101854244.737 8      2538.894 8        49.789 8  24873848.471 9  97610324.252 9      2433.107 9        56.389 9
G05  21739031.072 9 114239379.338 9     -2434.531 9        55.472 9  21739028.905 8  89017689.310 8     -1897.037 8        50.972 8  21739031.072 9  85308627.428 9     -1817.994 9        57.572 9
G30  21853587.554 9 114841377.713 9     -2261.083 9        55.477 9  21853588.277 8  89486790.787 8     -1761.883 8        50.977 8  21853587.554 9  85758171.669 9     -1688.471 9        57.577 9
G15  21121808.291 9 110995851.731 9      2312.936 9        55.709 9  21121806.214 8  86490265.570 8      1802.288 8        51.209 8  21121808.291 9  82886512.656 9      1727.192 9        57.809 9
E05  23314342.369 9 122517696.074 9       364.868 9        57.976 9  23314342.369 9 122517696.074 9       364.868 9        57.976 9  23314343.310 9  91490491.022 9       272.466 9        57.836 9  23314343.310 9  91490491.022 9       272.466 9        57.836 9  23314343.310 9  93877199.484 9       279.574 9        57.836 9  23314343.310 9  93877199.484 9       279.574 9        57.836 9  23314343.310 9  92683845.253 9       276.020 9        60.847 9  23314343.310 9  92683845.253 9       276.020 9        60.847 9
E09  25212237.104 9 132491200.222 9     -2110.572 9        57.367 9  25212237.104 9 132491200.222 9     -2110.572 9        57.367 9  25212237.602 9  98938235.887 9     -1576.076 9        57.227 9  25212237.602 9  98938235.887 9     -1576.076 9        57.227 9  25212237.602 9 101519233.345 9     -1617.191 9        57.227 9  25212237.602 9 101519233.345 9     -1617.191 9        57.227 9  25212237.602 9 100228734.616 9     -1596.634 9        60.237 9  25212237.602 9 100228734.616 9     -1596.634 9        60.237 9
E13  28148040.527 9 147918951.340 9       356.972 9        56.288 9  28148040.527 9 147918951.340 9       356.972 9        56.288 9  28148040.693 9 110458957.821 9       266.570 9        56.148 9  28148040.693 9 110458957.821 9       266.570 9        56.148 9  28148040.693 9 113340495.851 9       273.524 9        56.148 9  28148040.693 9 113340495.851 9       273.524 9        56.148 9  28148040.693 9 111899726.836 9       270.047 9        59.158 9  28148040.693 9 111899726.836 9       270.047 9        59.158 9
E25  27082365.267 9 142318790.053 9      3112.713 9        56.720 9  27082365.267 9 142318790.053 9      3112.713 9        56.720 9  27082366.319 9 106277022.674 9      2324.429 9        56.581 9  27082366.319 9 106277022.674 9      2324.429 9        56.581 9  27082366.319 9 109049466.744 9      2385.066 9        56.581 9  27082366.319 9 109049466.744 9      2385.066 9        56.581 9  27082366.319 9 107663244.709 9      2354.747 9        59.591 9  27082366.319 9 107663244.709 9      2354.747 9        59.591 9
E31  24965218.775 9 131193110.144 9     -1533.794 9        57.423 9  24965218.775 9 131193110.144 9     -1533.794 9        57.423 9  24965219.772 9  97968884.863 9     -1145.365 9        57.284 9  24965219.772 9  97968884.863 9     -1145.365 9        57.284 9  24965219.772 9 100524594.903 9     -1175.245 9        57.284 9  24965219.772 9 100524594.903 9     -1175.245 9        57.284 9  24965219.772 9  99246739.883 9     -1160.305 9        60.294 9  24965219.772 9  99246739.883 9     -1160.305 9        60.294 9
E15  27823520.803 9 146213588.680 9     -1836.106 9        56.363 9  27823520.803 9 146213588.680 9     -1836.106 9        56.363 9  27823522.409 9 109185478.367 9     -1371.118 9        56.224 9  27823522.409 9 109185478.367 9     -1371.118 9        56.224 9  27823522.409 9 112033795.194 9     -1406.887 9        56.224 9  27823522.409 9 112033795.194 9     -1406.887 9        56.224 9  27823522.409 9 110609636.781 9     -1389.002 9        59.234 9  27823522.409 9 110609636.781 9     -1389.002 9        59.234 9
E03  26328989.448 9 138359773.398 9      2483.979 9        56.971 9  26328989.448 9 138359773.398 9      2483.979 9        56.971 9  26328990.333 9 103320613.482 9      1854.919 9        56.831 9  26328990.333 9 103320613.482 9      1854.919 9        56.831 9  26328990.333 9 106015933.834 9      1903.309 9        56.831 9  26328990.333 9 106015933.834 9      1903.309 9        56.831 9  26328990.333 9 104668273.658 9      1879.114 9        59.842 9  26328990.333 9 104668273.658 9      1879.114 9        59.842 9
E24  24086902.180 9 126577525.286 9      1235.152 9        57.795 9  24086902.180 9 126577525.286 9      1235.152 9        57.795 9  24086901.405 9  94522174.931 9       922.354 9        57.655 9  24086901.405 9  94522174.931 9       922.354 9        57.655 9  24086901.405 9  96987970.799 9       946.415 9        57.655 9  24086901.405 9  96987970.799 9       946.415 9        57.655 9  24086901.405 9  95755072.865 9       934.385 9        60.665 9  24086901.405 9  95755072.865 9       934.385 9        60.665 9
> 2023 01 08 10 00  8.0000000  0 19       0.000000000000
G08  25067377.619 9 131729958.494 9     -1465.461 9        54.232 9  25067378.613 8 102646724.973 8     -1141.918 8        49.732 8  25067377.619 9  98369774.200 9     -1094.338 9        56.332 9
G13  20027988.397 9 105247789.390 9       586.182 9        56.112 9  20027986.139 8  82011255.214 8       456.766 8        51.612 8  20027988.397 9  78594128.440 9       437.734 9        58.212 9
G24  24534173.488 9 128927951.872 9      3539.725 9        54.411 9  24534174.030 8 100463341.340 8      2758.227 8        49.911 8  24534173.488 9  96277366.658 9      2643.301 9        56.511 9
G07  24594375.412 9 129244315.119 9     -2975.627 9        54.359 9  24594373.245 8 100709847.061 8     -2318.671 8        49.859 8  24594375.412 9  96513611.940 9     -2222.059 9        56.459 9
G18  24765088.837 9 130141420.222 9     -1340.781 9        54.337 9  24765087.212 8 101408892.217 8     -1044.764 8        49.837 8  24765088.837 9  97183528.088 9     -1001.232 9        56.437 9
G20  23510843.431 9 123550316.123 9     -3667.791 9        54.728 9  23510841.805 8  96272966.946 8     -2858.019 8        50.228 8  23510843.431 9  92261599.703 9     -2738.935 9        56.828 9
G14  20963757.762 9 110165290.596 9       123.430 9        55.781 9  20963756.227 8  85843077.294 8        96.179 8        51.281 8  20963757.762 9  82266288.432 9        92.172 9        57.881 9
G23  24873228.463 9 130709697.792 9      3258.060 9        54.289 9  24873226.838 8 101851705.909 8      2538.748 8        49.789 8  24873228.463 9  97607891.209 9      2432.967 9        56.389 9
G05  21739494.295 9 114241813.589 9     -2433.959 9        55.472 9  21739492.127 8  89019586.129 8     -1896.591 8        50.972 8  21739494.295 9  85310445.213 9     -1817.567 9        57.572 9
G30  21854017.961 9 114843639.513 9     -2262.521 9        55.477 9  21854018.683 8  89488553.229 8     -1763.003 8        50.977 8  21854017.961 9  85759860.675 9     -1689.545 9        57.577 9
G15  21121368.136 9 110993538.701 9      2313.116 9        55.709 9  21121366.059 8  86488463.210 8      1802.428 8        51.209 8  21121368.136 9  82884785.394 9      1727.327 9        57.809 9
E05  23314272.953 9 122517331.290 9       364.703 9        57.976 9  23314272.953 9 122517331.290 9       364.703 9        57.976 9  23314273.894 9  91490218.618 9       272.343 9        57.836 9  23314273.894 9  91490218.618 9       272.343 9        57.836 9  23314273.894 9  93876919.974 9       279.447 9        57.836 9  23314273.894 9  93876919.974 9       279.447 9        57.836 9  23314273.894 9  92683569.296 9       275.895 9        60.847 9  23314273.894 9  92683569.296 9       275.895 9        60.847 9
E09  25212638.810 9 132493311.202 9     -2111.381 9        57.366 9  25212638.810 9 132493311.202 9     -2111.381 9        57.366 9  25212639.308 9  98939812.269 9     -1576.681 9        57.227 9  25212639.308 9  98939812.269 9     -1576.681 9        57.227 9  25212639.308 9 101520850.850 9     -1617.812 9        57.227 9  25212639.308 9 101520850.850 9     -1617.812 9        57.227 9  25212639.308 9 100230331.559 9     -1597.246 9        60.237 9  25212639.308 9 100230331.559 9     -1597.246 9        60.237 9
E13  28147972.676 9 147918594.778 9       356.135 9        56.288 9  28147972.676 9 147918594.778 9       356.135 9        56.288 9  28147972.842 9 110458691.558 9       265.945 9        56.148 9  28147972.842 9 110458691.558 9       265.945 9        56.148 9  28147972.842 9 113340222.642 9       272.883 9        56.148 9  28147972.842 9 113340222.642 9       272.883 9        56.148 9  28147972.842 9 111899457.100 9       269.414 9        59.158 9  28147972.842 9 111899457.100 9       269.414 9        59.158 9
E25  27081772.839 9 142315676.818 9      3113.769 9        56.721 9  27081772.839 9 142315676.818 9      3113.769 9        56.721 9  27081773.891 9 106274697.856 9      2325.217 9        56.581 9  27081773.891 9 106274697.856 9      2325.217 9        56.581 9  27081773.891 9 109047081.279 9      2385.875 9        56.581 9  27081773.891 9 109047081.279 9      2385.875 9        56.581 9  27081773.891 9 107660889.567 9      2355.546 9        59.591 9  27081773.891 9 107660889.567 9      2355.546 9        59.591 9
E31  24965510.794 9 131194644.716 9     -1535.354 9        57.423 9  24965510.794 9 131194644.716 9     -1535.354 9        57.423 9  24965511.791 9  97970030.809 9     -1146.531 9        57.284 9  24965511.791 9  97970030.809 9     -1146.531 9        57.284 9  24965511.791 9 100525770.743 9     -1176.440 9        57.284 9  24965511.791 9 100525770.743 9     -1176.440 9        57.284 9  24965511.791 9  99247900.776 9     -1161.485 9        60.294 9  24965511.791 9  99247900.776 9     -1161.485 9        60.294 9
E15  27823870.142 9 146215424.471 9     -1835.482 9        56.363 9  27823870.142 9 146215424.471 9     -1835.482 9        56.363 9  27823871.748 9 109186849.251 9     -1370.652 9        56.223 9  27823871.748 9 109186849.251 9     -1370.652 9        56.223 9  27823871.748 9 112035201.840 9     -1406.408 9        56.223 9  27823871.748 9 112035201.840 9     -1406.408 9        56.223 9  27823871.748 9 110611025.545 9     -1388.530 9        59.234 9  27823871.748 9 110611025.545 9     -1388.530 9        59.234 9
E03  26328516.700 9 138357289.092 9      2484.622 9        56.971 9  26328516.700 9 138357289.092 9      2484.622 9        56.971 9  26328517.586 9 103318758.318 9      1855.399 9        56.832 9  26328517.586 9 103318758.318 9      1855.399 9        56.832 9  26328517.586 9 106014030.274 9      1903.801 9        56.832 9  26328517.586 9 106014030.274 9      1903.801 9        56.832 9  26328517.586 9 104666394.296 9      1879.600 9        59.842 9  26328517.586 9 104666394.296 9      1879.600 9        59.842 9
E24  24086667.181 9 126576290.358 9      1234.715 9        57.795 9  24086667.181 9 126576290.358 9      1234.715 9        57.795 9  24086666.406 9  94521252.745 9       922.027 9        57.655 9  24086666.406 9  94521252.745 9       922.027 9        57.655 9  24086666.406 9  96987024.555 9       946.080 9        57.655 9  24086666.406 9  96987024.555 9       946.080 9        57.655 9  24086666.406 9  95754138.650 9       934.054 9        60.665 9  24086666.406 9  95754138.650 9       934.054 9        60.665 9
> 2023 01 08 10 00  9.0000000  0 19       0.000000000000
G08  25067656.674 9 131731424.934 9     -1467.433 9        54.232 9  25067657.667 8 102647867.653 8     -1143.455 8        49.732 8  25067656.674 9  98370869.269 9     -1095.811 9        56.332 9
G13  20027876.888 9 105247203.409 9       585.779 9        56.112 9  20027874.631 8  82010798.605 8       456.451 8        51.612 8  20027876.888 9  78593690.857 9       437.433 9        58.212 9
G24  24533499.763 9 128924411.425 9      3541.161 9        54.411 9  24533500.305 8 100460582.550 8      2759.346 8        49.911 8  24533499.763 9  96274722.817 9      2644.373 9        56.511 9
G07  24594941.811 9 129247291.563 9     -2977.266 9        54.359 9  24594939.643 8 100712166.368 8     -2319.948 8        49.859 8  24594941.811 9  96515834.609 9     -2223.283 9        56.459 9
G18  24765343.956 9 130142760.882 9     -1340.549 9        54.337 9  24765342.331 8 101409936.888 8     -1044.584 8        49.837 8  24765343.956 9  97184529.230 9     -1001.059 9        56.437 9
G20  23511541.299 9 123553983.447 9     -3666.840 9        54.728 9  23511539.673 8  96275824.601 8     -2857.278 8        50.228 8  23511541.299 9  92264338.289 9     -2738.224 9        56.828 9
G14  20963734.397 9 110165167.807 9       122.154 9        55.781 9  20963732.861 8  85842981.615 8        95.185 8        51.281 8  20963734.397 9  82266196.739 9        91.219 9        57.881 9
G23  24872608.503 9 130706439.877 9      3257.751 9        54.289 9  24872606.877 8 101849167.273 8      2538.508 8        49.789 8  24872608.503 9  97605458.349 9      2432.736 9        56.389 9
G05  21739957.407 9 114244247.257 9     -2433.366 9        55.472 9  21739955.239 8  89021482.494 8     -1896.129 8        50.972 8  21739957.407 9  85312262.562 9     -1817.124 9        57.572 9
G30  21854448.639 9 114845902.743 9     -2263.940 9        55.477 9  21854449.361 8  89490316.784 8     -1764.109 8        50.977 8  21854448.639 9  85761550.749 9     -1690.605 9        57.577 9
G15  21120927.954 9 110991225.529 9      2313.220 9        55.709 9  21120925.877 8  86486660.737 8      1802.509 8        51.209 8  21120927.954 9  82883058.025 9      1727.404 9        57.809 9
E05  23314203.570 9 122516966.680 9       364.520 9        57.976 9  23314203.570 9 122516966.680 9       364.520 9        57.976 9  23314204.511 9  91489946.344 9       272.207 9        57.836 9  23314204.511 9  91489946.344 9       272.207 9        57.836 9  23314204.511 9  93876640.597 9       279.308 9        57.836 9  23314204.511 9  93876640.597 9       279.308 9        57.836 9  23314204.511 9  92683293.470 9       275.757 9        60.847 9  23314204.511 9  92683293.470 9       275.757 9        60.847 9
E09  25213040.662 9 132495422.951 9     -2112.106 9        57.366 9  25213040.662 9 132495422.951 9     -2112.106 9        57.366 9  25213041.161 9  98941389.224 9     -1577.222 9        57.226 9  25213041.161 9  98941389.224 9     -1577.222 9        57.226 9  25213041.161 9 101522468.943 9     -1618.367 9        57.226 9  25213041.161 9 101522468.943 9     -1618.367 9        57.226 9  25213041.161 9 100231929.083 9     -1597.795 9        60.237 9  25213041.161 9 100231929.083 9     -1597.795 9        60.237 9
E13  28147904.994 9 147918239.111 9       355.183 9        56.288 9  28147904.994 9 147918239.111 9       355.183 9        56.288 9  28147905.160 9 110458425.962 9       265.234 9        56.148 9  28147905.160 9 110458425.962 9       265.234 9        56.148 9  28147905.160 9 113339950.117 9       272.153 9        56.148 9  28147905.160 9 113339950.117 9       272.153 9        56.148 9  28147905.160 9 111899188.039 9       268.694 9        59.158 9  28147905.160 9 111899188.039 9       268.694 9        59.158 9
E25  27081180.203 9 142312562.496 9      3114.888 9        56.721 9  27081180.203 9 142312562.496 9      3114.888 9        56.721 9  27081181.255 9 106272372.226 9      2326.053 9        56.581 9  27081181.255 9 106272372.226 9      2326.053 9        56.581 9  27081181.255 9 109044694.980 9      2386.732 9        56.581 9  27081181.255 9 109044694.980 9      2386.732 9        56.581 9  27081181.255 9 107658533.603 9      2356.392 9        59.591 9  27081181.255 9 107658533.603 9      2356.392 9        59.591 9
E31  24965803.110 9 131196180.846 9     -1536.910 9        57.423 9  24965803.110 9 131196180.846 9     -1536.910 9        57.423 9  24965804.107 9  97971177.919 9     -1147.692 9        57.283 9  24965804.107 9  97971177.919 9     -1147.692 9        57.283 9  24965804.107 9 100526947.778 9     -1177.632 9        57.283 9  24965804.107 9 100526947.778 9     -1177.632 9        57.283 9  24965804.107 9  99249062.849 9     -1162.662 9        60.294 9  24965804.107 9  99249062.849 9     -1162.662 9        60.294 9
E15  27824219.373 9 146217259.690 9     -1834.964 9        56.363 9  27824219.373 9 146217259.690 9     -1834.964 9        56.363 9  27824220.979 9 109188219.706 9     -1370.265 9        56.223 9  27824220.979 9 109188219.706 9     -1370.265 9        56.223 9  27824220.979 9 112036608.046 9     -1406.011 9        56.223 9  27824220.979 9 112036608.046 9     -1406.011 9        56.223 9  27824220.979 9 110612413.876 9     -1388.138 9        59.234 9  27824220.979 9 110612413.876 9     -1388.138 9        59.234 9
E03  26328043.839 9 138354804.193 9      2485.162 9        56.972 9  26328043.839 9 138354804.193 9      2485.162 9        56.972 9  26328044.725 9 103316902.712 9      1855.803 9        56.832 9  26328044.725 9 103316902.712 9      1855.803 9        56.832 9  26328044.725 9 106012126.261 9      1904.215 9        56.832 9  26328044.725 9 106012126.261 9      1904.215 9        56.832 9  26328044.725 9 104664514.486 9      1880.009 9        59.842 9  26328044.725 9 104664514.486 9      1880.009 9        59.842 9
E24  24086432.261 9 126575055.841 9      1234.330 9        57.795 9  24086432.261 9 126575055.841 9      1234.330 9        57.795 9  24086431.485 9  94520330.865 9       921.740 9        57.655 9  24086431.485 9  94520330.865 9       921.740 9        57.655 9  24086431.485 9  96986078.627 9       945.785 9        57.655 9  24086431.485 9  96986078.627 9       945.785 9        57.655 9  24086431.485 9  95753204.746 9       933.763 9        60.665 9  24086431.485 9  95753204.746 9       933.763 9        60.665 9
> 2023 01 08 10 00 10.0000000  0 19       0.000000000000
G08  25067936.109 9 131732893.374 9     -1469.461 9        54.232 9  25067937.102 8 102649011.892 8     -1145.034 8        49.732 8  25067936.109 9  98371965.831 9     -1097.325 9        56.332 9
G13  20027765.458 9 105246617.838 9       585.349 9        56.112 9  20027763.200 8  82010342.317 8       456.116 8        51.612 8  20027765.458 9  78593253.581 9       437.111 9        58.212 9
G24  24532825.768 9 128920869.556 9      3542.565 9        54.411 9  24532826.310 8 100457822.652 8      2760.440 8        49.911 8  24532825.768 9  96272077.915 9      2645.422 9        56.511 9
G07  24595508.520 9 129250269.638 9     -2978.888 9        54.359 9  24595506.352 8 100714486.946 8     -2321.212 8        49.859 8  24595508.520 9  96518058.496 9     -2224.495 9        56.459 9
G18  24765599.039 9 130144101.351 9     -1340.404 9        54.337 9  24765597.414 8 101410981.409 8     -1044.470 8        49.837 8  24765599.039 9  97185530.230 9     -1000.951 9        56.437 9
G20  23512238.980 9 123557649.785 9     -3665.822 9        54.728 9  23512237.354 8  96278681.487 8     -2856.485 8        50.228 8  23512238.980 9  92267076.138 9     -2737.465 9        56.828 9
G14  20963711.270 9 110165046.278 9       120.904 9        55.781 9  20963709.735 8  85842886.916 8        94.211 8        51.281 8  20963711.270 9  82266105.987 9        90.285 9        57.881 9
G23  24871988.610 9 130703182.317 9      3257.343 9        54.289 9  24871986.984 8 101846628.915 8      2538.189 8        49.789 8  24871988.610 9  97603025.757 9      2432.431 9        56.389 9
G05  21740420.403 9 114246680.319 9     -2432.754 9        55.472 9  21740418.235 8  89023378.386 8     -1895.653 8        50.972 8  21740420.403 9  85314079.459 9     -1816.667 9        57.572 9
G30  21854879.586 9 114848167.385 9     -2265.354 9        55.477 9  21854880.308 8  89492081.441 8     -1765.211 8        50.977 8  21854879.586 9  85763241.879 9     -1691.661 9        57.577 9
G15  21120487.758 9 110988912.279 9      2313.260 9        55.709 9  21120485.680 8  86484858.205 8      1802.540 8        51.209 8  21120487.758 9  82881330.598 9      1727.434 9        57.809 9
E05  23314134.222 9 122516602.255 9       364.319 9        57.976 9  23314134.222 9 122516602.255 9       364.319 9        57.976 9  23314135.163 9  91489674.209 9       272.056 9        57.836 9  23314135.163 9  91489674.209 9       272.056 9        57.836 9  23314135.163 9  93876361.362 9       279.153 9        57.836 9  23314135.163 9  93876361.362 9       279.153 9        57.836 9  23314135.163 9  92683017.785 9       275.605 9        60.847 9  23314135.163 9  92683017.785 9       275.605 9        60.847 9
E09  25213442.646 9 132497535.390 9     -2112.769 9        57.366 9  25213442.646 9 132497535.390 9     -2112.769 9        57.366 9  25213443.144 9  98942966.695 9     -1577.717 9        57.226 9  25213443.144 9  98942966.695 9     -1577.717 9        57.226 9  25213443.144 9 101524087.565 9     -1618.875 9        57.226 9  25213443.144 9 101524087.565 9     -1618.875 9        57.226 9  25213443.144 9 100233527.130 9     -1598.296 9        60.237 9  25213443.144 9 100233527.130 9     -1598.296 9        60.237 9
E13  28147837.503 9 147917884.441 9       354.135 9        56.288 9  28147837.503 9 147917884.441 9       354.135 9        56.288 9  28147837.669 9 110458161.111 9       264.452 9        56.148 9  28147837.669 9 110458161.111 9       264.452 9        56.148 9  28147837.669 9 113339678.357 9       271.351 9        56.148 9  28147837.669 9 113339678.357 9       271.351 9        56.148 9  28147837.669 9 111898919.734 9       267.901 9        59.158 9  28147837.669 9 111898919.734 9       267.901 9        59.158 9
E25  27080587.348 9 142309447.024 9      3116.064 9        56.721 9  27080587.348 9 142309447.024 9      3116.064 9        56.721 9  27080588.400 9 106270045.738 9      2326.931 9        56.581 9  27080588.400 9 106270045.738 9      2326.931 9        56.581 9  27080588.400 9 109042307.800 9      2387.634 9        56.581 9  27080588.400 9 109042307.800 9      2387.634 9        56.581 9  27080588.400 9 107656176.769 9      2357.282 9        59.591 9  27080588.400 9 107656176.769 9      2357.282 9        59.591 9
E31  24966095.722 9 131197718.532 9     -1538.472 9        57.423 9  24966095.722 9 131197718.532 9     -1538.472 9        57.423 9  24966096.719 9  97972326.191 9     -1148.859 9        57.283 9  24966096.719 9  97972326.191 9     -1148.859 9        57.283 9  24966096.719 9 100528126.005 9     -1178.829 9        57.283 9  24966096.719 9 100528126.005 9     -1178.829 9        57.283 9  24966096.719 9  99250226.098 9     -1163.844 9        60.294 9  24966096.719 9  99250226.098 9     -1163.844 9        60.294 9
E15  27824568.512 9 146219094.430 9     -1834.529 9        56.363 9  27824568.512 9 146219094.430 9     -1834.529 9        56.363 9  27824570.118 9 109189589.804 9     -1369.940 9        56.223 9  27824570.118 9 109189589.804 9     -1369.940 9        56.223 9  27824570.118 9 112038013.886 9     -1405.678 9        56.223 9  27824570.118 9 112038013.886 9     -1405.678 9        56.223 9  27824570.118 9 110613801.845 9     -1387.809 9        59.234 9  27824570.118 9 110613801.845 9     -1387.809 9        59.234 9
E03  26327570.883 9 138352318.790 9      2485.620 9        56.972 9  26327570.883 9 138352318.790 9      2485.620 9        56.972 9  26327571.769 9 103315046.729 9      1856.145 9        56.832 9  26327571.769 9 103315046.729 9      1856.145 9        56.832 9  26327571.769 9 106010221.861 9      1904.566 9        56.832 9  26327571.769 9 106010221.861 9      1904.566 9        56.832 9  26327571.769 9 104662634.295 9      1880.356 9        59.842 9  26327571.769 9 104662634.295 9      1880.356 9        59.842 9
E24  24086197.409 9 126573821.685 9      1233.984 9        57.795 9  24086197.409 9 126573821.685 9      1233.984 9        57.795 9  24086196.633 9  94519409.255 9       921.481 9        57.655 9  24086196.633 9  94519409.255 9       921.481 9        57.655 9  24086196.633 9  96985132.975 9       945.520 9        57.655 9  24086196.633 9  96985132.975 9       945.520 9        57.655 9  24086196.633 9  95752271.115 9       933.501 9        60.665 9  24086196.633 9  95752271.115 9       933.501 9        60.665 9
> 2023 01 08 10 00 11.0000000  0 19       0.000000000000
G08  25068215.933 9 131734363.862 9     -1471.529 9        54.232 9  25068216.926 8 102650157.727 8     -1146.646 8        49.732 8  25068215.933 9  98373063.923 9     -1098.869 9        56.332 9
G13  20027654.110 9 105246032.700 9       584.916 9        56.112 9  20027651.852 8  82009886.365 8       455.778 8        51.612 8  20027654.110 9  78592816.627 9       436.788 9        58.212 9
G24  24532151.511 9 128917326.313 9      3543.913 9        54.411 9  24532152.053 8 100455061.684 8      2761.490 8        49.911 8  24532151.511 9  96269431.987 9      2646.428 9        56.511 9
G07  24596075.532 9 129253249.308 9     -2980.461 9        54.359 9  24596073.364 8 100716808.767 8     -2322.437 8        49.859 8  24596075.532 9  96520283.574 9     -2225.669 9        56.459 9
G18  24765854.105 9 130145441.731 9     -1340.367 9        54.337 9  24765852.479 8 101412025.861 8     -1044.441 8        49.837 8  24765854.105 9  97186531.163 9     -1000.923 9        56.437 9
G20  23512936.460 9 123561315.070 9     -3664.734 9        54.727 9  23512934.835 8  96281537.553 8     -2855.637 8        50.227 8  23512936.460 9  92269813.202 9     -2736.652 9        56.827 9
G14  20963688.375 9 110164925.964 9       119.721 9        55.781 9  20963686.840 8  85842793.165 8        93.289 8        51.281 8  20963688.375 9  82266016.142 9        89.402 9        57.881 9
G23  24871368.805 9 130699925.224 9      3256.822 9        54.290 9  24871367.180 8 101844090.921 8      2537.783 8        49.790 8  24871368.805 9  97600593.512 9      2432.042 9        56.390 9
G05  21740883.280 9 114249112.756 9     -2432.116 9        55.471 9  21740881.113 8  89025273.791 8     -1895.155 8        50.971 8  21740883.280 9  85315895.889 9     -1816.191 9        57.571 9
G30  21855310.798 9 114850433.420 9     -2266.724 9        55.477 9  21855311.520 8  89493847.182 8     -1766.279 8        50.977 8  21855310.798 9  85764934.047 9     -1692.684 9        57.577 9
G15  21120047.559 9 110986599.022 9      2313.239 9        55.710 9  21120045.482 8  86483055.667 8      1802.524 8        51.210 8  21120047.559 9  82879603.166 9      1727.419 9        57.810 9
E05  23314064.912 9 122516238.029 9       364.123 9        57.976 9  23314064.912 9 122516238.029 9       364.123 9        57.976 9  23314065.853 9  91489402.222 9       271.910 9        57.836 9  23314065.853 9  91489402.222 9       271.910 9        57.836 9  23314065.853 9  93876082.280 9       279.003 9        57.836 9  23314065.853 9  93876082.280 9       279.003 9        57.836 9  23314065.853 9  92682742.251 9       275.456 9        60.847 9  23314065.853 9  92682742.251 9       275.456 9        60.847 9
E09  25213844.746 9 132499648.441 9     -2113.331 9        57.366 9  25213844.746 9 132499648.441 9     -2113.331 9        57.366 9  25213845.245 9  98944544.623 9     -1578.137 9        57.226 9  25213845.245 9  98944544.623 9     -1578.137 9        57.226 9  25213845.245 9 101525706.656 9     -1619.306 9        57.226 9  25213845.245 9 101525706.656 9     -1619.306 9        57.226 9  25213845.245 9 100235125.640 9     -1598.721 9        60.236 9  25213845.245 9 100235125.640 9     -1598.721 9        60.236 9
E13  28147770.221 9 147917530.872 9       352.984 9        56.288 9  28147770.221 9 147917530.872 9       352.984 9        56.288 9  28147770.387 9 110457897.082 9       263.592 9        56.148 9  28147770.387 9 110457897.082 9       263.592 9        56.148 9  28147770.387 9 113339407.441 9       270.468 9        56.148 9  28147770.387 9 113339407.441 9       270.468 9        56.148 9  28147770.387 9 111898652.262 9       267.030 9        59.158 9  28147770.387 9 111898652.262 9       267.030 9        59.158 9
E25  27079994.264 9 142306330.347 9      3117.299 9        56.721 9  27079994.264 9 142306330.347 9      3117.299 9        56.721 9  27079995.316 9 106267718.349 9      2327.853 9        56.581 9  27079995.316 9 106267718.349 9      2327.853 9        56.581 9  27079995.316 9 109039919.697 9      2388.580 9        56.581 9  27079995.316 9 109039919.697 9      2388.580 9        56.581 9  27079995.316 9 107653819.023 9      2358.217 9        59.592 9  27079995.316 9 107653819.023 9      2358.217 9        59.592 9
E31  24966388.628 9 131199257.765 9     -1540.004 9        57.423 9  24966388.628 9 131199257.765 9     -1540.004 9        57.423 9  24966389.625 9  97973475.619 9     -1150.003 9        57.283 9  24966389.625 9  97973475.619 9     -1150.003 9        57.283 9  24966389.625 9 100529305.417 9     -1180.003 9        57.283 9  24966389.625 9 100529305.417 9     -1180.003 9        57.283 9  24966389.625 9  99251390.518 9     -1165.003 9        60.293 9  24966389.625 9  99251390.518 9     -1165.003 9        60.293 9
E15  27824917.579 9 146220928.790 9     -1834.200 9        56.363 9  27824917.579 9 146220928.790 9     -1834.200 9        56.363 9  27824919.185 9 109190959.619 9     -1369.695 9        56.223 9  27824919.185 9 109190959.619 9     -1369.695 9        56.223 9  27824919.185 9 112039419.435 9     -1405.426 9        56.223 9  27824919.185 9 112039419.435 9     -1405.426 9        56.223 9  27824919.185 9 110615189.527 9     -1387.560 9        59.233 9  27824919.185 9 110615189.527 9     -1387.560 9        59.233 9
E03  26327097.848 9 138349832.978 9      2485.985 9        56.972 9  26327097.848 9 138349832.978 9      2485.985 9        56.972 9  26327098.734 9 103313190.441 9      1856.418 9        56.832 9  26327098.734 9 103313190.441 9      1856.418 9        56.832 9  26327098.734 9 106008317.148 9      1904.846 9        56.832 9  26327098.734 9 106008317.148 9      1904.846 9        56.832 9  26327098.734 9 104660753.794 9      1880.632 9        59.842 9  26327098.734 9 104660753.794 9      1880.632 9        59.842 9
E24  24085962.616 9 126572587.839 9      1233.708 9        57.795 9  24085962.616 9 126572587.839 9      1233.708 9        57.795 9  24085961.840 9  94518487.877 9       921.276 9        57.655 9  24085961.840 9  94518487.877 9       921.276 9        57.655 9  24085961.840 9  96984187.561 9       945.309 9        57.655 9  24085961.840 9  96984187.561 9       945.309 9        57.655 9  24085961.840 9  95751337.719 9       933.292 9        60.666 9  24085961.840 9  95751337.719 9       933.292 9        60.666 9
> 2023 01 08 10 00 12.0000000  0 19       0.000000000000
G08  25068496.155 9 131735836.438 9     -1473.627 9        54.232 9  25068497.148 8 102651305.189 8     -1148.281 8        49.732 8  25068496.155 9  98374163.574 9     -1100.436 9        56.332 9
G13  20027542.848 9 105245448.016 9       584.459 9        56.112 9  20027540.590 8  82009430.767 8       455.423 8        51.612 8  20027542.848 9  78592380.012 9       436.447 9        58.212 9
G24  24531477.003 9 128913781.748 9      3545.200 9        54.412 9  24531477.545 8 100452299.685 8      2762.494 8        49.912 8  24531477.003 9  96266785.072 9      2647.390 9        56.512 9
G07  24596642.840 9 129256230.535 9     -2981.986 9        54.358 9  24596640.673 8 100719131.801 8     -2323.625 8        49.858 8  24596642.840 9  96522509.815 9     -2226.808 9        56.458 9
G18  24766109.173 9 130146782.123 9     -1340.431 9        54.336 9  24766107.547 8 101413070.322 8     -1044.492 8        49.836 8  24766109.173 9  97187532.105 9     -1000.971 9        56.436 9
G20  23513633.729 9 123564979.240 9     -3663.596 9        54.727 9  23513632.103 8  96284392.751 8     -2854.750 8        50.227 8  23513633.729 9  92272549.433 9     -2735.802 9        56.827 9
G14  20963665.703 9 110164806.821 9       118.582 9        55.781 9  20963664.168 8  85842700.327 8        92.401 8        51.281 8  20963665.703 9  82265927.172 9        88.551 9        57.881 9
G23  24870749.110 9 130696668.705 9      3256.199 9        54.290 9  24870747.485 8 101841553.373 8      2537.298 8        49.790 8  24870749.110 9  97598161.695 9      2431.577 9        56.390 9
G05  21741346.036 9 114251544.555 9     -2431.474 9        55.471 9  21741343.869 8  89027168.699 8     -1894.655 8        50.971 8  21741346.036 9  85317711.843 9     -1815.711 9        57.571 9
G30  21855742.270 9 114852700.819 9     -2268.064 9        55.476 9  21855742.992 8  89495613.986 8     -1767.323 8        50.976 8  21855742.270 9  85766627.235 9     -1693.684 9        57.576 9
G15  21119607.373 9 110984285.825 9      2313.147 9        55.710 9  21119605.295 8  86481253.176 8      1802.452 8        51.210 8  21119607.373 9  82877875.779 9      1727.350 9        57.810 9
E05  23313995.643 9 122515874.016 9       363.911 9        57.976 9  23313995.643 9 122515874.016 9       363.911 9        57.976 9  23313996.584 9  91489130.394 9       271.751 9        57.836 9  23313996.584 9  91489130.394 9       271.751 9        57.836 9  23313996.584 9  93875803.361 9       278.841 9        57.836 9  23313996.584 9  93875803.361 9       278.841 9        57.836 9  23313996.584 9  92682466.878 9       275.296 9        60.847 9  23313996.584 9  92682466.878 9       275.296 9        60.847 9
E09  25214246.948 9 132501762.023 9     -2113.816 9        57.366 9  25214246.948 9 132501762.023 9     -2113.816 9        57.366 9  25214247.446 9  98946122.947 9     -1578.499 9        57.226 9  25214247.446 9  98946122.947 9     -1578.499 9        57.226 9  25214247.446 9 101527326.154 9     -1619.677 9        57.226 9  25214247.446 9 101527326.154 9     -1619.677 9        57.226 9  25214247.446 9 100236724.551 9     -1599.088 9        60.236 9  25214247.446 9 100236724.551 9     -1599.088 9        60.236 9
E13  28147703.167 9 147917178.503 9       351.742 9        56.288 9  28147703.167 9 147917178.503 9       351.742 9        56.288 9  28147703.333 9 110457633.950 9       262.664 9        56.148 9  28147703.333 9 110457633.950 9       262.664 9        56.148 9  28147703.333 9 113339137.444 9       269.517 9        56.148 9  28147703.333 9 113339137.444 9       269.517 9        56.148 9  28147703.333 9 111898385.697 9       266.090 9        59.158 9  28147703.333 9 111898385.697 9       266.090 9        59.158 9
E25  27079400.941 9 142303212.414 9      3118.573 9        56.721 9  27079400.941 9 142303212.414 9      3118.573 9        56.721 9  27079401.993 9 106265390.022 9      2328.804 9        56.581 9  27079401.993 9 106265390.022 9      2328.804 9        56.581 9  27079401.993 9 109037530.631 9      2389.556 9        56.581 9  27079401.993 9 109037530.631 9      2389.556 9        56.581 9  27079401.993 9 107651460.326 9      2359.180 9        59.592 9  27079401.993 9 107651460.326 9      2359.180 9        59.592 9
E31  24966681.826 9 131200798.531 9     -1541.518 9        57.423 9  24966681.826 9 131200798.531 9     -1541.518 9        57.423 9  24966682.823 9  97974626.190 9     -1151.133 9        57.283 9  24966682.823 9  97974626.190 9     -1151.133 9        57.283 9  24966682.823 9 100530486.004 9     -1181.163 9        57.283 9  24966682.823 9 100530486.004 9     -1181.163 9        57.283 9  24966682.823 9  99252556.097 9     -1166.148 9        60.293 9  24966682.823 9  99252556.097 9     -1166.148 9        60.293 9
E15  27825266.593 9 146222762.870 9     -1833.971 9        56.363 9  27825266.593 9 146222762.870 9     -1833.971 9        56.363 9  27825268.199 9 109192329.224 9     -1369.524 9        56.223 9  27825268.199 9 109192329.224 9     -1369.524 9        56.223 9  27825268.199 9 112040824.769 9     -1405.251 9        56.223 9  27825268.199 9 112040824.769 9     -1405.251 9        56.223 9  27825268.199 9 110616576.996 9     -1387.387 9        59.233 9  27825268.199 9 110616576.996 9     -1387.387 9        59.233 9
E03  26326624.754 9 138347346.850 9      2486.256 9        56.972 9  26326624.754 9 138347346.850 9      2486.256 9        56.972 9  26326625.640 9 103311333.917 9      1856.620 9        56.832 9  26326625.640 9 103311333.917 9      1856.620 9        56.832 9  26326625.640 9 106006412.193 9      1905.054 9        56.832 9  26326625.640 9 106006412.193 9      1905.054 9        56.832 9  26326625.640 9 104658873.055 9      1880.837 9        59.842 9  26326625.640 9 104658873.055 9      1880.837 9        59.842 9
E24  24085727.872 9 126571354.255 9      1233.477 9        57.795 9  24085727.872 9 126571354.255 9      1233.477 9        57.795 9  24085727.097 9  94517566.694 9       921.103 9        57.655 9  24085727.097 9  94517566.694 9       921.103 9        57.655 9  24085727.097 9  96983242.347 9       945.132 9        57.655 9  24085727.097 9  96983242.347 9       945.132 9        57.655 9  24085727.097 9  95750404.520 9       933.117 9        60.666 9  24085727.097 9  95750404.520 9       933.117 9        60.666 9
> 2023 01 08 10 00 13.0000000  0 19       0.000000000000
G08  25068776.781 9 131737311.137 9     -1475.771 9        54.232 9  25068777.774 8 102652454.305 8     -1149.951 8        49.732 8  25068776.781 9  98375264.810 9     -1102.037 9        56.332 9
G13  20027431.677 9 105244863.807 9       583.964 9        56.112 9  20027429.419 8  82008975.539 8       455.037 8        51.612 8  20027431.677 9  78591943.752 9       436.077 9        58.212 9
G24  24530802.255 9 128910235.922 9      3546.433 9        54.412 9  24530802.797 8 100449536.704 8      2763.454 8        49.912 8  24530802.255 9  96264137.215 9      2648.310 9        56.512 9
G07  24597210.436 9 129259213.268 9     -2983.474 9        54.358 9  24597208.268 8 100721456.008 8     -2324.785 8        49.858 8  24597210.436 9  96524737.181 9     -2227.919 9        56.458 9
G18  24766364.264 9 130148122.634 9     -1340.603 9        54.336 9  24766362.638 8 101414114.876 8     -1044.625 8        49.836 8  24766364.264 9  97188533.136 9     -1001.099 9        56.436 9
G20  23514330.775 9 123568642.242 9     -3662.400 9        54.727 9  23514329.149 8  96287247.039 8     -2853.818 8        50.227 8  23514330.775 9  92275284.791 9     -2734.909 9        56.827 9
G14  20963643.245 9 110164688.802 9       117.473 9        55.781 9  20963641.709 8  85842608.364 8        91.537 8        51.281 8  20963643.245 9  82265839.040 9        87.723 9        57.881 9
G23  24870129.545 9 130693412.865 9      3255.464 9        54.290 9  24870127.919 8 101839016.355 8      2536.725 8        49.790 8  24870129.545 9  97595730.386 9      2431.028 9        56.390 9
G05  21741808.670 9 114253975.710 9     -2430.830 9        55.471 9  21741806.502 8  89029063.106 8     -1894.153 8        50.971 8  21741808.670 9  85319527.316 9     -1815.230 9        57.571 9
G30  21856173.995 9 114854969.551 9     -2269.390 9        55.476 9  21856174.718 8  89497381.830 8     -1768.356 8        50.976 8  21856173.995 9  85768321.418 9     -1694.674 9        57.576 9
G15  21119167.211 9 110981972.762 9      2312.972 9        55.710 9  21119165.134 8  86479450.789 8      1802.316 8        51.210 8  21119167.211 9  82876148.491 9      1727.219 9        57.810 9
E05  23313926.416 9 122515510.230 9       363.668 9        57.976 9  23313926.416 9 122515510.230 9       363.668 9        57.976 9  23313927.358 9  91488858.736 9       271.570 9        57.836 9  23313927.358 9  91488858.736 9       271.570 9        57.836 9  23313927.358 9  93875524.616 9       278.654 9        57.836 9  23313927.358 9  93875524.616 9       278.654 9        57.836 9  23313927.358 9  92682191.676 9       275.112 9        60.847 9  23313927.358 9  92682191.676 9       275.112 9        60.847 9
E09  25214649.234 9 132503876.055 9     -2114.231 9        57.366 9  25214649.234 9 132503876.055 9     -2114.231 9        57.366 9  25214649.733 9  98947701.607 9     -1578.809 9        57.226 9  25214649.733 9  98947701.607 9     -1578.809 9        57.226 9  25214649.733 9 101528945.996 9     -1619.995 9        57.226 9  25214649.733 9 101528945.996 9     -1619.995 9        57.226 9  25214649.733 9 100238323.802 9     -1599.402 9        60.236 9  25214649.733 9 100238323.802 9     -1599.402 9        60.236 9
E13  28147636.360 9 147916827.428 9       350.397 9        56.288 9  28147636.360 9 147916827.428 9       350.397 9        56.288 9  28147636.526 9 110457371.783 9       261.660 9        56.148 9  28147636.526 9 110457371.783 9       261.660 9        56.148 9  28147636.526 9 113338868.439 9       268.486 9        56.148 9  28147636.526 9 113338868.439 9       268.486 9        56.148 9  28147636.526 9 111898120.111 9       265.073 9        59.158 9  28147636.526 9 111898120.111 9       265.073 9        59.158 9
E25  27078807.371 9 142300093.182 9      3119.892 9        56.722 9  27078807.371 9 142300093.182 9      3119.892 9        56.722 9  27078808.423 9 106263060.726 9      2329.790 9        56.582 9  27078808.423 9 106263060.726 9      2329.790 9        56.582 9  27078808.423 9 109035140.571 9      2390.567 9        56.582 9  27078808.423 9 109035140.571 9      2390.567 9        56.582 9  27078808.423 9 107649100.648 9      2360.178 9        59.592 9  27078808.423 9 107649100.648 9      2360.178 9        59.592 9
E31  24966975.312 9 131202340.810 9     -1543.030 9        57.423 9  24966975.312 9 131202340.810 9     -1543.030 9        57.423 9  24966976.309 9  97975777.892 9     -1152.263 9        57.283 9  24966976.309 9  97975777.892 9     -1152.263 9        57.283 9  24966976.309 9 100531667.750 9     -1182.322 9        57.283 9  24966976.309 9 100531667.750 9     -1182.322 9        57.283 9  24966976.309 9  99253722.821 9     -1167.292 9        60.293 9  24966976.309 9  99253722.821 9     -1167.292 9        60.293 9
E15  27825615.573 9 146224596.773 9     -1833.847 9        56.363 9  27825615.573 9 146224596.773 9     -1833.847 9        56.363 9  27825617.179 9 109193698.697 9     -1369.431 9        56.223 9  27825617.179 9 109193698.697 9     -1369.431 9        56.223 9  27825617.179 9 112042229.967 9     -1405.155 9        56.223 9  27825617.179 9 112042229.967 9     -1405.155 9        56.223 9  27825617.179 9 110617964.332 9     -1387.293 9        59.233 9  27825617.179 9 110617964.332 9     -1387.293 9        59.233 9
E03  26326151.618 9 138344860.502 9      2486.424 9        56.972 9  26326151.618 9 138344860.502 9      2486.424 9        56.972 9  26326152.504 9 103309477.228 9      1856.745 9        56.832 9  26326152.504 9 103309477.228 9      1856.745 9        56.832 9  26326152.504 9 106004507.069 9      1905.182 9        56.832 9  26326152.504 9 106004507.069 9      1905.182 9        56.832 9  26326152.504 9 104656992.149 9      1880.964 9        59.843 9  26326152.504 9 104656992.149 9      1880.964 9        59.843 9
E24  24085493.169 9 126570120.884 9      1233.280 9        57.795 9  24085493.169 9 126570120.884 9      1233.280 9        57.795 9  24085492.394 9  94516645.670 9       920.956 9        57.655 9  24085492.394 9  94516645.670 9       920.956 9        57.655 9  24085492.394 9  96982297.296 9       944.981 9        57.655 9  24085492.394 9  96982297.296 9       944.981 9        57.655 9  24085492.394 9  95749471.483 9       932.968 9        60.666 9  24085492.394 9  95749471.483 9       932.968 9        60.666 9
> 2023 01 08 10 00 14.0000000  0 19       0.000000000000
G08  25069057.816 9 131738787.985 9     -1477.929 9        54.232 9  25069058.809 8 102653605.095 8     -1151.633 8        49.732 8  25069057.816 9  98376367.651 9     -1103.648 9        56.332 9
G13  20027320.600 9 105244280.096 9       583.445 9        56.112 9  20027318.343 8  82008520.699 8       454.633 8        51.612 8  20027320.600 9  78591507.864 9       435.690 9        58.212 9
G24  24530127.279 9 128906688.902 9      3547.593 9        54.412 9  24530127.821 8 100446772.792 8      2764.358 8        49.912 8  24530127.279 9  96261488.465 9      2649.176 9        56.512 9
G07  24597778.308 9 129262197.454 9     -2984.900 9        54.358 9  24597776.140 8 100723781.348 8     -2325.896 8        49.858 8  24597778.308 9  96526965.631 9     -2228.984 9        56.458 9
G18  24766619.397 9 130149463.370 9     -1340.878 9        54.336 9  24766617.772 8 101415159.605 8     -1044.840 8        49.836 8  24766619.397 9  97189534.334 9     -1001.305 9        56.436 9
G20  23515027.589 9 123572304.027 9     -3661.169 9        54.727 9  23515025.964 8  96290100.377 8     -2852.859 8        50.227 8  23515027.589 9  92278019.241 9     -2733.990 9        56.827 9
G14  20963620.991 9 110164571.857 9       116.411 9        55.781 9  20963619.456 8  85842517.238 8        90.710 8        51.281 8  20963620.991 9  82265751.711 9        86.930 9        57.881 9
G23  24869510.128 9 130690157.810 9      3254.634 9        54.290 9  24869508.503 8 101836479.948 8      2536.078 8        49.790 8  24869510.128 9  97593299.663 9      2430.408 9        56.390 9
G05  21742271.180 9 114256406.218 9     -2430.195 9        55.471 9  21742269.012 8  89030957.009 8     -1893.658 8        50.971 8  21742271.180 9  85321342.306 9     -1814.756 9        57.571 9
G30  21856605.967 9 114857239.580 9     -2270.676 9        55.476 9  21856606.690 8  89499150.683 8     -1769.358 8        50.976 8  21856605.967 9  85770016.570 9     -1695.634 9        57.576 9
G15  21118727.089 9 110979659.905 9      2312.724 9        55.710 9  21118725.012 8  86477648.563 8      1802.123 8        51.210 8  21118727.089 9  82874421.358 9      1727.034 9        57.810 9
E05  23313857.236 9 122515146.686 9       363.408 9        57.976 9  23313857.236 9 122515146.686 9       363.408 9        57.976 9  23313858.178 9  91488587.258 9       271.376 9        57.836 9  23313858.178 9  91488587.258 9       271.376 9        57.836 9  23313858.178 9  93875246.056 9       278.455 9        57.836 9  23313858.178 9  93875246.056 9       278.455 9        57.836 9  23313858.178 9  92681916.657 9       274.916 9        60.847 9  23313858.178 9  92681916.657 9       274.916 9        60.847 9
E09  25215051.591 9 132505990.453 9     -2114.569 9        57.366 9  25215051.591 9 132505990.453 9     -2114.569 9        57.366 9  25215052.089 9  98949280.540 9     -1579.061 9        57.226 9  25215052.089 9  98949280.540 9     -1579.061 9        57.226 9  25215052.089 9 101530566.120 9     -1620.254 9        57.226 9  25215052.089 9 101530566.120 9     -1620.254 9        57.226 9  25215052.089 9 100239923.330 9     -1599.658 9        60.236 9  25215052.089 9 100239923.330 9     -1599.658 9        60.236 9
E13  28147569.816 9 147916477.739 9       348.972 9        56.288 9  28147569.816 9 147916477.739 9       348.972 9        56.288 9  28147569.983 9 110457110.652 9       260.596 9        56.148 9  28147569.983 9 110457110.652 9       260.596 9        56.148 9  28147569.983 9 113338600.495 9       267.394 9        56.148 9  28147569.983 9 113338600.495 9       267.394 9        56.148 9  28147569.983 9 111897855.573 9       263.995 9        59.158 9  28147569.983 9 111897855.573 9       263.995 9        59.158 9
E25  27078213.547 9 142296972.617 9      3121.235 9        56.722 9  27078213.547 9 142296972.617 9      3121.235 9        56.722 9  27078214.599 9 106260730.433 9      2330.792 9        56.582 9  27078214.599 9 106260730.433 9      2330.792 9        56.582 9  27078214.599 9 109032749.488 9      2391.596 9        56.582 9  27078214.599 9 109032749.488 9      2391.596 9        56.582 9  27078214.599 9 107646739.960 9      2361.194 9        59.592 9  27078214.599 9 107646739.960 9      2361.194 9        59.592 9
E31  24967269.082 9 131203884.578 9     -1544.513 9        57.423 9  24967269.082 9 131203884.578 9     -1544.513 9        57.423 9  24967270.078 9  97976930.706 9     -1153.370 9        57.283 9  24967270.078 9  97976930.706 9     -1153.370 9        57.283 9  24967270.078 9 100532850.638 9     -1183.458 9        57.283 9  24967270.078 9 100532850.638 9     -1183.458 9        57.283 9  24967270.078 9  99254890.672 9     -1168.414 9        60.293 9  24967270.078 9  99254890.672 9     -1168.414 9        60.293 9
E15  27825964.540 9 146226430.605 9     -1833.825 9        56.363 9  27825964.540 9 146226430.605 9     -1833.825 9        56.363 9  27825966.146 9 109195068.117 9     -1369.415 9        56.223 9  27825966.146 9 109195068.117 9     -1369.415 9        56.223 9  27825966.146 9 112043635.111 9     -1405.139 9        56.223 9  27825966.146 9 112043635.111 9     -1405.139 9        56.223 9  27825966.146 9 110619351.614 9     -1387.277 9        59.233 9  27825966.146 9 110619351.614 9     -1387.277 9        59.233 9
E03  26325678.458 9 138342374.033 9      2486.497 9        56.972 9  26325678.458 9 138342374.033 9      2486.497 9        56.972 9  26325679.344 9 103307620.449 9      1856.800 9        56.832 9  26325679.344 9 103307620.449 9      1856.800 9        56.832 9  26325679.344 9 106002601.852 9      1905.238 9        56.832 9  26325679.344 9 106002601.852 9      1905.238 9        56.832 9  26325679.344 9 104655111.151 9      1881.019 9        59.843 9  26325679.344 9 104655111.151 9      1881.019 9        59.843 9
E24  24085258.498 9 126568887.679 9      1233.123 9        57.795 9  24085258.498 9 126568887.679 9      1233.123 9        57.795 9  24085257.723 9  94515724.770 9       920.839 9        57.656 9  24085257.723 9  94515724.770 9       920.839 9        57.656 9  24085257.723 9  96981352.373 9       944.861 9        57.656 9  24085257.723 9  96981352.373 9       944.861 9        57.656 9  24085257.723 9  95748538.571 9       932.850 9        60.666 9  24085257.723 9  95748538.571 9       932.850 9        60.666 9
> 2023 01 08 10 00 15.0000000  0 19       0.000000000000
G08  25069339.263 9 131740267.001 9     -1480.102 9        54.232 9  25069340.256 8 102654757.575 8     -1153.326 8        49.732 8  25069339.263 9  98377472.111 9     -1105.271 9        56.332 9
G13  20027209.623 9 105243696.903 9       582.928 9        56.112 9  20027207.365 8  82008066.263 8       454.230 8        51.612 8  20027209.623 9  78591072.363 9       435.303 9        58.212 9
G24  24529452.090 9 128903140.759 9      3548.674 9        54.412 9  24529452.632 8 100444008.005 8      2765.200 8        49.912 8  24529452.090 9  96258838.878 9      2649.984 9        56.512 9
G07  24598346.444 9 129265183.031 9     -2986.252 9        54.358 9  24598344.276 8 100726107.772 8     -2326.949 8        49.858 8  24598346.444 9  96529195.121 9     -2229.993 9        56.458 9
G18  24766874.594 9 130150804.438 9     -1341.269 9        54.336 9  24766872.969 8 101416204.594 8     -1045.144 8        49.836 8  24766874.594 9  97190535.782 9     -1001.597 9        56.436 9
G20  23515724.164 9 123575964.553 9     -3659.885 9        54.726 9  23515722.539 8  96292952.735 8     -2851.859 8        50.226 8  23515724.164 9  92280752.750 9     -2733.031 9        56.826 9
G14  20963598.932 9 110164455.936 9       115.428 9        55.781 9  20963597.397 8  85842426.910 8        89.944 8        51.281 8  20963598.932 9  82265665.147 9        86.196 9        57.881 9
G23  24868890.880 9 130686903.639 9      3253.695 9        54.291 9  24868889.254 8 101833944.231 8      2535.347 8        49.791 8  24868890.880 9  97590869.601 9      2429.708 9        56.391 9
G05  21742733.568 9 114258836.085 9     -2429.548 9        55.471 9  21742731.401 8  89032850.411 8     -1893.154 8        50.971 8  21742733.568 9  85323156.817 9     -1814.273 9        57.571 9
G30  21857038.178 9 114859510.864 9     -2271.895 9        55.476 9  21857038.901 8  89500920.515 8     -1770.308 8        50.976 8  21857038.178 9  85771712.658 9     -1696.545 9        57.576 9
G15  21118287.020 9 110977347.328 9      2312.413 9        55.710 9  21118284.943 8  86475846.555 8      1801.880 8        51.210 8  21118287.020 9  82872694.433 9      1726.802 9        57.810 9
E05  23313788.105 9 122514783.398 9       363.157 9        57.976 9  23313788.105 9 122514783.398 9       363.157 9        57.976 9  23313789.046 9  91488315.971 9       271.188 9        57.836 9  23313789.046 9  91488315.971 9       271.188 9        57.836 9  23313789.046 9  93874967.692 9       278.263 9        57.836 9  23313789.046 9  93874967.692 9       278.263 9        57.836 9  23313789.046 9  92681641.832 9       274.726 9        60.847 9  23313789.046 9  92681641.832 9       274.726 9        60.847 9
E09  25215454.002 9 132508105.135 9     -2114.798 9        57.365 9  25215454.002 9 132508105.135 9     -2114.798 9        57.365 9  25215454.500 9  98950859.686 9     -1579.232 9        57.226 9  25215454.500 9  98950859.686 9     -1579.232 9        57.226 9  25215454.500 9 101532186.461 9     -1620.430 9        57.226 9  25215454.500 9 101532186.461 9     -1620.430 9        57.226 9  25215454.500 9 100241523.074 9     -1599.831 9        60.236 9  25215454.500 9 100241523.074 9     -1599.831 9        60.236 9
E13  28147503.553 9 147916129.523 9       347.456 9        56.288 9  28147503.553 9 147916129.523 9       347.456 9        56.288 9  28147503.719 9 110456850.620 9       259.464 9        56.148 9  28147503.719 9 110456850.620 9       259.464 9        56.148 9  28147503.719 9 113338333.680 9       266.232 9        56.148 9  28147503.719 9 113338333.680 9       266.232 9        56.148 9  28147503.719 9 111897592.150 9       262.848 9        59.158 9  28147503.719 9 111897592.150 9       262.848 9        59.158 9
E25  27077619.464 9 142293850.688 9      3122.615 9        56.722 9  27077619.464 9 142293850.688 9      3122.615 9        56.722 9  27077620.516 9 106258399.123 9      2331.823 9        56.582 9  27077620.516 9 106258399.123 9      2331.823 9        56.582 9  27077620.516 9 109030357.361 9      2392.653 9        56.582 9  27077620.516 9 109030357.361 9      2392.653 9        56.582 9  27077620.516 9 107644378.242 9      2362.238 9        59.592 9  27077620.516 9 107644378.242 9      2362.238 9        59.592 9
E31  24967563.129 9 131205429.804 9     -1545.943 9        57.423 9  24967563.129 9 131205429.804 9     -1545.943 9        57.423 9  24967564.125 9  97978084.609 9     -1154.438 9        57.283 9  24967564.125 9  97978084.609 9     -1154.438 9        57.283 9  24967564.125 9 100534034.642 9     -1184.554 9        57.283 9  24967564.125 9 100534034.642 9     -1184.554 9        57.283 9  24967564.125 9  99256059.626 9     -1169.496 9        60.293 9  24967564.125 9  99256059.626 9     -1169.496 9        60.293 9
E15  27826313.513 9 146228264.473 9     -1833.919 9        56.363 9  27826313.513 9 146228264.473 9     -1833.919 9        56.363 9  27826315.119 9 109196437.563 9     -1369.485 9        56.223 9  27826315.119 9 109196437.563 9     -1369.485 9        56.223 9  27826315.119 9 112045040.283 9     -1405.211 9        56.223 9  27826315.119 9 112045040.283 9     -1405.211 9        56.223 9  27826315.119 9 110620738.923 9     -1387.348 9        59.233 9  27826315.119 9 110620738.923 9     -1387.348 9        59.233 9
E03  26325205.294 9 138339887.540 9      2486.472 9        56.972 9  26325205.294 9 138339887.540 9      2486.472 9        56.972 9  26325206.180 9 103305763.653 9      1856.781 9        56.833 9  26325206.180 9 103305763.653 9      1856.781 9        56.833 9  26325206.180 9 106000696.617 9      1905.219 9        56.833 9  26325206.180 9 106000696.617 9      1905.219 9        56.833 9  26325206.180 9 104653230.135 9      1881.000 9        59.843 9  26325206.180 9 104653230.135 9      1881.000 9        59.843 9
E24  24085023.850 9 126567654.594 9      1233.039 9        57.796 9  24085023.850 9 126567654.594 9      1233.039 9        57.796 9  24085023.075 9  94514803.960 9       920.776 9        57.656 9  24085023.075 9  94514803.960 9       920.776 9        57.656 9  24085023.075 9  96980407.542 9       944.796 9        57.656 9  24085023.075 9  96980407.542 9       944.796 9        57.656 9  24085023.075 9  95747605.751 9       932.786 9        60.666 9  24085023.075 9  95747605.751 9       932.786 9        60.666 9
> 2023 01 08 10 00 16.0000000  0 19       0.000000000000
G08  25069621.125 9 131741748.196 9     -1482.284 9        54.232 9  25069622.118 8 102655911.753 8     -1155.027 8        49.732 8  25069621.125 9  98378578.198 9     -1106.901 9        56.332 9
G13  20027098.747 9 105243114.250 9       582.374 9        56.113 9  20027096.490 8  82007612.248 8       453.798 8        51.613 8  20027098.747 9  78590637.265 9       434.890 9        58.213 9
G24  24528776.702 9 128899591.571 9      3549.678 9        54.413 9  24528777.244 8 100441242.404 8      2765.983 8        49.913 8  24528776.702 9  96256188.511 9      2650.734 9        56.513 9
G07  24598914.832 9 129268169.932 9     -2987.542 9        54.358 9  24598912.665 8 100728435.227 8     -2327.954 8        49.858 8  24598914.832 9  96531425.599 9     -2230.956 9        56.458 9
G18  24767129.875 9 130152145.947 9     -1341.763 9        54.336 9  24767128.249 8 101417249.925 8     -1045.530 8        49.836 8  24767129.875 9  97191537.558 9     -1001.966 9        56.436 9
G20  23516420.493 9 123579623.784 9     -3658.578 9        54.726 9  23516418.867 8  96295804.084 8     -2850.840 8        50.226 8  23516420.493 9  92283485.294 9     -2732.055 9        56.826 9
G14  20963577.058 9 110164340.986 9       114.480 9        55.781 9  20963575.522 8  85842337.339 8        89.205 8        51.281 8  20963577.058 9  82265579.308 9        85.488 9        57.881 9
G23  24868271.819 9 130683650.452 9      3252.664 9        54.291 9  24868270.193 8 101831409.280 8      2534.544 8        49.791 8  24868271.819 9  97588440.272 9      2428.938 9        56.391 9
G05  21743195.836 9 114261265.319 9     -2428.924 9        55.471 9  21743193.669 8  89034743.321 8     -1892.668 8        50.971 8  21743195.836 9  85324970.855 9     -1813.807 9        57.571 9
G30  21857470.619 9 114861783.357 9     -2273.084 9        55.476 9  21857471.342 8  89502691.289 8     -1771.234 8        50.976 8  21857470.619 9  85773409.650 9     -1697.433 9        57.576 9
G15  21117847.019 9 110975035.104 9      2312.020 9        55.711 9  21117844.942 8  86474044.822 8      1801.574 8        51.211 8  21117847.019 9  82870967.772 9      1726.509 9        57.811 9
E05  23313719.025 9 122514420.381 9       362.874 9        57.976 9  23313719.025 9 122514420.381 9       362.874 9        57.976 9  23313719.966 9  91488044.887 9       270.977 9        57.836 9  23313719.966 9  91488044.887 9       270.977 9        57.836 9  23313719.966 9  93874689.537 9       278.046 9        57.836 9  23313719.966 9  93874689.537 9       278.046 9        57.836 9  23313719.966 9  92681367.212 9       274.512 9        60.847 9  23313719.966 9  92681367.212 9       274.512 9        60.847 9
E09  25215856.451 9 132510220.019 9     -2114.962 9        57.365 9  25215856.451 9 132510220.019 9     -2114.962 9        57.365 9  25215856.949 9  98952438.983 9     -1579.355 9        57.225 9  25215856.949 9  98952438.983 9     -1579.355 9        57.225 9  25215856.949 9 101533806.956 9     -1620.555 9        57.225 9  25215856.949 9 101533806.956 9     -1620.555 9        57.225 9  25215856.949 9 100243122.970 9     -1599.955 9        60.236 9  25215856.949 9 100243122.970 9     -1599.955 9        60.236 9
E13  28147437.585 9 147915782.859 9       345.863 9        56.288 9  28147437.585 9 147915782.859 9       345.863 9        56.288 9  28147437.751 9 110456591.748 9       258.275 9        56.148 9  28147437.751 9 110456591.748 9       258.275 9        56.148 9  28147437.751 9 113338068.054 9       265.012 9        56.148 9  28147437.751 9 113338068.054 9       265.012 9        56.148 9  28147437.751 9 111897329.901 9       261.643 9        59.158 9  28147437.751 9 111897329.901 9       261.643 9        59.158 9
E25  27077025.117 9 142290727.374 9      3124.007 9        56.722 9  27077025.117 9 142290727.374 9      3124.007 9        56.722 9  27077026.169 9 106256066.778 9      2332.863 9        56.582 9  27077026.169 9 106256066.778 9      2332.863 9        56.582 9  27077026.169 9 109027964.172 9      2393.720 9        56.582 9  27077026.169 9 109027964.172 9      2393.720 9        56.582 9  27077026.169 9 107642015.475 9      2363.291 9        59.593 9  27077026.169 9 107642015.475 9      2363.291 9        59.593 9
E31  24967857.446 9 131206976.455 9     -1547.351 9        57.423 9  24967857.446 9 131206976.455 9     -1547.351 9        57.423 9  24967858.443 9  97979239.576 9     -1155.490 9        57.283 9  24967858.443 9  97979239.576 9     -1155.490 9        57.283 9  24967858.443 9 100535219.739 9     -1185.633 9        57.283 9  24967858.443 9 100535219.739 9     -1185.633 9        57.283 9  24967858.443 9  99257229.657 9     -1170.561 9        60.293 9  24967858.443 9  99257229.657 9     -1170.561 9        60.293 9
E15  27826662.514 9 146230098.484 9     -1834.117 9        56.362 9  27826662.514 9 146230098.484 9     -1834.117 9        56.362 9  27826664.120 9 109197807.117 9     -1369.633 9        56.223 9  27826664.120 9 109197807.117 9     -1369.633 9        56.223 9  27826664.120 9 112046445.564 9     -1405.362 9        56.223 9  27826664.120 9 112046445.564 9     -1405.362 9        56.223 9  27826664.120 9 110622126.341 9     -1387.497 9        59.233 9  27826664.120 9 110622126.341 9     -1387.497 9        59.233 9
E03  26324732.145 9 138337401.121 9      2486.348 9        56.973 9  26324732.145 9 138337401.121 9      2486.348 9        56.973 9  26324733.031 9 103303906.911 9      1856.688 9        56.833 9  26324733.031 9 103303906.911 9      1856.688 9        56.833 9  26324733.031 9 105998791.439 9      1905.124 9        56.833 9  26324733.031 9 105998791.439 9      1905.124 9        56.833 9  26324733.031 9 104651349.175 9      1880.906 9        59.843 9  26324733.031 9 104651349.175 9      1880.906 9        59.843 9
E24  24084789.217 9 126566421.587 9      1232.980 9        57.796 9  24084789.217 9 126566421.587 9      1232.980 9        57.796 9  24084788.442 9  94513883.208 9       920.731 9        57.656 9  24084788.442 9  94513883.208 9       920.731 9        57.656 9  24084788.442 9  96979462.770 9       944.751 9        57.656 9  24084788.442 9  96979462.770 9       944.751 9        57.656 9  24084788.442 9  95746672.989 9       932.741 9        60.666 9  24084788.442 9  95746672.989 9       932.741 9        60.666 9
> 2023 01 08 10 00 17.0000000  0 19       0.000000000000
G08  25069903.402 9 131743231.573 9     -1484.468 9        54.231 9  25069904.396 8 102657067.631 8     -1156.728 8        49.731 8  25069903.402 9  98379685.915 9     -1108.531 9        56.331 9
G13  20026987.979 9 105242532.158 9       581.808 9        56.113 9  20026985.721 8  82007158.669 8       453.357 8        51.613 8  20026987.979 9  78590202.585 9       434.467 9        58.213 9
G24  24528101.131 9 128896041.422 9      3550.597 9        54.413 9  24528101.673 8 100438476.055 8      2766.699 8        49.913 8  24528101.131 9  96253537.426 9      2651.420 9        56.513 9
G07  24599483.459 9 129271158.084 9     -2988.753 9        54.357 9  24599481.291 8 100730763.657 8     -2328.899 8        49.857 8  24599483.459 9  96533657.011 9     -2231.861 9        56.457 9
G18  24767385.260 9 130153488.005 9     -1342.367 9        54.336 9  24767383.634 8 101418295.685 8     -1046.000 8        49.836 8  24767385.260 9  97192539.744 9     -1002.417 9        56.436 9
G20  23517116.570 9 123583281.695 9     -3657.240 9        54.726 9  23517114.945 8  96298654.404 8     -2849.797 8        50.226 8  23517116.570 9  92286216.850 9     -2731.056 9        56.826 9
G14  20963555.358 9 110164226.954 9       113.595 9        55.781 9  20963553.823 8  85842248.482 8        88.515 8        51.281 8  20963555.358 9  82265494.154 9        84.827 9        57.881 9
G23  24867652.963 9 130680398.342 9      3251.539 9        54.291 9  24867651.338 8 101828875.168 8      2533.666 8        49.791 8  24867652.963 9  97586011.749 9      2428.097 9        56.391 9
G05  21743657.986 9 114263693.935 9     -2428.311 9        55.470 9  21743655.819 8  89036635.749 8     -1892.190 8        50.970 8  21743657.986 9  85326784.432 9     -1813.349 9        57.570 9
G30  21857903.281 9 114864057.009 9     -2274.212 9        55.476 9  21857904.003 8  89504462.965 8     -1772.114 8        50.976 8  21857903.281 9  85775107.506 9     -1698.276 9        57.576 9
G15  21117407.099 9 110972723.308 9      2311.559 9        55.711 9  21117405.021 8  86472243.422 8      1801.215 8        51.211 8  21117407.099 9  82869241.431 9      1726.164 9        57.811 9
E05  23313650.000 9 122514057.650 9       362.585 9        57.976 9  23313650.000 9 122514057.650 9       362.585 9        57.976 9  23313650.941 9  91487774.017 9       270.762 9        57.836 9  23313650.941 9  91487774.017 9       270.762 9        57.836 9  23313650.941 9  93874411.600 9       277.825 9        57.836 9  23313650.941 9  93874411.600 9       277.825 9        57.836 9  23313650.941 9  92681092.809 9       274.293 9        60.847 9  23313650.941 9  92681092.809 9       274.293 9        60.847 9
E09  25216258.923 9 132512335.023 9     -2115.035 9        57.365 9  25216258.923 9 132512335.023 9     -2115.035 9        57.365 9  25216259.421 9  98954018.369 9     -1579.410 9        57.225 9  25216259.421 9  98954018.369 9     -1579.410 9        57.225 9  25216259.421 9 101535427.544 9     -1620.612 9        57.225 9  25216259.421 9 101535427.544 9     -1620.612 9        57.225 9  25216259.421 9 100244722.956 9     -1600.011 9        60.236 9  25216259.421 9 100244722.956 9     -1600.011 9        60.236 9
E13  28147371.927 9 147915437.825 9       344.195 9        56.288 9  28147371.927 9 147915437.825 9       344.195 9        56.288 9  28147372.093 9 110456334.093 9       257.029 9        56.148 9  28147372.093 9 110456334.093 9       257.029 9        56.148 9  28147372.093 9 113337803.678 9       263.734 9        56.148 9  28147372.093 9 113337803.678 9       263.734 9        56.148 9  28147372.093 9 111897068.885 9       260.381 9        59.158 9  28147372.093 9 111897068.885 9       260.381 9        59.158 9
E25  27076430.504 9 142287602.661 9      3125.416 9        56.722 9  27076430.504 9 142287602.661 9      3125.416 9        56.722 9  27076431.556 9 106253733.388 9      2333.915 9        56.582 9  27076431.556 9 106253733.388 9      2333.915 9        56.582 9  27076431.556 9 109025569.911 9      2394.799 9        56.582 9  27076431.556 9 109025569.911 9      2394.799 9        56.582 9  27076431.556 9 107639651.650 9      2364.357 9        59.593 9  27076431.556 9 107639651.650 9      2364.357 9        59.593 9
E31  24968152.028 9 131208524.490 9     -1548.711 9        57.422 9  24968152.028 9 131208524.490 9     -1548.711 9        57.422 9  24968153.024 9  97980395.576 9     -1156.505 9        57.283 9  24968153.024 9  97980395.576 9     -1156.505 9        57.283 9  24968153.024 9 100536405.895 9     -1186.675 9        57.283 9  24968153.024 9 100536405.895 9     -1186.675 9        57.283 9  24968153.024 9  99258400.735 9     -1171.590 9        60.293 9  24968153.024 9  99258400.735 9     -1171.590 9        60.293 9
E15  27827011.563 9 146231932.748 9     -1834.425 9        56.362 9  27827011.563 9 146231932.748 9     -1834.425 9        56.362 9  27827013.169 9 109199176.860 9     -1369.862 9        56.222 9  27827013.169 9 109199176.860 9     -1369.862 9        56.222 9  27827013.169 9 112047851.039 9     -1405.598 9        56.222 9  27827013.169 9 112047851.039 9     -1405.598 9        56.222 9  27827013.169 9 110623513.949 9     -1387.730 9        59.233 9  27827013.169 9 110623513.949 9     -1387.730 9        59.233 9
E03  26324259.028 9 138334914.874 9      2486.128 9        56.973 9  26324259.028 9 138334914.874 9      2486.128 9        56.973 9  26324259.913 9 103302050.298 9      1856.524 9        56.833 9  26324259.913 9 103302050.298 9      1856.524 9        56.833 9  26324259.913 9 105996886.392 9      1904.955 9        56.833 9  26324259.913 9 105996886.392 9      1904.955 9        56.833 9  26324259.913 9 104649468.345 9      1880.739 9        59.843 9  26324259.913 9 104649468.345 9      1880.739 9        59.843 9
E24  24084554.590 9 126565188.615 9      1232.971 9        57.796 9  24084554.590 9 126565188.615 9      1232.971 9        57.796 9  24084553.815 9  94512962.482 9       920.725 9        57.656 9  24084553.815 9  94512962.482 9       920.725 9        57.656 9  24084553.815 9  96978518.025 9       944.744 9        57.656 9  24084553.815 9  96978518.025 9       944.744 9        57.656 9  24084553.815 9  95745740.254 9       932.734 9        60.666 9  24084553.815 9  95745740.254 9       932.734 9        60.666 9
> 2023 01 08 10 00 18.0000000  0 19       0.000000000000
G08  25070186.094 9 131744717.128 9     -1486.637 9        54.231 9  25070187.088 8 102658225.207 8     -1158.418 8        49.731 8  25070186.094 9  98380795.258 9     -1110.151 9        56.331 9
G13  20026877.321 9 105241950.645 9       581.211 9        56.113 9  20026875.063 8  82006705.543 8       452.891 8        51.613 8  20026877.321 9  78589768.339 9       434.021 9        58.213 9
G24  24527425.394 9 128892490.400 9      3551.423 9        54.413 9  24527425.936 8 100435709.024 8      2767.342 8        49.913 8  24527425.394 9  96250885.688 9      2652.036 9        56.513 9
G07  24600052.308 9 129274147.408 9     -2989.883 9        54.357 9  24600050.141 8 100733093.001 8     -2329.779 8        49.857 8  24600052.308 9  96535889.298 9     -2232.705 9        56.457 9
G18  24767640.770 9 130154830.719 9     -1343.076 9        54.336 9  24767639.144 8 101419341.955 8     -1046.552 8        49.836 8  24767640.770 9  97193542.420 9     -1002.946 9        56.436 9
G20  23517812.392 9 123586938.263 9     -3655.899 9        54.726 9  23517810.766 8  96301503.678 8     -2848.752 8        50.226 8  23517812.392 9  92288947.404 9     -2730.054 9        56.826 9
G14  20963533.822 9 110164113.784 9       112.752 9        55.781 9  20963532.287 8  85842160.298 8        87.859 8        51.281 8  20963533.822 9  82265409.644 9        84.198 9        57.881 9
G23  24867034.329 9 130677147.400 9      3250.331 9        54.291 9  24867032.704 8 101826341.966 8      2532.725 8        49.791 8  24867034.329 9  97583584.097 9      2427.195 9        56.391 9
G05  21744120.023 9 114266121.954 9     -2427.735 9        55.470 9  21744117.855 8  89038527.712 8     -1891.741 8        50.970 8  21744120.023 9  85328597.563 9     -1812.919 9        57.570 9
G30  21858336.152 9 114866331.764 9     -2275.292 9        55.475 9  21858336.875 8  89506235.502 8     -1772.955 8        50.975 8  21858336.152 9  85776806.188 9     -1699.082 9        57.575 9
G15  21116967.274 9 110970412.012 9      2311.017 9        55.711 9  21116965.196 8  86470442.412 8      1800.792 8        51.211 8  21116967.274 9  82867515.463 9      1725.759 9        57.811 9
E05  23313581.032 9 122513695.221 9       362.268 9        57.976 9  23313581.032 9 122513695.221 9       362.268 9        57.976 9  23313581.973 9  91487503.372 9       270.525 9        57.837 9  23313581.973 9  91487503.372 9       270.525 9        57.837 9  23313581.973 9  93874133.895 9       277.582 9        57.837 9  23313581.973 9  93874133.895 9       277.582 9        57.837 9  23313581.973 9  92680818.633 9       274.053 9        60.847 9  23313581.973 9  92680818.633 9       274.053 9        60.847 9
E09  25216661.402 9 132514450.065 9     -2115.042 9        57.365 9  25216661.402 9 132514450.065 9     -2115.042 9        57.365 9  25216661.900 9  98955597.784 9     -1579.414 9        57.225 9  25216661.900 9  98955597.784 9     -1579.414 9        57.225 9  25216661.900 9 101537048.161 9     -1620.616 9        57.225 9  25216661.900 9 101537048.161 9     -1620.616 9        57.225 9  25216661.900 9 100246322.972 9     -1600.015 9        60.235 9  25216661.900 9 100246322.972 9     -1600.015 9        60.235 9
E13  28147306.593 9 147915094.491 9       342.467 9        56.288 9  28147306.593 9 147915094.491 9       342.467 9        56.288 9  28147306.759 9 110456077.707 9       255.738 9        56.148 9  28147306.759 9 110456077.707 9       255.738 9        56.148 9  28147306.759 9 113337540.603 9       262.410 9        56.148 9  28147306.759 9 113337540.603 9       262.410 9        56.148 9  28147306.759 9 111896809.155 9       259.074 9        59.159 9  28147306.759 9 111896809.155 9       259.074 9        59.159 9
E25  27075835.623 9 142284476.541 9      3126.815 9        56.722 9  27075835.623 9 142284476.541 9      3126.815 9        56.722 9  27075836.675 9 106251398.948 9      2334.959 9        56.583 9  27075836.675 9 106251398.948 9      2334.959 9        56.583 9  27075836.675 9 109023174.573 9      2395.871 9        56.583 9  27075836.675 9 109023174.573 9      2395.871 9        56.583 9  27075836.675 9 107637286.760 9      2365.415 9        59.593 9  27075836.675 9 107637286.760 9      2365.415 9        59.593 9
E31  24968446.864 9 131210073.864 9     -1550.030 9        57.422 9  24968446.864 9 131210073.864 9     -1550.030 9        57.422 9  24968447.860 9  97981552.576 9     -1157.490 9        57.282 9  24968447.860 9  97981552.576 9     -1157.490 9        57.282 9  24968447.860 9 100537593.078 9     -1187.685 9        57.282 9  24968447.860 9 100537593.078 9     -1187.685 9        57.282 9  24968447.860 9  99259572.827 9     -1172.588 9        60.293 9  24968447.860 9  99259572.827 9     -1172.588 9        60.293 9
E15  27827360.680 9 146233767.372 9     -1834.838 9        56.362 9  27827360.680 9 146233767.372 9     -1834.838 9        56.362 9  27827362.286 9 109200546.871 9     -1370.172 9        56.222 9  27827362.286 9 109200546.871 9     -1370.172 9        56.222 9  27827362.286 9 112049256.790 9     -1405.915 9        56.222 9  27827362.286 9 112049256.790 9     -1405.915 9        56.222 9  27827362.286 9 110624901.831 9     -1388.043 9        59.233 9  27827362.286 9 110624901.831 9     -1388.043 9        59.233 9
E03  26323785.962 9 138332428.895 9      2485.809 9        56.973 9  26323785.962 9 138332428.895 9      2485.809 9        56.973 9  26323786.847 9 103300193.885 9      1856.286 9        56.833 9  26323786.847 9 103300193.885 9      1856.286 9        56.833 9  26323786.847 9 105994981.552 9      1904.711 9        56.833 9  26323786.847 9 105994981.552 9      1904.711 9        56.833 9  26323786.847 9 104647587.718 9      1880.498 9        59.843 9  26323786.847 9 104647587.718 9      1880.498 9        59.843 9
E24  24084319.962 9 126563955.639 9      1232.985 9        57.796 9  24084319.962 9 126563955.639 9      1232.985 9        57.796 9  24084319.187 9  94512041.753 9       920.735 9        57.656 9  24084319.187 9  94512041.753 9       920.735 9        57.656 9  24084319.187 9  96977573.277 9       944.755 9        57.656 9  24084319.187 9  96977573.277 9       944.755 9        57.656 9  24084319.187 9  95744807.515 9       932.745 9        60.666 9  24084319.187 9  95744807.515 9       932.745 9        60.666 9
> 2023 01 08 10 00 19.0000000  0 19       0.000000000000
G08  25070469.198 9 131746204.849 9     -1488.802 9        54.231 9  25070470.192 8 102659384.470 8     -1160.106 8        49.731 8  25070469.198 9  98381906.219 9     -1111.768 9        56.331 9
G13  20026766.777 9 105241369.732 9       580.607 9        56.113 9  20026764.519 8  82006252.884 8       452.421 8        51.613 8  20026766.777 9  78589334.540 9       433.570 9        58.213 9
G24  24526749.508 9 128888938.594 9      3552.164 9        54.413 9  24526750.050 8 100432941.383 8      2767.920 8        49.913 8  24526749.508 9  96248233.366 9      2652.590 9        56.513 9
G07  24600621.365 9 129277137.821 9     -2990.934 9        54.357 9  24600619.197 8 100735423.193 8     -2330.598 8        49.857 8  24600621.365 9  96538122.399 9     -2233.489 9        56.457 9
G18  24767896.425 9 130156174.195 9     -1343.890 9        54.336 9  24767894.799 8 101420388.820 8     -1047.187 8        49.836 8  24767896.425 9  97194545.665 9     -1003.554 9        56.436 9
G20  23518507.956 9 123590593.476 9     -3654.529 9        54.725 9  23518506.330 8  96304351.896 8     -2847.685 8        50.225 8  23518507.956 9  92291676.946 9     -2729.031 9        56.825 9
G14  20963512.441 9 110164001.422 9       111.977 9        55.781 9  20963510.905 8  85842072.743 8        87.255 8        51.281 8  20963512.441 9  82265325.737 9        83.619 9        57.881 9
G23  24866415.934 9 130673897.710 9      3249.033 9        54.291 9  24866414.309 8 101823809.741 8      2531.714 8        49.791 8  24866415.934 9  97581157.381 9      2426.226 9        56.391 9
G05  21744581.951 9 114268549.401 9     -2427.167 9        55.470 9  21744579.783 8  89040419.229 8     -1891.299 8        50.970 8  21744581.951 9  85330410.267 9     -1812.495 9        57.570 9
G30  21858769.223 9 114868607.567 9     -2276.308 9        55.475 9  21858769.946 8  89508008.855 8     -1773.747 8        50.975 8  21858769.223 9  85778505.651 9     -1699.841 9        57.575 9
G15  21116527.558 9 110968101.289 9      2310.412 9        55.711 9  21116525.481 8  86468641.849 8      1800.321 8        51.211 8  21116527.558 9  82865789.924 9      1725.307 9        57.811 9
E05  23313512.124 9 122513333.109 9       361.950 9        57.976 9  23313512.124 9 122513333.109 9       361.950 9        57.976 9  23313513.065 9  91487232.964 9       270.287 9        57.837 9  23313513.065 9  91487232.964 9       270.287 9        57.837 9  23313513.065 9  93873856.432 9       277.338 9        57.837 9  23313513.065 9  93873856.432 9       277.338 9        57.837 9  23313513.065 9  92680544.698 9       273.813 9        60.847 9  23313513.065 9  92680544.698 9       273.813 9        60.847 9
E09  25217063.873 9 132516565.067 9     -2114.956 9        57.365 9  25217063.873 9 132516565.067 9     -2114.956 9        57.365 9  25217064.372 9  98957177.168 9     -1579.351 9        57.225 9  25217064.372 9  98957177.168 9     -1579.351 9        57.225 9  25217064.372 9 101538668.747 9     -1620.551 9        57.225 9  25217064.372 9 101538668.747 9     -1620.551 9        57.225 9  25217064.372 9 100247922.957 9     -1599.951 9        60.235 9  25217064.372 9 100247922.957 9     -1599.951 9        60.235 9
E13  28147241.594 9 147914752.920 9       340.668 9        56.288 9  28147241.594 9 147914752.920 9       340.668 9        56.288 9  28147241.760 9 110455822.637 9       254.395 9        56.148 9  28147241.760 9 110455822.637 9       254.395 9        56.148 9  28147241.760 9 113337278.880 9       261.031 9        56.148 9  28147241.760 9 113337278.880 9       261.031 9        56.148 9  28147241.760 9 111896550.759 9       257.713 9        59.159 9  28147241.760 9 111896550.759 9       257.713 9        59.159 9
E25  27075240.475 9 142281349.016 9      3128.229 9        56.723 9  27075240.475 9 142281349.016 9      3128.229 9        56.723 9  27075241.527 9 106249063.458 9      2336.015 9        56.583 9  27075241.527 9 106249063.458 9      2336.015 9        56.583 9  27075241.527 9 109020778.157 9      2396.954 9        56.583 9  27075241.527 9 109020778.157 9      2396.954 9        56.583 9  27075241.527 9 107634920.808 9      2366.485 9        59.593 9  27075241.527 9 107634920.808 9      2366.485 9        59.593 9
E31  24968741.946 9 131211624.529 9     -1551.296 9        57.422 9  24968741.946 9 131211624.529 9     -1551.296 9        57.422 9  24968742.942 9  97982710.540 9     -1158.435 9        57.282 9  24968742.942 9  97982710.540 9     -1158.435 9        57.282 9  24968742.942 9 100538781.250 9     -1188.655 9        57.282 9  24968742.942 9 100538781.250 9     -1188.655 9        57.282 9  24968742.942 9  99260745.895 9     -1173.545 9        60.293 9  24968742.942 9  99260745.895 9     -1173.545 9        60.293 9
E15  27827709.887 9 146235602.464 9     -1835.359 9        56.362 9  27827709.887 9 146235602.464 9     -1835.359 9        56.362 9  27827711.493 9 109201917.232 9     -1370.560 9        56.222 9  27827711.493 9 109201917.232 9     -1370.560 9        56.222 9  27827711.493 9 112050662.899 9     -1406.314 9        56.222 9  27827711.493 9 112050662.899 9     -1406.314 9        56.222 9  27827711.493 9 110626290.066 9     -1388.437 9        59.233 9  27827711.493 9 110626290.066 9     -1388.437 9        59.233 9
E03  26323312.965 9 138329943.281 9      2485.400 9        56.973 9  26323312.965 9 138329943.281 9      2485.400 9        56.973 9  26323313.851 9 103298337.745 9      1855.980 9        56.833 9  26323313.851 9 103298337.745 9      1855.980 9        56.833 9  26323313.851 9 105993076.990 9      1904.397 9        56.833 9  26323313.851 9 105993076.990 9      1904.397 9        56.833 9  26323313.851 9 104645707.367 9      1880.189 9        59.844 9  26323313.851 9 104645707.367 9      1880.189 9        59.844 9
E24  24084085.327 9 126562722.621 9      1233.052 9        57.796 9  24084085.327 9 126562722.621 9      1233.052 9        57.796 9  24084084.552 9  94511120.993 9       920.786 9        57.656 9  24084084.552 9  94511120.993 9       920.786 9        57.656 9  24084084.552 9  96976628.497 9       944.806 9        57.656 9  24084084.552 9  96976628.497 9       944.806 9        57.656 9  24084084.552 9  95743874.745 9       932.796 9        60.666 9  24084084.552 9  95743874.745 9       932.796 9        60.666 9
> 2023 01 08 10 00 20.0000000  0 19       0.000000000000
G08  25070752.710 9 131747694.717 9     -1490.935 9        54.231 9  25070753.704 8 102660545.406 8     -1161.767 8        49.731 8  25070752.710 9  98383018.782 9     -1113.360 9        56.331 9
G13  20026656.350 9 105240789.438 9       579.972 9        56.113 9  20026654.092 8  82005800.706 8       451.926 8        51.613 8  20026656.350 9  78588901.204 9       433.096 9        58.213 9
G24  24526073.492 9 128885386.103 9      3552.804 9        54.414 9  24526074.033 8 100430173.208 8      2768.419 8        49.914 8  24526073.492 9  96245580.531 9      2653.068 9        56.514 9
G07  24601190.612 9 129280129.235 9     -2991.894 9        54.357 9  24601188.444 8 100737754.164 8     -2331.346 8        49.857 8  24601190.612 9  96540356.247 9     -2234.207 9        56.457 9
G18  24768152.245 9 130157518.536 9     -1344.801 9        54.336 9  24768150.619 8 101421436.359 8     -1047.897 8        49.836 8  24768152.245 9  97195549.556 9     -1004.234 9        56.436 9
G20  23519203.261 9 123594247.328 9     -3653.175 9        54.725 9  23519201.635 8  96307199.053 8     -2846.630 8        50.225 8  23519203.261 9  92294405.472 9     -2728.021 9        56.825 9
G14  20963491.202 9 110163889.812 9       111.241 9        55.781 9  20963489.667 8  85841985.774 8        86.681 8        51.281 8  20963491.202 9  82265242.392 9        83.069 9        57.881 9
G23  24865797.793 9 130670649.354 9      3247.668 9        54.292 9  24865796.167 8 101821278.554 8      2530.651 8        49.792 8  24865797.793 9  97578731.661 9      2425.207 9        56.392 9
G05  21745043.776 9 114270976.306 9     -2426.650 9        55.470 9  21745041.608 8  89042310.324 8     -1890.896 8        50.970 8  21745043.776 9  85332222.566 9     -1812.109 9        57.570 9
G30  21859202.481 9 114870884.354 9     -2277.271 9        55.475 9  21859203.204 8  89509782.975 8     -1774.497 8        50.975 8  21859202.481 9  85780205.849 9     -1700.559 9        57.575 9
G15  21116087.965 9 110965791.211 9      2309.730 9        55.711 9  21116085.887 8  86466841.788 8      1799.789 8        51.211 8  21116087.965 9  82864064.865 9      1724.798 9        57.811 9
E05  23313443.279 9 122512971.328 9       361.602 9        57.976 9  23313443.279 9 122512971.328 9       361.602 9        57.976 9  23313444.221 9  91486962.803 9       270.028 9        57.837 9  23313444.221 9  91486962.803 9       270.028 9        57.837 9  23313444.221 9  93873579.224 9       277.072 9        57.837 9  23313444.221 9  93873579.224 9       277.072 9        57.837 9  23313444.221 9  92680271.013 9       273.550 9        60.847 9  23313444.221 9  92680271.013 9       273.550 9        60.847 9
E09  25217466.322 9 132518679.951 9     -2114.812 9        57.365 9  25217466.322 9 132518679.951 9     -2114.812 9        57.365 9  25217466.821 9  98958756.464 9     -1579.243 9        57.225 9  25217466.821 9  98958756.464 9     -1579.243 9        57.225 9  25217466.821 9 101540289.242 9     -1620.441 9        57.225 9  25217466.821 9 101540289.242 9     -1620.441 9        57.225 9  25217466.821 9 100249522.853 9     -1599.842 9        60.235 9  25217466.821 9 100249522.853 9     -1599.842 9        60.235 9
E13  28147176.942 9 147914413.169 9       338.828 9        56.288 9  28147176.942 9 147914413.169 9       338.828 9        56.288 9  28147177.108 9 110455568.927 9       253.021 9        56.148 9  28147177.108 9 110455568.927 9       253.021 9        56.148 9  28147177.108 9 113337018.552 9       259.621 9        56.148 9  28147177.108 9 113337018.552 9       259.621 9        56.148 9  28147177.108 9 111896293.739 9       256.321 9        59.159 9  28147177.108 9 111896293.739 9       256.321 9        59.159 9
E25  27074645.061 9 142278220.092 9      3129.613 9        56.723 9  27074645.061 9 142278220.092 9      3129.613 9        56.723 9  27074646.113 9 106246726.924 9      2337.049 9        56.583 9  27074646.113 9 106246726.924 9      2337.049 9        56.583 9  27074646.113 9 109018380.670 9      2398.015 9        56.583 9  27074646.113 9 109018380.670 9      2398.015 9        56.583 9  27074646.113 9 107632553.797 9      2367.532 9        59.593 9  27074646.113 9 107632553.797 9      2367.532 9        59.593 9
E31  24969037.263 9 131213176.432 9     -1552.514 9        57.422 9  24969037.263 9 131213176.432 9     -1552.514 9        57.422 9  24969038.259 9  97983869.429 9     -1159.345 9        57.282 9  24969038.259 9  97983869.429 9     -1159.345 9        57.282 9  24969038.259 9 100539970.370 9     -1189.589 9        57.282 9  24969038.259 9 100539970.370 9     -1189.589 9        57.282 9  24969038.259 9  99261919.900 9     -1174.467 9        60.293 9  24969038.259 9  99261919.900 9     -1174.467 9        60.293 9
E15  27828059.202 9 146237438.130 9     -1835.979 9        56.362 9  27828059.202 9 146237438.130 9     -1835.979 9        56.362 9  27828060.808 9 109203288.022 9     -1371.023 9        56.222 9  27828060.808 9 109203288.022 9     -1371.023 9        56.222 9  27828060.808 9 112052069.448 9     -1406.789 9        56.222 9  27828060.808 9 112052069.448 9     -1406.789 9        56.222 9  27828060.808 9 110627678.735 9     -1388.906 9        59.232 9  27828060.808 9 110627678.735 9     -1388.906 9        59.232 9
E03  26322840.055 9 138327458.123 9      2484.899 9        56.973 9  26322840.055 9 138327458.123 9      2484.899 9        56.973 9  26322840.941 9 103296481.945 9      1855.606 9        56.833 9  26322840.941 9 103296481.945 9      1855.606 9        56.833 9  26322840.941 9 105991172.779 9      1904.014 9        56.833 9  26322840.941 9 105991172.779 9      1904.014 9        56.833 9  26322840.941 9 104643827.362 9      1879.810 9        59.844 9  26322840.941 9 104643827.362 9      1879.810 9        59.844 9
E24  24083850.677 9 126561489.526 9      1233.133 9        57.796 9  24083850.677 9 126561489.526 9      1233.133 9        57.796 9  24083849.902 9  94510200.176 9       920.846 9        57.656 9  24083849.902 9  94510200.176 9       920.846 9        57.656 9  24083849.902 9  96975683.659 9       944.868 9        57.656 9  24083849.902 9  96975683.659 9       944.868 9        57.656 9  24083849.902 9  95742941.917 9       932.857 9        60.666 9  24083849.902 9  95742941.917 9       932.857 9        60.666 9
> 2023 01 08 10 00 21.0000000  0 19       0.000000000000
G08  25071036.626 9 131749186.705 9     -1493.036 9        54.231 9  25071037.620 8 102661707.994 8     -1163.405 8        49.731 8  25071036.626 9  98384132.929 9     -1114.930 9        56.331 9
G13  20026546.045 9 105240209.779 9       579.335 9        56.113 9  20026543.787 8  82005349.024 8       451.430 8        51.613 8  20026546.045 9  78588468.342 9       432.620 9        58.213 9
G24  24525397.363 9 128881833.023 9      3553.338 9        54.414 9  24525397.905 8 100427404.574 8      2768.835 8        49.914 8  24525397.363 9  96242927.257 9      2653.467 9        56.514 9
G07  24601760.032 9 129283121.558 9     -2992.750 9        54.357 9  24601757.864 8 100740085.845 8     -2332.013 8        49.857 8  24601760.032 9  96542590.774 9     -2234.845 9        56.457 9
G18  24768408.248 9 130158863.846 9     -1345.823 9        54.336 9  24768406.623 8 101422484.651 8     -1048.693 8        49.836 8  24768408.248 9  97196554.170 9     -1004.998 9        56.436 9
G20  23519898.307 9 123597899.820 9     -3651.815 9        54.725 9  23519896.681 8  96310045.151 8     -2845.570 8        50.225 8  23519898.307 9  92297132.982 9     -2727.005 9        56.825 9
G14  20963470.096 9 110163778.898 9       110.583 9        55.781 9  20963468.561 8  85841899.348 8        86.168 8        51.281 8  20963470.096 9  82265159.567 9        82.578 9        57.881 9
G23  24865179.919 9 130667402.406 9      3246.221 9        54.292 9  24865178.293 8 101818748.465 8      2529.523 8        49.792 8  24865179.919 9  97576306.991 9      2424.126 9        56.392 9
G05  21745505.504 9 114273402.706 9     -2426.159 9        55.470 9  21745503.336 8  89044201.025 8     -1890.514 8        50.970 8  21745505.504 9  85334034.488 9     -1811.742 9        57.570 9
G30  21859635.915 9 114873162.063 9     -2278.148 9        55.475 9  21859636.637 8  89511557.813 8     -1775.181 8        50.975 8  21859635.915 9  85781906.735 9     -1701.215 9        57.575 9
G15  21115648.507 9 110963481.847 9      2308.984 9        55.711 9  21115646.430 8  86465042.284 8      1799.208 8        51.211 8  21115648.507 9  82862340.340 9      1724.241 9        57.811 9
E05  23313374.501 9 122512609.894 9       361.257 9        57.976 9  23313374.501 9 122512609.894 9       361.257 9        57.976 9  23313375.442 9  91486692.900 9       269.769 9        57.837 9  23313375.442 9  91486692.900 9       269.769 9        57.837 9  23313375.442 9  93873302.280 9       276.807 9        57.837 9  23313375.442 9  93873302.280 9       276.807 9        57.837 9  23313375.442 9  92679997.590 9       273.288 9        60.847 9  23313375.442 9  92679997.590 9       273.288 9        60.847 9
E09  25217868.734 9 132520794.640 9     -2114.571 9        57.365 9  25217868.734 9 132520794.640 9     -2114.571 9        57.365 9  25217869.233 9  98960335.615 9     -1579.063 9        57.225 9  25217869.233 9  98960335.615 9     -1579.063 9        57.225 9  25217869.233 9 101541909.588 9     -1620.256 9        57.225 9  25217869.233 9 101541909.588 9     -1620.256 9        57.225 9  25217869.233 9 100251122.602 9     -1599.659 9        60.235 9  25217869.233 9 100251122.602 9     -1599.659 9        60.235 9
E13  28147112.645 9 147914075.289 9       336.932 9        56.288 9  28147112.645 9 147914075.289 9       336.932 9        56.288 9  28147112.811 9 110455316.614 9       251.605 9        56.148 9  28147112.811 9 110455316.614 9       251.605 9        56.148 9  28147112.811 9 113336759.657 9       258.168 9        56.148 9  28147112.811 9 113336759.657 9       258.168 9        56.148 9  28147112.811 9 111896038.136 9       254.887 9        59.159 9  28147112.811 9 111896038.136 9       254.887 9        59.159 9
E25  27074049.383 9 142275089.785 9      3130.989 9        56.723 9  27074049.383 9 142275089.785 9      3130.989 9        56.723 9  27074050.435 9 106244389.358 9      2338.076 9        56.583 9  27074050.435 9 106244389.358 9      2338.076 9        56.583 9  27074050.435 9 109015982.123 9      2399.070 9        56.583 9  27074050.435 9 109015982.123 9      2399.070 9        56.583 9  27074050.435 9 107630185.740 9      2368.573 9        59.593 9  27074050.435 9 107630185.740 9      2368.573 9        59.593 9
E31  24969332.805 9 131214729.517 9     -1553.656 9        57.422 9  24969332.805 9 131214729.517 9     -1553.656 9        57.422 9  24969333.802 9  97985029.200 9     -1160.198 9        57.282 9  24969333.802 9  97985029.200 9     -1160.198 9        57.282 9  24969333.802 9 100541160.396 9     -1190.464 9        57.282 9  24969333.802 9 100541160.396 9     -1190.464 9        57.282 9  24969333.802 9  99263094.798 9     -1175.331 9        60.292 9  24969333.802 9  99263094.798 9     -1175.331 9        60.292 9
E15  27828408.647 9 146239274.474 9     -1836.714 9        56.362 9  27828408.647 9 146239274.474 9     -1836.714 9        56.362 9  27828410.253 9 109204659.318 9     -1371.572 9        56.222 9  27828410.253 9 109204659.318 9     -1371.572 9        56.222 9  27828410.253 9 112053476.517 9     -1407.352 9        56.222 9  27828410.253 9 112053476.517 9     -1407.352 9        56.222 9  27828410.253 9 110629067.918 9     -1389.462 9        59.232 9  27828410.253 9 110629067.918 9     -1389.462 9        59.232 9
E03  26322367.250 9 138324973.515 9      2484.305 9        56.973 9  26322367.250 9 138324973.515 9      2484.305 9        56.973 9  26322368.136 9 103294626.556 9      1855.163 9        56.834 9  26322368.136 9 103294626.556 9      1855.163 9        56.834 9  26322368.136 9 105989268.988 9      1903.558 9        56.834 9  26322368.136 9 105989268.988 9      1903.558 9        56.834 9  26322368.136 9 104641947.772 9      1879.360 9        59.844 9  26322368.136 9 104641947.772 9      1879.360 9        59.844 9
E24  24083616.006 9 126560256.323 9      1233.266 9        57.796 9  24083616.006 9 126560256.323 9      1233.266 9        57.796 9  24083615.231 9  94509279.277 9       920.946 9        57.656 9  24083615.231 9  94509279.277 9       920.946 9        57.656 9  24083615.231 9  96974738.737 9       944.970 9        57.656 9  24083615.231 9  96974738.737 9       944.970 9        57.656 9  24083615.231 9  95742009.007 9       932.958 9        60.666 9  24083615.231 9  95742009.007 9       932.958 9        60.666 9
> 2023 01 08 10 00 22.0000000  0 19       0.000000000000
G08  25071320.939 9 131750680.780 9     -1495.102 9        54.231 9  25071321.933 8 102662872.208 8     -1165.015 8        49.731 8  25071320.939 9  98385248.634 9     -1116.473 9        56.331 9
G13  20026435.864 9 105239630.773 9       578.674 9        56.113 9  20026433.606 8  82004897.851 8       450.915 8        51.613 8  20026435.864 9  78588035.967 9       432.126 9        58.213 9
G24  24524721.142 9 128878279.456 9      3553.777 9        54.414 9  24524721.683 8 100424635.561 8      2769.177 8        49.914 8  24524721.142 9  96240273.619 9      2653.794 9        56.514 9
G07  24602329.607 9 129286114.694 9     -2993.518 9        54.356 9  24602327.439 8 100742418.159 8     -2332.611 8        49.856 8  24602329.607 9  96544825.908 9     -2235.419 9        56.456 9
G18  24768664.455 9 130160210.222 9     -1346.934 9        54.336 9  24768662.830 8 101423533.776 8     -1049.559 8        49.836 8  24768664.455 9  97197559.581 9     -1005.827 9        56.436 9
G20  23520593.096 9 123601550.960 9     -3650.473 9        54.725 9  23520591.470 8  96312890.195 8     -2844.524 8        50.225 8  23520593.096 9  92299859.483 9     -2726.003 9        56.825 9
G14  20963449.112 9 110163668.625 9       109.966 9        55.781 9  20963447.576 8  85841813.421 8        85.688 8        51.281 8  20963449.112 9  82265077.220 9        82.117 9        57.881 9
G23  24864562.326 9 130664156.935 9      3244.716 9        54.292 9  24864560.701 8 101816219.526 8      2528.350 8        49.792 8  24864562.326 9  97573883.426 9      2423.002 9        56.392 9
G05  21745967.144 9 114275828.639 9     -2425.715 9        55.469 9  21745964.976 8  89046091.362 8     -1890.168 8        50.969 8  21745967.144 9  85335846.061 9     -1811.411 9        57.569 9
G30  21860069.511 9 114875440.624 9     -2278.971 9        55.475 9  21860070.233 8  89513333.315 8     -1775.821 8        50.975 8  21860069.511 9  85783608.258 9     -1701.829 9        57.575 9
G15  21115209.199 9 110961173.266 9      2308.170 9        55.712 9  21115207.122 8  86463243.390 8      1798.574 8        51.212 8  21115209.199 9  82860616.400 9      1723.634 9        57.812 9
E05  23313305.791 9 122512248.820 9       360.888 9        57.976 9  23313305.791 9 122512248.820 9       360.888 9        57.976 9  23313306.732 9  91486423.267 9       269.494 9        57.837 9  23313306.732 9  91486423.267 9       269.494 9        57.837 9  23313306.732 9  93873025.613 9       276.524 9        57.837 9  23313306.732 9  93873025.613 9       276.524 9        57.837 9  23313306.732 9  92679724.440 9       273.009 9        60.847 9  23313306.732 9  92679724.440 9       273.009 9        60.847 9
E09  25218271.095 9 132522909.063 9     -2114.274 9        57.364 9  25218271.095 9 132522909.063 9     -2114.274 9        57.364 9  25218271.594 9  98961914.567 9     -1578.841 9        57.225 9  25218271.594 9  98961914.567 9     -1578.841 9        57.225 9  25218271.594 9 101543529.730 9     -1620.028 9        57.225 9  25218271.594 9 101543529.730 9     -1620.028 9        57.225 9  25218271.594 9 100252722.149 9     -1599.434 9        60.235 9  25218271.594 9 100252722.149 9     -1599.434 9        60.235 9
E13  28147048.713 9 147913739.324 9       335.001 9        56.288 9  28147048.713 9 147913739.324 9       335.001 9        56.288 9  28147048.879 9 110455065.732 9       250.163 9        56.148 9  28147048.879 9 110455065.732 9       250.163 9        56.148 9  28147048.879 9 113336502.229 9       256.689 9        56.148 9  28147048.879 9 113336502.229 9       256.689 9        56.148 9  28147048.879 9 111895783.980 9       253.426 9        59.159 9  28147048.879 9 111895783.980 9       253.426 9        59.159 9
E25  27073453.446 9 142271958.116 9      3132.336 9        56.723 9  27073453.446 9 142271958.116 9      3132.336 9        56.723 9  27073454.498 9 106242050.774 9      2339.082 9        56.583 9  27073454.498 9 106242050.774 9      2339.082 9        56.583 9  27073454.498 9 109013582.533 9      2400.101 9        56.583 9  27073454.498 9 109013582.533 9      2400.101 9        56.583 9  27073454.498 9 107627816.653 9      2369.592 9        59.594 9  27073454.498 9 107627816.653 9      2369.592 9        59.594 9
E31  24969628.560 9 131216283.722 9     -1554.749 9        57.422 9  24969628.560 9 131216283.722 9     -1554.749 9        57.422 9  24969629.557 9  97986189.808 9     -1161.014 9        57.282 9  24969629.557 9  97986189.808 9     -1161.014 9        57.282 9  24969629.557 9 100542351.281 9     -1191.301 9        57.282 9  24969629.557 9 100542351.281 9     -1191.301 9        57.282 9  24969629.557 9  99264270.544 9     -1176.157 9        60.292 9  24969629.557 9  99264270.544 9     -1176.157 9        60.292 9
E15  27828758.240 9 146241111.599 9     -1837.540 9        56.362 9  27828758.240 9 146241111.599 9     -1837.540 9        56.362 9  27828759.846 9 109206031.197 9     -1372.189 9        56.222 9  27828759.846 9 109206031.197 9     -1372.189 9        56.222 9  27828759.846 9 112054884.185 9     -1407.985 9        56.222 9  27828759.846 9 112054884.185 9     -1407.985 9        56.222 9  27828759.846 9 110630457.691 9     -1390.087 9        59.232 9  27828759.846 9 110630457.691 9     -1390.087 9        59.232 9
E03  26321894.566 9 138322489.543 9      2483.629 9        56.974 9  26321894.566 9 138322489.543 9      2483.629 9        56.974 9  26321895.452 9 103292771.642 9      1854.658 9        56.834 9  26321895.452 9 103292771.642 9      1854.658 9        56.834 9  26321895.452 9 105987365.685 9      1903.040 9        56.834 9  26321895.452 9 105987365.685 9      1903.040 9        56.834 9  26321895.452 9 104640068.663 9      1878.849 9        59.844 9  26321895.452 9 104640068.663 9      1878.849 9        59.844 9
E24  24083381.309 9 126559022.982 9      1233.414 9        57.796 9  24083381.309 9 126559022.982 9      1233.414 9        57.796 9  24083380.534 9  94508358.276 9       921.056 9        57.656 9  24083380.534 9  94508358.276 9       921.056 9        57.656 9  24083380.534 9  96973793.709 9       945.084 9        57.656 9  24083380.534 9  96973793.709 9       945.084 9        57.656 9  24083380.534 9  95741075.992 9       933.070 9        60.667 9  24083380.534 9  95741075.992 9       933.070 9        60.667 9
> 2023 01 08 10 00 23.0000000  0 19       0.000000000000
G08  25071605.641 9 131752176.898 9     -1497.126 9        54.231 9  25071606.635 8 102664038.015 8     -1166.592 8        49.731 8  25071605.641 9  98386365.865 9     -1117.984 9        56.331 9
G13  20026325.810 9 105239052.436 9       577.997 9        56.113 9  20026323.552 8  82004447.198 8       450.387 8        51.613 8  20026325.810 9  78587604.092 9       431.621 9        58.213 9
G24  24524044.847 9 128874725.505 9      3554.104 9        54.414 9  24524045.389 8 100421866.249 8      2769.432 8        49.914 8  24524044.847 9  96237619.695 9      2654.039 9        56.514 9
G07  24602899.318 9 129289108.547 9     -2994.179 9        54.356 9  24602897.151 8 100744751.031 8     -2333.127 8        49.856 8  24602899.318 9  96547061.577 9     -2235.913 9        56.456 9
G18  24768920.883 9 130161557.761 9     -1348.150 9        54.335 9  24768919.258 8 101424583.806 8     -1050.506 8        49.835 8  24768920.883 9  97198565.860 9     -1006.735 9        56.435 9
G20  23521287.631 9 123605200.766 9     -3649.144 9        54.724 9  23521286.005 8  96315734.199 8     -2843.489 8        50.224 8  23521287.631 9  92302584.987 9     -2725.010 9        56.824 9
G14  20963428.239 9 110163558.939 9       109.411 9        55.781 9  20963426.704 8  85841727.951 8        85.255 8        51.281 8  20963428.239 9  82264995.311 9        81.703 9        57.881 9
G23  24863945.027 9 130660913.004 9      3243.140 9        54.292 9  24863943.401 8 101813691.788 8      2527.122 8        49.792 8  24863945.027 9  97571461.009 9      2421.826 9        56.392 9
G05  21746428.703 9 114278254.151 9     -2425.317 9        55.469 9  21746426.536 8  89047981.372 8     -1889.858 8        50.969 8  21746428.703 9  85337657.321 9     -1811.114 9        57.569 9
G30  21860503.256 9 114877719.970 9     -2279.716 9        55.474 9  21860503.978 8  89515109.429 8     -1776.402 8        50.974 8  21860503.256 9  85785310.367 9     -1702.385 9        57.574 9
G15  21114770.052 9 110958865.533 9      2307.286 9        55.712 9  21114767.975 8  86461445.156 8      1797.885 8        51.212 8  21114770.052 9  82858893.093 9      1722.973 9        57.812 9
E05  23313237.152 9 122511888.121 9       360.506 9        57.977 9  23313237.152 9 122511888.121 9       360.506 9        57.977 9  23313238.093 9  91486153.914 9       269.209 9        57.837 9  23313238.093 9  91486153.914 9       269.209 9        57.837 9  23313238.093 9  93872749.234 9       276.232 9        57.837 9  23313238.093 9  93872749.234 9       276.232 9        57.837 9  23313238.093 9  92679451.574 9       272.720 9        60.847 9  23313238.093 9  92679451.574 9       272.720 9        60.847 9
E09  25218673.393 9 132525023.149 9     -2113.897 9        57.364 9  25218673.393 9 132525023.149 9     -2113.897 9        57.364 9  25218673.891 9  98963493.268 9     -1578.560 9        57.224 9  25218673.891 9  98963493.268 9     -1578.560 9        57.224 9  25218673.891 9 101545149.614 9     -1619.739 9        57.224 9  25218673.891 9 101545149.614 9     -1619.739 9        57.224 9  25218673.891 9 100254321.441 9     -1599.150 9        60.235 9  25218673.891 9 100254321.441 9     -1599.150 9        60.235 9
E13  28146985.153 9 147913405.310 9       333.029 9        56.288 9  28146985.153 9 147913405.310 9       333.029 9        56.288 9  28146985.319 9 110454816.305 9       248.690 9        56.148 9  28146985.319 9 110454816.305 9       248.690 9        56.148 9  28146985.319 9 113336246.296 9       255.178 9        56.148 9  28146985.319 9 113336246.296 9       255.178 9        56.148 9  28146985.319 9 111895531.301 9       251.934 9        59.159 9  28146985.319 9 111895531.301 9       251.934 9        59.159 9
E25  27072857.256 9 142268825.116 9      3133.653 9        56.723 9  27072857.256 9 142268825.116 9      3133.653 9        56.723 9  27072858.308 9 106239711.196 9      2340.066 9        56.584 9  27072858.308 9 106239711.196 9      2340.066 9        56.584 9  27072858.308 9 109011181.923 9      2401.111 9        56.584 9  27072858.308 9 109011181.923 9      2401.111 9        56.584 9  27072858.308 9 107625446.559 9      2370.588 9        59.594 9  27072858.308 9 107625446.559 9      2370.588 9        59.594 9
E31  24969924.517 9 131217838.986 9     -1555.772 9        57.422 9  24969924.517 9 131217838.986 9     -1555.772 9        57.422 9  24969925.514 9  97987351.206 9     -1161.778 9        57.282 9  24969925.514 9  97987351.206 9     -1161.778 9        57.282 9  24969925.514 9 100543542.976 9     -1192.085 9        57.282 9  24969925.514 9 100543542.976 9     -1192.085 9        57.282 9  24969925.514 9  99265447.091 9     -1176.931 9        60.292 9  24969925.514 9  99265447.091 9     -1176.931 9        60.292 9
E15  27829108.001 9 146242949.604 9     -1838.475 9        56.362 9  27829108.001 9 146242949.604 9     -1838.475 9        56.362 9  27829109.607 9 109207403.733 9     -1372.887 9        56.222 9  27829109.607 9 109207403.733 9     -1372.887 9        56.222 9  27829109.607 9 112056292.526 9     -1408.702 9        56.222 9  27829109.607 9 112056292.526 9     -1408.702 9        56.222 9  27829109.607 9 110631848.129 9     -1390.794 9        59.232 9  27829109.607 9 110631848.129 9     -1390.794 9        59.232 9
E03  26321422.019 9 138320006.293 9      2482.860 9        56.974 9  26321422.019 9 138320006.293 9      2482.860 9        56.974 9  26321422.905 9 103290917.267 9      1854.083 9        56.834 9  26321422.905 9 103290917.267 9      1854.083 9        56.834 9  26321422.905 9 105985462.935 9      1902.451 9        56.834 9  26321422.905 9 105985462.935 9      1902.451 9        56.834 9  26321422.905 9 104638190.101 9      1878.267 9        59.844 9  26321422.905 9 104638190.101 9      1878.267 9        59.844 9
E24  24083146.581 9 126557789.477 9      1233.594 9        57.796 9  24083146.581 9 126557789.477 9      1233.594 9        57.796 9  24083145.806 9  94507437.152 9       921.191 9        57.656 9  24083145.806 9  94507437.152 9       921.191 9        57.656 9  24083145.806 9  96972848.556 9       945.222 9        57.656 9  24083145.806 9  96972848.556 9       945.222 9        57.656 9  24083145.806 9  95740142.854 9       933.206 9        60.667 9  24083145.806 9  95740142.854 9       933.206 9        60.667 9
> 2023 01 08 10 00 24.0000000  0 19       0.000000000000
G08  25071890.723 9 131753675.013 9     -1499.092 9        54.231 9  25071891.716 8 102665205.377 8     -1168.123 8        49.731 8  25071890.723 9  98387484.588 9     -1119.452 9        56.331 9
G13  20026215.886 9 105238474.783 9       577.321 9        56.113 9  20026213.628 8  82003997.079 8       449.860 8        51.613 8  20026215.886 9  78587172.727 9       431.116 9        58.213 9
G24  24523368.500 9 128871171.276 9      3554.330 9        54.414 9  24523369.042 8 100419096.720 8      2769.607 8        49.914 8  24523368.500 9  96234965.563 9      2654.207 9        56.514 9
G07  24603469.146 9 129292103.013 9     -2994.738 9        54.356 9  24603466.979 8 100747084.381 8     -2333.562 8        49.856 8  24603469.146 9  96549297.704 9     -2236.330 9        56.456 9
G18  24769177.550 9 130162906.554 9     -1349.446 9        54.335 9  24769175.925 8 101425634.814 8     -1051.517 8        49.835 8  24769177.550 9  97199573.076 9     -1007.703 9        56.435 9
G20  23521981.916 9 123608849.258 9     -3647.844 9        54.724 9  23521980.290 8  96318577.181 8     -2842.476 8        50.224 8  23521981.916 9  92305309.511 9     -2724.039 9        56.824 9
G14  20963407.467 9 110163449.783 9       108.919 9        55.781 9  20963405.932 8  85841642.895 8        84.872 8        51.281 8  20963407.467 9  82264913.799 9        81.335 9        57.881 9
G23  24863328.031 9 130657670.669 9      3241.522 9        54.292 9  24863326.405 8 101811165.293 8      2525.861 8        49.792 8  24863328.031 9  97569039.786 9      2420.617 9        56.392 9
G05  21746890.192 9 114280679.292 9     -2424.963 9        55.469 9  21746888.025 8  89049871.092 8     -1889.582 8        50.969 8  21746890.192 9  85339468.302 9     -1810.849 9        57.569 9
G30  21860937.136 9 114880000.028 9     -2280.381 9        55.474 9  21860937.859 8  89516886.098 8     -1776.920 8        50.974 8  21860937.136 9  85787013.008 9     -1702.882 9        57.574 9
G15  21114331.078 9 110956558.712 9      2306.354 9        55.712 9  21114329.001 8  86459647.634 8      1797.159 8        51.212 8  21114331.078 9  82857170.467 9      1722.277 9        57.812 9
E05  23313168.587 9 122511527.812 9       360.124 9        57.977 9  23313168.587 9 122511527.812 9       360.124 9        57.977 9  23313169.529 9  91485884.852 9       268.924 9        57.837 9  23313169.529 9  91485884.852 9       268.924 9        57.837 9  23313169.529 9  93872473.153 9       275.939 9        57.837 9  23313169.529 9  93872473.153 9       275.939 9        57.837 9  23313169.529 9  92679179.002 9       272.431 9        60.847 9  23313169.529 9  92679179.002 9       272.431 9        60.847 9
E09  25219075.613 9 132527136.831 9     -2113.453 9        57.364 9  25219075.613 9 132527136.831 9     -2113.453 9        57.364 9  25219076.111 9  98965071.667 9     -1578.228 9        57.224 9  25219076.111 9  98965071.667 9     -1578.228 9        57.224 9  25219076.111 9 101546769.189 9     -1619.399 9        57.224 9  25219076.111 9 101546769.189 9     -1619.399 9        57.224 9  25219076.111 9 100255920.428 9     -1598.813 9        60.235 9  25219076.111 9 100255920.428 9     -1598.813 9        60.235 9
E13  28146921.969 9 147913073.276 9       331.040 9        56.288 9  28146921.969 9 147913073.276 9       331.040 9        56.288 9  28146922.135 9 110454568.358 9       247.205 9        56.148 9  28146922.135 9 110454568.358 9       247.205 9        56.148 9  28146922.135 9 113335991.880 9       253.654 9        56.148 9  28146922.135 9 113335991.880 9       253.654 9        56.148 9  28146922.135 9 111895280.119 9       250.430 9        59.159 9  28146922.135 9 111895280.119 9       250.430 9        59.159 9
E25  27072260.819 9 142265690.820 9      3134.931 9        56.724 9  27072260.819 9 142265690.820 9      3134.931 9        56.724 9  27072261.871 9 106237370.650 9      2341.020 9        56.584 9  27072261.871 9 106237370.650 9      2341.020 9        56.584 9  27072261.871 9 109008780.319 9      2402.090 9        56.584 9  27072261.871 9 109008780.319 9      2402.090 9        56.584 9  27072261.871 9 107623075.484 9      2371.555 9        59.594 9  27072261.871 9 107623075.484 9      2371.555 9        59.594 9
E31  24970220.663 9 131219395.240 9     -1556.718 9        57.422 9  24970220.663 9 131219395.240 9     -1556.718 9        57.422 9  24970221.659 9  97988513.344 9     -1162.484 9        57.282 9  24970221.659 9  97988513.344 9     -1162.484 9        57.282 9  24970221.659 9 100544735.431 9     -1192.810 9        57.282 9  24970221.659 9 100544735.431 9     -1192.810 9        57.282 9  24970221.659 9  99266624.387 9     -1177.647 9        60.292 9  24970221.659 9  99266624.387 9     -1177.647 9        60.292 9
E15  27829457.947 9 146244788.585 9     -1839.496 9        56.362 9  27829457.947 9 146244788.585 9     -1839.496 9        56.362 9  27829459.553 9 109208776.998 9     -1373.649 9        56.222 9  27829459.553 9 109208776.998 9     -1373.649 9        56.222 9  27829459.553 9 112057701.615 9     -1409.484 9        56.222 9  27829459.553 9 112057701.615 9     -1409.484 9        56.222 9  27829459.553 9 110633239.307 9     -1391.567 9        59.232 9  27829459.553 9 110633239.307 9     -1391.567 9        59.232 9
E03  26320949.625 9 138317523.847 9      2482.023 9        56.974 9  26320949.625 9 138317523.847 9      2482.023 9        56.974 9  26320950.511 9 103289063.492 9      1853.459 9        56.834 9  26320950.511 9 103289063.492 9      1853.459 9        56.834 9  26320950.511 9 105983560.801 9      1901.810 9        56.834 9  26320950.511 9 105983560.801 9      1901.810 9        56.834 9  26320950.511 9 104636312.147 9      1877.635 9        59.844 9  26320950.511 9 104636312.147 9      1877.635 9        59.844 9
E24  24082911.817 9 126556555.785 9      1233.804 9        57.796 9  24082911.817 9 126556555.785 9      1233.804 9        57.796 9  24082911.042 9  94506515.888 9       921.347 9        57.656 9  24082911.042 9  94506515.888 9       921.347 9        57.656 9  24082911.042 9  96971903.259 9       945.382 9        57.656 9  24082911.042 9  96971903.259 9       945.382 9        57.656 9  24082911.042 9  95739209.574 9       933.365 9        60.667 9  24082911.042 9  95739209.574 9       933.365 9        60.667 9
> 2023 01 08 10 00 25.0000000  0 19       0.000000000000
G08  25072176.174 9 131755175.070 9     -1501.008 9        54.231 9  25072177.168 8 102666374.253 8     -1169.617 8        49.731 8  25072176.174 9  98388604.760 9     -1120.883 9        56.331 9
G13  20026106.095 9 105237897.826 9       576.604 9        56.113 9  20026103.837 8  82003547.502 8       449.302 8        51.613 8  20026106.095 9  78586741.883 9       430.581 9        58.213 9
G24  24522692.120 9 128867616.875 9      3554.448 9        54.415 9  24522692.662 8 100416327.057 8      2769.699 8        49.915 8  24522692.120 9  96232311.303 9      2654.295 9        56.515 9
G07  24604039.071 9 129295097.990 9     -2995.201 9        54.356 9  24604036.904 8 100749418.129 8     -2333.923 8        49.856 8  24604039.071 9  96551534.213 9     -2236.676 9        56.456 9
G18  24769434.473 9 130164256.690 9     -1350.833 9        54.335 9  24769432.847 8 101426686.868 8     -1052.597 8        49.835 8  24769434.473 9  97200581.295 9     -1008.739 9        56.435 9
G20  23522675.957 9 123612496.468 9     -3646.581 9        54.724 9  23522674.331 8  96321419.162 8     -2841.492 8        50.224 8  23522675.957 9  92308033.077 9     -2723.096 9        56.824 9
G14  20963386.787 9 110163341.106 9       108.455 9        55.781 9  20963385.252 8  85841558.211 8        84.510 8        51.281 8  20963386.787 9  82264832.644 9        80.989 9        57.881 9
G23  24862711.348 9 130654429.981 9      3239.850 9        54.293 9  24862709.723 8 101808640.081 8      2524.558 8        49.793 8  24862711.348 9  97566619.791 9      2419.368 9        56.393 9
G05  21747351.620 9 114283104.112 9     -2424.680 9        55.469 9  21747349.453 8  89051760.562 8     -1889.361 8        50.969 8  21747351.620 9  85341279.045 9     -1810.637 9        57.569 9
G30  21861371.139 9 114882280.725 9     -2280.993 9        55.474 9  21861371.861 8  89518663.264 8     -1777.397 8        50.974 8  21861371.139 9  85788716.126 9     -1703.339 9        57.574 9
G15  21113892.290 9 110954252.863 9      2305.342 9        55.712 9  21113890.213 8  86457850.868 8      1796.371 8        51.212 8  21113892.290 9  82855448.567 9      1721.522 9        57.812 9
E05  23313100.099 9 122511167.904 9       359.702 9        57.977 9  23313100.099 9 122511167.904 9       359.702 9        57.977 9  23313101.041 9  91485616.090 9       268.608 9        57.837 9  23313101.041 9  91485616.090 9       268.608 9        57.837 9  23313101.041 9  93872197.379 9       275.616 9        57.837 9  23313101.041 9  93872197.379 9       275.616 9        57.837 9  23313101.041 9  92678906.734 9       272.112 9        60.847 9  23313101.041 9  92678906.734 9       272.112 9        60.847 9
E09  25219477.745 9 132529250.047 9     -2112.964 9        57.364 9  25219477.745 9 132529250.047 9     -2112.964 9        57.364 9  25219478.243 9  98966649.718 9     -1577.863 9        57.224 9  25219478.243 9  98966649.718 9     -1577.863 9        57.224 9  25219478.243 9 101548388.406 9     -1619.025 9        57.224 9  25219478.243 9 101548388.406 9     -1619.025 9        57.224 9  25219478.243 9 100257519.062 9     -1598.444 9        60.234 9  25219478.243 9 100257519.062 9     -1598.444 9        60.234 9
E13  28146859.166 9 147912743.244 9       329.027 9        56.288 9  28146859.166 9 147912743.244 9       329.027 9        56.288 9  28146859.332 9 110454321.905 9       245.702 9        56.148 9  28146859.332 9 110454321.905 9       245.702 9        56.148 9  28146859.332 9 113335738.999 9       252.112 9        56.148 9  28146859.332 9 113335738.999 9       252.112 9        56.148 9  28146859.332 9 111895030.452 9       248.907 9        59.159 9  28146859.332 9 111895030.452 9       248.907 9        59.159 9
E25  27071664.144 9 142262555.270 9      3136.159 9        56.724 9  27071664.144 9 142262555.270 9      3136.159 9        56.724 9  27071665.196 9 106235029.167 9      2341.937 9        56.584 9  27071665.196 9 106235029.167 9      2341.937 9        56.584 9  27071665.196 9 109006377.754 9      2403.031 9        56.584 9  27071665.196 9 109006377.754 9      2403.031 9        56.584 9  27071665.196 9 107620703.461 9      2372.484 9        59.594 9  27071665.196 9 107620703.461 9      2372.484 9        59.594 9
E31  24970516.984 9 131220952.417 9     -1557.616 9        57.422 9  24970516.984 9 131220952.417 9     -1557.616 9        57.422 9  24970517.980 9  97989676.171 9     -1163.155 9        57.282 9  24970517.980 9  97989676.171 9     -1163.155 9        57.282 9  24970517.980 9 100545928.593 9     -1193.498 9        57.282 9  24970517.980 9 100545928.593 9     -1193.498 9        57.282 9  24970517.980 9  99267802.382 9     -1178.326 9        60.292 9  24970517.980 9  99267802.382 9     -1178.326 9        60.292 9
E15  27829808.097 9 146246628.634 9     -1840.611 9        56.361 9  27829808.097 9 146246628.634 9     -1840.611 9        56.361 9  27829809.703 9 109210151.060 9     -1374.482 9        56.222 9  27829809.703 9 109210151.060 9     -1374.482 9        56.222 9  27829809.703 9 112059111.523 9     -1410.338 9        56.222 9  27829809.703 9 112059111.523 9     -1410.338 9        56.222 9  27829809.703 9 110634631.292 9     -1392.410 9        59.232 9  27829809.703 9 110634631.292 9     -1392.410 9        59.232 9
E03  26320477.399 9 138315042.281 9      2481.099 9        56.974 9  26320477.399 9 138315042.281 9      2481.099 9        56.974 9  26320478.285 9 103287210.375 9      1852.769 9        56.834 9  26320478.285 9 103287210.375 9      1852.769 9        56.834 9  26320478.285 9 105981659.341 9      1901.102 9        56.834 9  26320478.285 9 105981659.341 9      1901.102 9        56.834 9  26320478.285 9 104634434.858 9      1876.935 9        59.844 9  26320478.285 9 104634434.858 9      1876.935 9        59.844 9
E24  24082677.014 9 126555321.885 9      1234.009 9        57.796 9  24082677.014 9 126555321.885 9      1234.009 9        57.796 9  24082676.238 9  94505594.470 9       921.500 9        57.656 9  24082676.238 9  94505594.470 9       921.500 9        57.656 9  24082676.238 9  96970957.804 9       945.539 9        57.656 9  24082676.238 9  96970957.804 9       945.539 9        57.656 9  24082676.238 9  95738276.137 9       933.519 9        60.667 9  24082676.238 9  95738276.137 9       933.519 9        60.667 9
> 2023 01 08 10 00 26.0000000  0 19       0.000000000000
G08  25072461.984 9 131756677.008 9     -1502.864 9        54.231 9  25072462.977 8 102667544.594 8     -1171.063 8        49.731 8  25072461.984 9  98389726.337 9     -1122.269 9        56.331 9
G13  20025996.439 9 105237321.578 9       575.890 9        56.113 9  20025994.181 8  82003098.478 8       448.745 8        51.613 8  20025996.439 9  78586311.568 9       430.048 9        58.213 9
G24  24522015.728 9 128864062.409 9      3554.469 9        54.415 9  24522016.269 8 100413557.343 8      2769.716 8        49.915 8  24522015.728 9  96229656.994 9      2654.312 9        56.515 9
G07  24604609.074 9 129298093.374 9     -2995.564 9        54.356 9  24604606.906 8 100751752.195 8     -2334.206 8        49.856 8  24604609.074 9  96553771.026 9     -2236.948 9        56.456 9
G18  24769691.666 9 130165608.251 9     -1352.293 9        54.335 9  24769690.040 8 101427740.032 8     -1053.734 8        49.835 8  24769691.666 9  97201590.577 9     -1009.829 9        56.435 9
G20  23523369.761 9 123616142.432 9     -3645.349 9        54.724 9  23523368.135 8  96324260.174 8     -2840.532 8        50.224 8  23523369.761 9  92310755.713 9     -2722.176 9        56.824 9
G14  20963366.188 9 110163232.856 9       108.050 9        55.781 9  20963364.652 8  85841473.861 8        84.195 8        51.281 8  20963366.188 9  82264751.808 9        80.687 9        57.881 9
G23  24862094.987 9 130651190.981 9      3238.143 9        54.293 9  24862093.361 8 101806116.185 8      2523.229 8        49.793 8  24862094.987 9  97564201.057 9      2418.094 9        56.393 9
G05  21747812.998 9 114285528.671 9     -2424.439 9        55.469 9  21747810.831 8  89053649.829 8     -1889.173 8        50.969 8  21747812.998 9  85343089.592 9     -1810.458 9        57.569 9
G30  21861805.248 9 114884561.987 9     -2281.527 9        55.474 9  21861805.971 8  89520440.871 8     -1777.813 8        50.974 8  21861805.248 9  85790419.666 9     -1703.738 9        57.574 9
G15  21113453.697 9 110951948.044 9      2304.290 9        55.712 9  21113451.620 8  86456054.905 8      1795.550 8        51.212 8  21113453.697 9  82853727.435 9      1720.736 9        57.812 9
E05  23313031.690 9 122510808.412 9       359.282 9        57.977 9  23313031.690 9 122510808.412 9       359.282 9        57.977 9  23313032.631 9  91485347.638 9       268.295 9        57.837 9  23313032.631 9  91485347.638 9       268.295 9        57.837 9  23313032.631 9  93871921.924 9       275.294 9        57.837 9  23313032.631 9  93871921.924 9       275.294 9        57.837 9  23313032.631 9  92678634.781 9       271.794 9        60.847 9  23313032.631 9  92678634.781 9       271.794 9        60.847 9
E09  25219879.776 9 132531362.737 9     -2112.414 9        57.364 9  25219879.776 9 132531362.737 9     -2112.414 9        57.364 9  25219880.275 9  98968227.376 9     -1577.452 9        57.224 9  25219880.275 9  98968227.376 9     -1577.452 9        57.224 9  25219880.275 9 101550007.221 9     -1618.603 9        57.224 9  25219880.275 9 101550007.221 9     -1618.603 9        57.224 9  25219880.275 9 100259117.299 9     -1598.028 9        60.234 9  25219880.275 9 100259117.299 9     -1598.028 9        60.234 9
E13  28146796.746 9 147912415.227 9       327.006 9        56.288 9  28146796.746 9 147912415.227 9       327.006 9        56.288 9  28146796.912 9 110454076.957 9       244.192 9        56.148 9  28146796.912 9 110454076.957 9       244.192 9        56.148 9  28146796.912 9 113335487.661 9       250.563 9        56.148 9  28146796.912 9 113335487.661 9       250.563 9        56.148 9  28146796.912 9 111894782.309 9       247.378 9        59.159 9  28146796.912 9 111894782.309 9       247.378 9        59.159 9
E25  27071067.240 9 142259418.516 9      3137.343 9        56.724 9  27071067.240 9 142259418.516 9      3137.343 9        56.724 9  27071068.292 9 106232686.786 9      2342.821 9        56.584 9  27071068.292 9 106232686.786 9      2342.821 9        56.584 9  27071068.292 9 109003974.268 9      2403.938 9        56.584 9  27071068.292 9 109003974.268 9      2403.938 9        56.584 9  27071068.292 9 107618330.527 9      2373.380 9        59.594 9  27071068.292 9 107618330.527 9      2373.380 9        59.594 9
E31  24970813.467 9 131222510.446 9     -1558.438 9        57.422 9  24970813.467 9 131222510.446 9     -1558.438 9        57.422 9  24970814.463 9  97990839.634 9     -1163.769 9        57.282 9  24970814.463 9  97990839.634 9     -1163.769 9        57.282 9  24970814.463 9 100547122.407 9     -1194.128 9        57.282 9  24970814.463 9 100547122.407 9     -1194.128 9        57.282 9  24970814.463 9  99268981.020 9     -1178.948 9        60.292 9  24970814.463 9  99268981.020 9     -1178.948 9        60.292 9
E15  27830158.467 9 146248469.839 9     -1841.803 9        56.361 9  27830158.467 9 146248469.839 9     -1841.803 9        56.361 9  27830160.072 9 109211525.986 9     -1375.372 9        56.221 9  27830160.072 9 109211525.986 9     -1375.372 9        56.221 9  27830160.072 9 112060522.316 9     -1411.252 9        56.221 9  27830160.072 9 112060522.316 9     -1411.252 9        56.221 9  27830160.072 9 110636024.151 9     -1393.312 9        59.232 9  27830160.072 9 110636024.151 9     -1393.312 9        59.232 9
E03  26320005.354 9 138312561.669 9      2480.116 9        56.974 9  26320005.354 9 138312561.669 9      2480.116 9        56.974 9  26320006.240 9 103285357.970 9      1852.035 9        56.834 9  26320006.240 9 103285357.970 9      1852.035 9        56.834 9  26320006.240 9 105979758.612 9      1900.349 9        56.834 9  26320006.240 9 105979758.612 9      1900.349 9        56.834 9  26320006.240 9 104632558.291 9      1876.192 9        59.845 9  26320006.240 9 104632558.291 9      1876.192 9        59.845 9
E24  24082442.168 9 126554087.762 9      1234.240 9        57.796 9  24082442.168 9 126554087.762 9      1234.240 9        57.796 9  24082441.393 9  94504672.884 9       921.673 9        57.657 9  24082441.393 9  94504672.884 9       921.673 9        57.657 9  24082441.393 9  96970012.177 9       945.716 9        57.657 9  24082441.393 9  96970012.177 9       945.716 9        57.657 9  24082441.393 9  95737342.530 9       933.694 9        60.667 9  24082441.393 9  95737342.530 9       933.694 9        60.667 9
> 2023 01 08 10 00 27.0000000  0 19       0.000000000000
G08  25072748.138 9 131758180.760 9     -1504.635 9        54.230 9  25072749.132 8 102668716.349 8     -1172.443 8        49.730 8  25072748.138 9  98390849.269 9     -1123.591 9        56.330 9
G13  20025886.919 9 105236746.051 9       575.162 9        56.113 9  20025884.662 8  82002650.015 8       448.178 8        51.613 8  20025886.919 9  78585881.792 9       429.504 9        58.213 9
G24  24521339.343 9 128860507.983 9      3554.363 9        54.415 9  24521339.885 8 100410787.661 8      2769.634 8        49.915 8  24521339.343 9  96227002.715 9      2654.232 9        56.515 9
G07  24605179.134 9 129301089.060 9     -2995.802 9        54.355 9  24605176.966 8 100754086.495 8     -2334.391 8        49.855 8  24605179.134 9  96556008.064 9     -2237.125 9        56.455 9
G18  24769949.146 9 130166961.314 9     -1353.840 9        54.335 9  24769947.520 8 101428794.367 8     -1054.941 8        49.835 8  24769949.146 9  97202600.981 9     -1010.985 9        56.435 9
G20  23524063.336 9 123619787.194 9     -3644.178 9        54.723 9  23524061.710 8  96327100.248 8     -2839.619 8        50.223 8  23524063.336 9  92313477.450 9     -2721.301 9        56.823 9
G14  20963345.660 9 110163124.982 9       107.702 9        55.781 9  20963344.124 8  85841389.803 8        83.924 8        51.281 8  20963345.660 9  82264671.253 9        80.427 9        57.881 9
G23  24861478.954 9 130647953.705 9      3236.401 9        54.293 9  24861477.328 8 101803593.633 8      2521.871 8        49.793 8  24861478.954 9  97561783.611 9      2416.793 9        56.393 9
G05  21748274.338 9 114287953.026 9     -2424.276 9        55.469 9  21748272.170 8  89055538.937 8     -1889.047 8        50.969 8  21748274.338 9  85344899.987 9     -1810.336 9        57.569 9
G30  21862239.451 9 114886843.739 9     -2281.971 9        55.474 9  21862240.174 8  89522218.859 8     -1778.160 8        50.974 8  21862239.451 9  85792123.571 9     -1704.070 9        57.574 9
G15  21113015.311 9 110949644.307 9      2303.174 9        55.713 9  21113013.234 8  86454259.785 8      1794.681 8        51.213 8  21113015.311 9  82852007.113 9      1719.903 9        57.813 9
E05  23312963.362 9 122510449.347 9       358.846 9        57.977 9  23312963.362 9 122510449.347 9       358.846 9        57.977 9  23312964.304 9  91485079.505 9       267.969 9        57.837 9  23312964.304 9  91485079.505 9       267.969 9        57.837 9  23312964.304 9  93871646.796 9       274.960 9        57.837 9  23312964.304 9  93871646.796 9       274.960 9        57.837 9  23312964.304 9  92678363.151 9       271.464 9        60.847 9  23312964.304 9  92678363.151 9       271.464 9        60.847 9
E09  25220281.697 9 132533474.848 9     -2111.804 9        57.364 9  25220281.697 9 132533474.848 9     -2111.804 9        57.364 9  25220282.196 9  98969804.601 9     -1576.997 9        57.224 9  25220282.196 9  98969804.601 9     -1576.997 9        57.224 9  25220282.196 9 101551625.591 9     -1618.136 9        57.224 9  25220282.196 9 101551625.591 9     -1618.136 9        57.224 9  25220282.196 9 100260715.096 9     -1597.566 9        60.234 9  25220282.196 9 100260715.096 9     -1597.566 9        60.234 9
E13  28146734.711 9 147912089.231 9       324.984 9        56.288 9  28146734.711 9 147912089.231 9       324.984 9        56.288 9  28146734.877 9 110453833.520 9       242.683 9        56.148 9  28146734.877 9 110453833.520 9       242.683 9        56.148 9  28146734.877 9 113335237.872 9       249.014 9        56.148 9  28146734.877 9 113335237.872 9       249.014 9        56.148 9  28146734.877 9 111894535.696 9       245.848 9        59.159 9  28146734.877 9 111894535.696 9       245.848 9        59.159 9
E25  27070470.116 9 142256280.613 9      3138.455 9        56.724 9  27070470.116 9 142256280.613 9      3138.455 9        56.724 9  27070471.168 9 106230343.547 9      2343.651 9        56.584 9  27070471.168 9 106230343.547 9      2343.651 9        56.584 9  27070471.168 9 109001569.900 9      2404.790 9        56.584 9  27070471.168 9 109001569.900 9      2404.790 9        56.584 9  27070471.168 9 107615956.724 9      2374.221 9        59.595 9  27070471.168 9 107615956.724 9      2374.221 9        59.595 9
E31  24971110.098 9 131224069.254 9     -1559.173 9        57.421 9  24971110.098 9 131224069.254 9     -1559.173 9        57.421 9  24971111.095 9  97992003.679 9     -1164.317 9        57.282 9  24971111.095 9  97992003.679 9     -1164.317 9        57.282 9  24971111.095 9 100548316.818 9     -1194.691 9        57.282 9  24971111.095 9 100548316.818 9     -1194.691 9        57.282 9  24971111.095 9  99270160.249 9     -1179.504 9        60.292 9  24971111.095 9  99270160.249 9     -1179.504 9        60.292 9
E15  27830509.072 9 146250312.283 9     -1843.090 9        56.361 9  27830509.072 9 146250312.283 9     -1843.090 9        56.361 9  27830510.678 9 109212901.837 9     -1376.334 9        56.221 9  27830510.678 9 109212901.837 9     -1376.334 9        56.221 9  27830510.678 9 112061934.059 9     -1412.238 9        56.221 9  27830510.678 9 112061934.059 9     -1412.238 9        56.221 9  27830510.678 9 110637417.948 9     -1394.286 9        59.232 9  27830510.678 9 110637417.948 9     -1394.286 9        59.232 9
E03  26319533.504 9 138310082.078 9      2479.055 9        56.974 9  26319533.504 9 138310082.078 9      2479.055 9        56.974 9  26319534.390 9 103283506.327 9      1851.242 9        56.834 9  26319534.390 9 103283506.327 9      1851.242 9        56.834 9  26319534.390 9 105977858.666 9      1899.536 9        56.834 9  26319534.390 9 105977858.666 9      1899.536 9        56.834 9  26319534.390 9 104630682.496 9      1875.389 9        59.845 9  26319534.390 9 104630682.496 9      1875.389 9        59.845 9
E24  24082207.277 9 126552853.402 9      1234.481 9        57.797 9  24082207.277 9 126552853.402 9      1234.481 9        57.797 9  24082206.502 9  94503751.122 9       921.853 9        57.657 9  24082206.502 9  94503751.122 9       921.853 9        57.657 9  24082206.502 9  96969066.368 9       945.901 9        57.657 9  24082206.502 9  96969066.368 9       945.901 9        57.657 9  24082206.502 9  95736408.745 9       933.877 9        60.667 9  24082206.502 9  95736408.745 9       933.877 9        60.667 9
> 2023 01 08 10 00 28.0000000  0 19       0.000000000000
G08  25073034.624 9 131759686.254 9     -1506.341 9        54.230 9  25073035.618 8 102669889.461 8     -1173.772 8        49.730 8  25073034.624 9  98391973.502 9     -1124.865 9        56.330 9
G13  20025777.539 9 105236171.254 9       574.428 9        56.113 9  20025775.281 8  82002202.121 8       447.606 8        51.613 8  20025777.539 9  78585452.560 9       428.956 9        58.213 9
G24  24520662.986 9 128856953.705 9      3554.169 9        54.415 9  24520663.528 8 100408018.093 8      2769.482 8        49.915 8  24520662.986 9  96224348.546 9      2654.087 9        56.515 9
G07  24605749.231 9 129304084.941 9     -2995.950 9        54.355 9  24605747.064 8 100756420.948 8     -2334.506 8        49.855 8  24605749.231 9  96558245.248 9     -2237.235 9        56.455 9
G18  24770206.925 9 130168315.954 9     -1355.445 9        54.335 9  24770205.299 8 101429849.930 8     -1056.191 8        49.835 8  24770206.925 9  97203612.563 9     -1012.183 9        56.435 9
G20  23524756.691 9 123623430.803 9     -3643.051 9        54.723 9  23524755.066 8  96329939.424 8     -2838.741 8        50.223 8  23524756.691 9  92316198.327 9     -2720.460 9        56.823 9
G14  20963325.194 9 110163017.436 9       107.395 9        55.781 9  20963323.659 8  85841306.000 8        83.684 8        51.281 8  20963325.194 9  82264590.942 9        80.198 9        57.881 9
G23  24860863.254 9 130644718.181 9      3234.640 9        54.293 9  24860861.629 8 101801072.445 8      2520.499 8        49.793 8  24860863.254 9  97559367.473 9      2415.478 9        56.393 9
G05  21748735.651 9 114290377.242 9     -2424.167 9        55.468 9  21748733.483 8  89057427.936 8     -1888.961 8        50.968 8  21748735.651 9  85346710.278 9     -1810.255 9        57.568 9
G30  21862673.733 9 114889125.903 9     -2282.351 9        55.474 9  21862674.455 8  89523997.169 8     -1778.455 8        50.974 8  21862673.733 9  85793827.785 9     -1704.353 9        57.574 9
G15  21112577.140 9 110947341.704 9      2302.020 9        55.713 9  21112575.063 8  86452465.549 8      1793.782 8        51.213 8  21112577.140 9  82850287.636 9      1719.041 9        57.813 9
E05  23312895.118 9 122510090.720 9       358.402 9        57.977 9  23312895.118 9 122510090.720 9       358.402 9        57.977 9  23312896.059 9  91484811.699 9       267.638 9        57.837 9  23312896.059 9  91484811.699 9       267.638 9        57.837 9  23312896.059 9  93871372.005 9       274.620 9        57.837 9  23312896.059 9  93871372.005 9       274.620 9        57.837 9  23312896.059 9  92678091.852 9       271.129 9        60.847 9  23312896.059 9  92678091.852 9       271.129 9        60.847 9
E09  25220683.499 9 132535586.327 9     -2111.154 9        57.364 9  25220683.499 9 132535586.327 9     -2111.154 9        57.364 9  25220683.997 9  98971381.356 9     -1576.511 9        57.224 9  25220683.997 9  98971381.356 9     -1576.511 9        57.224 9  25220683.997 9 101553243.478 9     -1617.637 9        57.224 9  25220683.997 9 101553243.478 9     -1617.637 9        57.224 9  25220683.997 9 100262312.417 9     -1597.074 9        60.234 9  25220683.997 9 100262312.417 9     -1597.074 9        60.234 9
E13  28146673.061 9 147911765.257 9       322.968 9        56.288 9  28146673.061 9 147911765.257 9       322.968 9        56.288 9  28146673.227 9 110453591.590 9       241.178 9        56.148 9  28146673.227 9 110453591.590 9       241.178 9        56.148 9  28146673.227 9 113334989.632 9       247.469 9        56.148 9  28146673.227 9 113334989.632 9       247.469 9        56.148 9  28146673.227 9 111894290.611 9       244.323 9        59.159 9  28146673.227 9 111894290.611 9       244.323 9        59.159 9
E25  27069872.786 9 142253141.622 9      3139.512 9        56.724 9  27069872.786 9 142253141.622 9      3139.512 9        56.724 9  27069873.838 9 106227999.496 9      2344.440 9        56.585 9  27069873.838 9 106227999.496 9      2344.440 9        56.585 9  27069873.838 9 108999164.700 9      2405.600 9        56.585 9  27069873.838 9 108999164.700 9      2405.600 9        56.585 9  27069873.838 9 107613582.098 9      2375.020 9        59.595 9  27069873.838 9 107613582.098 9      2375.020 9        59.595 9
E31  24971406.863 9 131225628.766 9     -1559.844 9        57.421 9  24971406.863 9 131225628.766 9     -1559.844 9        57.421 9  24971407.860 9  97993168.250 9     -1164.818 9        57.281 9  24971407.860 9  97993168.250 9     -1164.818 9        57.281 9  24971407.860 9 100549511.769 9     -1195.205 9        57.281 9  24971407.860 9 100549511.769 9     -1195.205 9        57.281 9  24971407.860 9  99271340.009 9     -1180.012 9        60.292 9  24971407.860 9  99271340.009 9     -1180.012 9        60.292 9
E15  27830859.928 9 146252156.044 9     -1844.440 9        56.361 9  27830859.928 9 146252156.044 9     -1844.440 9        56.361 9  27830861.534 9 109214278.672 9     -1377.341 9        56.221 9  27830861.534 9 109214278.672 9     -1377.341 9        56.221 9  27830861.534 9 112063346.811 9     -1413.272 9        56.221 9  27830861.534 9 112063346.811 9     -1413.272 9        56.221 9  27830861.534 9 110638812.742 9     -1395.307 9        59.232 9  27830861.534 9 110638812.742 9     -1395.307 9        59.232 9
E03  26319061.859 9 138307603.571 9      2477.945 9        56.975 9  26319061.859 9 138307603.571 9      2477.945 9        56.975 9  26319062.745 9 103281655.494 9      1850.414 9        56.835 9  26319062.745 9 103281655.494 9      1850.414 9        56.835 9  26319062.745 9 105975959.550 9      1898.685 9        56.835 9  26319062.745 9 105975959.550 9      1898.685 9        56.835 9  26319062.745 9 104628807.522 9      1874.550 9        59.845 9  26319062.745 9 104628807.522 9      1874.550 9        59.845 9
E24  24081972.339 9 126551618.795 9      1234.730 9        57.797 9  24081972.339 9 126551618.795 9      1234.730 9        57.797 9  24081971.564 9  94502829.175 9       922.039 9        57.657 9  24081971.564 9  94502829.175 9       922.039 9        57.657 9  24081971.564 9  96968120.371 9       946.092 9        57.657 9  24081971.564 9  96968120.371 9       946.092 9        57.657 9  24081971.564 9  95735474.773 9       934.066 9        60.667 9  24081971.564 9  95735474.773 9       934.066 9        60.667 9
> 2023 01 08 10 00 29.0000000  0 19       0.000000000000
G08  25073321.427 9 131761193.413 9     -1507.965 9        54.230 9  25073322.420 8 102671063.870 8     -1175.038 8        49.730 8  25073321.427 9  98393098.977 9     -1126.078 9        56.330 9
G13  20025668.300 9 105235597.196 9       573.689 9        56.113 9  20025666.042 8  82001754.803 8       447.030 8        51.613 8  20025668.300 9  78585023.880 9       428.404 9        58.213 9
G24  24519986.678 9 128853399.679 9      3553.863 9        54.416 9  24519987.219 8 100405248.722 8      2769.244 8        49.916 8  24519986.678 9  96221694.566 9      2653.859 9        56.516 9
G07  24606319.346 9 129307080.912 9     -2995.984 9        54.355 9  24606317.178 8 100758755.471 8     -2334.533 8        49.855 8  24606319.346 9  96560482.499 9     -2237.261 9        56.455 9
G18  24770465.016 9 130169672.234 9     -1357.121 9        54.335 9  24770463.391 8 101430906.773 8     -1057.497 8        49.835 8  24770465.016 9  97204625.370 9     -1013.435 9        56.435 9
G20  23525449.838 9 123627073.315 9     -3641.980 9        54.723 9  23525448.213 8  96332777.745 8     -2837.907 8        50.223 8  23525449.838 9  92318918.385 9     -2719.661 9        56.823 9
G14  20963304.783 9 110162910.171 9       107.141 9        55.781 9  20963303.247 8  85841222.417 8        83.487 8        51.281 8  20963304.783 9  82264510.842 9        80.008 9        57.881 9
G23  24860247.892 9 130641484.431 9      3232.856 9        54.294 9  24860246.266 8 101798552.640 8      2519.109 8        49.794 8  24860247.892 9  97556952.659 9      2414.146 9        56.394 9
G05  21749196.950 9 114292801.385 9     -2424.124 9        55.468 9  21749194.782 8  89059316.878 8     -1888.928 8        50.968 8  21749196.950 9  85348520.514 9     -1810.223 9        57.568 9
G30  21863108.078 9 114891408.405 9     -2282.646 9        55.473 9  21863108.801 8  89525775.742 8     -1778.686 8        50.973 8  21863108.078 9  85795532.251 9     -1704.574 9        57.573 9
G15  21112139.194 9 110945040.281 9      2300.820 9        55.713 9  21112137.117 8  86450672.232 8      1792.846 8        51.213 8  21112139.194 9  82848569.041 9      1718.144 9        57.813 9
E05  23312826.959 9 122509732.544 9       357.951 9        57.977 9  23312826.959 9 122509732.544 9       357.951 9        57.977 9  23312827.901 9  91484544.230 9       267.301 9        57.837 9  23312827.901 9  91484544.230 9       267.301 9        57.837 9  23312827.901 9  93871097.558 9       274.274 9        57.837 9  23312827.901 9  93871097.558 9       274.274 9        57.837 9  23312827.901 9  92677820.894 9       270.787 9        60.847 9  23312827.901 9  92677820.894 9       270.787 9        60.847 9
E09  25221085.171 9 132537697.131 9     -2110.451 9        57.364 9  25221085.171 9 132537697.131 9     -2110.451 9        57.364 9  25221085.670 9  98972957.605 9     -1575.986 9        57.224 9  25221085.670 9  98972957.605 9     -1575.986 9        57.224 9  25221085.670 9 101554860.847 9     -1617.099 9        57.224 9  25221085.670 9 101554860.847 9     -1617.099 9        57.224 9  25221085.670 9 100263909.226 9     -1596.542 9        60.234 9  25221085.670 9 100263909.226 9     -1596.542 9        60.234 9
E13  28146611.793 9 147911443.294 9       320.961 9        56.288 9  28146611.793 9 147911443.294 9       320.961 9        56.288 9  28146611.959 9 110453351.163 9       239.679 9        56.148 9  28146611.959 9 110453351.163 9       239.679 9        56.148 9  28146611.959 9 113334742.933 9       245.931 9        56.148 9  28146611.959 9 113334742.933 9       245.931 9        56.148 9  28146611.959 9 111894047.048 9       242.805 9        59.159 9  28146611.959 9 111894047.048 9       242.805 9        59.159 9
E25  27069275.262 9 142250001.610 9      3140.500 9        56.725 9  27069275.262 9 142250001.610 9      3140.500 9        56.725 9  27069276.314 9 106225654.681 9      2345.179 9        56.585 9  27069276.314 9 106225654.681 9      2345.179 9        56.585 9  27069276.314 9 108996758.717 9      2406.357 9        56.585 9  27069276.314 9 108996758.717 9      2406.357 9        56.585 9  27069276.314 9 107611206.699 9      2375.768 9        59.595 9  27069276.314 9 107611206.699 9      2375.768 9        59.595 9
E31  24971703.748 9 131227188.908 9     -1560.432 9        57.421 9  24971703.748 9 131227188.908 9     -1560.432 9        57.421 9  24971704.745 9  97994333.291 9     -1165.258 9        57.281 9  24971704.745 9  97994333.291 9     -1165.258 9        57.281 9  24971704.745 9 100550707.203 9     -1195.656 9        57.281 9  24971704.745 9 100550707.203 9     -1195.656 9        57.281 9  24971704.745 9  99272520.247 9     -1180.457 9        60.292 9  24971704.745 9  99272520.247 9     -1180.457 9        60.292 9
E15  27831211.049 9 146254001.195 9     -1845.867 9        56.361 9  27831211.049 9 146254001.195 9     -1845.867 9        56.361 9  27831212.655 9 109215656.545 9     -1378.407 9        56.221 9  27831212.655 9 109215656.545 9     -1378.407 9        56.221 9  27831212.655 9 112064760.628 9     -1414.366 9        56.221 9  27831212.655 9 112064760.628 9     -1414.366 9        56.221 9  27831212.655 9 110640208.587 9     -1396.386 9        59.231 9  27831212.655 9 110640208.587 9     -1396.386 9        59.231 9
E03  26318590.433 9 138305126.206 9      2476.776 9        56.975 9  26318590.433 9 138305126.206 9      2476.776 9        56.975 9  26318591.318 9 103279805.513 9      1849.540 9        56.835 9  26318591.318 9 103279805.513 9      1849.540 9        56.835 9  26318591.318 9 105974061.309 9      1897.789 9        56.835 9  26318591.318 9 105974061.309 9      1897.789 9        56.835 9  26318591.318 9 104626933.411 9      1873.665 9        59.845 9  26318591.318 9 104626933.411 9      1873.665 9        59.845 9
E24  24081737.353 9 126550383.935 9      1234.991 9        57.797 9  24081737.353 9 126550383.935 9      1234.991 9        57.797 9  24081736.578 9  94501907.039 9       922.233 9        57.657 9  24081736.578 9  94501907.039 9       922.233 9        57.657 9  24081736.578 9  96967174.179 9       946.292 9        57.657 9  24081736.578 9  96967174.179 9       946.292 9        57.657 9  24081736.578 9  95734540.609 9       934.263 9        60.667 9  24081736.578 9  95734540.609 9       934.263 9        60.667 9
> 2023 01 08 10 00 30.0000000  0 19       0.000000000000
G08  25073608.531 9 131762702.153 9     -1509.494 9        54.230 9  25073609.524 8 102672239.512 8     -1176.229 8        49.730 8  25073608.531 9  98394225.634 9     -1127.219 9        56.330 9
G13  20025559.202 9 105235023.883 9       572.935 9        56.113 9  20025556.944 8  82001308.066 8       446.442 8        51.613 8  20025559.202 9  78584595.757 9       427.841 9        58.213 9
G24  24519310.436 9 128849846.008 9      3553.445 9        54.416 9  24519310.978 8 100402479.628 8      2768.919 8        49.916 8  24519310.436 9  96219040.850 9      2653.547 9        56.516 9
G07  24606889.457 9 129310076.868 9     -2995.907 9        54.355 9  24606887.290 8 100761089.983 8     -2334.473 8        49.855 8  24606889.457 9  96562719.739 9     -2237.204 9        56.455 9
G18  24770723.432 9 130171030.217 9     -1358.856 9        54.335 9  24770721.806 8 101431964.941 8     -1058.849 8        49.835 8  24770723.432 9  97205639.448 9     -1014.730 9        56.435 9
G20  23526142.788 9 123630714.791 9     -3640.989 9        54.723 9  23526141.163 8  96335615.259 8     -2837.134 8        50.223 8  23526142.788 9  92321637.669 9     -2718.920 9        56.823 9
G14  20963284.416 9 110162803.143 9       106.925 9        55.781 9  20963282.880 8  85841139.019 8        83.318 8        51.281 8  20963284.416 9  82264430.918 9        79.846 9        57.881 9
G23  24859632.870 9 130638252.466 9      3231.067 9        54.294 9  24859631.244 8 101796034.226 8      2517.715 8        49.794 8  24859632.870 9  97554539.179 9      2412.810 9        56.394 9
G05  21749658.248 9 114295225.521 9     -2424.166 9        55.468 9  21749656.080 8  89061205.816 8     -1888.961 8        50.968 8  21749658.248 9  85350330.746 9     -1810.254 9        57.568 9
G30  21863542.474 9 114893691.170 9     -2282.867 9        55.473 9  21863543.197 8  89527554.520 8     -1778.857 8        50.973 8  21863542.474 9  85797236.913 9     -1704.738 9        57.573 9
G15  21111701.480 9 110942740.079 9      2299.571 9        55.713 9  21111699.403 8  86448879.867 8      1791.874 8        51.213 8  21111701.480 9  82846851.357 9      1717.212 9        57.813 9
E05  23312758.888 9 122509374.827 9       357.480 9        57.977 9  23312758.888 9 122509374.827 9       357.480 9        57.977 9  23312759.829 9  91484277.104 9       266.949 9        57.837 9  23312759.829 9  91484277.104 9       266.949 9        57.837 9  23312759.829 9  93870823.463 9       273.913 9        57.837 9  23312759.829 9  93870823.463 9       273.913 9        57.837 9  23312759.829 9  92677550.283 9       270.431 9        60.847 9  23312759.829 9  92677550.283 9       270.431 9        60.847 9
E09  25221486.707 9 132539807.218 9     -2109.718 9        57.363 9  25221486.707 9 132539807.218 9     -2109.718 9        57.363 9  25221487.206 9  98974533.319 9     -1575.438 9        57.223 9  25221487.206 9  98974533.319 9     -1575.438 9        57.223 9  25221487.206 9 101556477.667 9     -1616.537 9        57.223 9  25221487.206 9 101556477.667 9     -1616.537 9        57.223 9  25221487.206 9 100265505.493 9     -1595.988 9        60.234 9  25221487.206 9 100265505.493 9     -1595.988 9        60.234 9
E13  28146550.905 9 147911123.326 9       318.981 9        56.288 9  28146550.905 9 147911123.326 9       318.981 9        56.288 9  28146551.072 9 110453112.226 9       238.200 9        56.148 9  28146551.072 9 110453112.226 9       238.200 9        56.148 9  28146551.072 9 113334497.763 9       244.414 9        56.148 9  28146551.072 9 113334497.763 9       244.414 9        56.148 9  28146551.072 9 111893804.994 9       241.307 9        59.159 9  28146551.072 9 111893804.994 9       241.307 9        59.159 9
E25  27068677.557 9 142246860.648 9      3141.400 9        56.725 9  27068677.557 9 142246860.648 9      3141.400 9        56.725 9  27068678.609 9 106223309.158 9      2345.851 9        56.585 9  27068678.609 9 106223309.158 9      2345.851 9        56.585 9  27068678.609 9 108994352.006 9      2407.047 9        56.585 9  27068678.609 9 108994352.006 9      2407.047 9        56.585 9  27068678.609 9 107608830.582 9      2376.449 9        59.595 9  27068678.609 9 107608830.582 9      2376.449 9        59.595 9
E31  24972000.739 9 131228749.605 9     -1560.943 9        57.421 9  24972000.739 9 131228749.605 9     -1560.943 9        57.421 9  24972001.736 9  97995498.746 9     -1165.639 9        57.281 9  24972001.736 9  97995498.746 9     -1165.639 9        57.281 9  24972001.736 9 100551903.061 9     -1196.047 9        57.281 9  24972001.736 9 100551903.061 9     -1196.047 9        57.281 9  24972001.736 9  99273700.903 9     -1180.843 9        60.292 9  24972001.736 9  99273700.903 9     -1180.843 9        60.292 9
E15  27831562.447 9 146255847.803 9     -1847.360 9        56.361 9  27831562.447 9 146255847.803 9     -1847.360 9        56.361 9  27831564.052 9 109217035.505 9     -1379.522 9        56.221 9  27831564.052 9 109217035.505 9     -1379.522 9        56.221 9  27831564.052 9 112066175.561 9     -1415.510 9        56.221 9  27831564.052 9 112066175.561 9     -1415.510 9        56.221 9  27831564.052 9 110641605.533 9     -1397.516 9        59.231 9  27831564.052 9 110641605.533 9     -1397.516 9        59.231 9
E03  26318119.233 9 138302650.034 9      2475.553 9        56.975 9  26318119.233 9 138302650.034 9      2475.553 9        56.975 9  26318120.119 9 103277956.424 9      1848.627 9        56.835 9  26318120.119 9 103277956.424 9      1848.627 9        56.835 9  26318120.119 9 105972163.983 9      1896.852 9        56.835 9  26318120.119 9 105972163.983 9      1896.852 9        56.835 9  26318120.119 9 104625060.203 9      1872.740 9        59.845 9  26318120.119 9 104625060.203 9      1872.740 9        59.845 9
E24  24081502.318 9 126549148.819 9      1235.241 9        57.797 9  24081502.318 9 126549148.819 9      1235.241 9        57.797 9  24081501.543 9  94500984.712 9       922.420 9        57.657 9  24081501.543 9  94500984.712 9       922.420 9        57.657 9  24081501.543 9  96966227.792 9       946.483 9        57.657 9  24081501.543 9  96966227.792 9       946.483 9        57.657 9  24081501.543 9  95733606.252 9       934.451 9        60.667 9  24081501.543 9  95733606.252 9       934.451 9        60.667 9
> 2023 01 08 10 00 31.0000000  0 19       0.000000000000
G08  25073895.919 9 131764212.389 9     -1510.952 9        54.230 9  25073896.912 8 102673416.319 8     -1177.365 8        49.730 8  25073895.919 9  98395353.407 9     -1128.308 9        56.330 9
G13  20025450.247 9 105234451.321 9       572.187 9        56.113 9  20025447.989 8  82000861.914 8       445.860 8        51.613 8  20025450.247 9  78584168.194 9       427.283 9        58.213 9
G24  24518634.282 9 128846292.793 9      3552.949 9        54.416 9  24518634.824 8 100399710.889 8      2768.532 8        49.916 8  24518634.282 9  96216387.475 9      2653.176 9        56.516 9
G07  24607459.546 9 129313072.707 9     -2995.746 9        54.355 9  24607457.379 8 100763424.402 8     -2334.348 8        49.855 8  24607459.546 9  96564956.891 9     -2237.083 9        56.455 9
G18  24770982.182 9 130172389.956 9     -1360.631 9        54.335 9  24770980.556 8 101433024.478 8     -1060.232 8        49.835 8  24770982.182 9  97206654.837 9     -1016.056 9        56.435 9
G20  23526835.554 9 123634355.299 9     -3640.047 9        54.722 9  23526833.928 8  96338452.018 8     -2836.400 8        50.222 8  23526835.554 9  92324356.230 9     -2718.217 9        56.822 9
G14  20963264.086 9 110162696.310 9       106.750 9        55.781 9  20963262.551 8  85841055.773 8        83.182 8        51.281 8  20963264.086 9  82264351.141 9        79.716 9        57.881 9
G23  24859018.188 9 130635022.294 9      3229.276 9        54.294 9  24859016.563 8 101793517.208 8      2516.319 8        49.794 8  24859018.188 9  97552127.038 9      2411.472 9        56.394 9
G05  21750119.558 9 114297649.723 9     -2424.257 9        55.468 9  21750117.390 8  89063094.804 8     -1889.031 8        50.968 8  21750119.558 9  85352141.027 9     -1810.321 9        57.568 9
G30  21863976.905 9 114895974.122 9     -2283.019 9        55.473 9  21863977.628 8  89529333.443 8     -1778.976 8        50.973 8  21863976.905 9  85798941.714 9     -1704.852 9        57.573 9
G15  21111264.006 9 110940441.135 9      2298.302 9        55.713 9  21111261.928 8  86447088.483 8      1790.885 8        51.213 8  21111264.006 9  82845134.614 9      1716.265 9        57.813 9
E05  23312690.906 9 122509017.579 9       357.013 9        57.977 9  23312690.906 9 122509017.579 9       357.013 9        57.977 9  23312691.847 9  91484010.328 9       266.600 9        57.837 9  23312691.847 9  91484010.328 9       266.600 9        57.837 9  23312691.847 9  93870549.728 9       273.555 9        57.837 9  23312691.847 9  93870549.728 9       273.555 9        57.837 9  23312691.847 9  92677280.028 9       270.078 9        60.847 9  23312691.847 9  92677280.028 9       270.078 9        60.847 9
E09  25221888.101 9 132541916.553 9     -2108.949 9        57.363 9  25221888.101 9 132541916.553 9     -2108.949 9        57.363 9  25221888.599 9  98976108.473 9     -1574.864 9        57.223 9  25221888.599 9  98976108.473 9     -1574.864 9        57.223 9  25221888.599 9 101558093.911 9     -1615.948 9        57.223 9  25221888.599 9 101558093.911 9     -1615.948 9        57.223 9  25221888.599 9 100267101.192 9     -1595.406 9        60.234 9  25221888.599 9 100267101.192 9     -1595.406 9        60.234 9
E13  28146490.393 9 147910805.329 9       317.022 9        56.288 9  28146490.393 9 147910805.329 9       317.022 9        56.288 9  28146490.559 9 110452874.761 9       236.738 9        56.148 9  28146490.559 9 110452874.761 9       236.738 9        56.148 9  28146490.559 9 113334254.103 9       242.913 9        56.148 9  28146490.559 9 113334254.103 9       242.913 9        56.148 9  28146490.559 9 111893564.432 9       239.825 9        59.159 9  28146490.559 9 111893564.432 9       239.825 9        59.159 9
E25  27068079.686 9 142243718.814 9      3142.242 9        56.725 9  27068079.686 9 142243718.814 9      3142.242 9        56.725 9  27068080.738 9 106220962.983 9      2346.480 9        56.585 9  27068080.738 9 106220962.983 9      2346.480 9        56.585 9  27068080.738 9 108991944.626 9      2407.692 9        56.585 9  27068080.738 9 108991944.626 9      2407.692 9        56.585 9  27068080.738 9 107606453.804 9      2377.086 9        59.595 9  27068080.738 9 107606453.804 9      2377.086 9        59.595 9
E31  24972297.821 9 131230310.778 9     -1561.385 9        57.421 9  24972297.821 9 131230310.778 9     -1561.385 9        57.421 9  24972298.817 9  97996664.557 9     -1165.970 9        57.281 9  24972298.817 9  97996664.557 9     -1165.970 9        57.281 9  24972298.817 9 100553099.285 9     -1196.386 9        57.281 9  24972298.817 9 100553099.285 9     -1196.386 9        57.281 9  24972298.817 9  99274881.921 9     -1181.178 9        60.291 9  24972298.817 9  99274881.921 9     -1181.178 9        60.291 9
E15  27831914.133 9 146257695.927 9     -1848.900 9        56.361 9  27831914.133 9 146257695.927 9     -1848.900 9        56.361 9  27831915.739 9 109218415.598 9     -1380.672 9        56.221 9  27831915.739 9 109218415.598 9     -1380.672 9        56.221 9  27831915.739 9 112067591.657 9     -1416.689 9        56.221 9  27831915.739 9 112067591.657 9     -1416.689 9        56.221 9  27831915.739 9 110643003.627 9     -1398.681 9        59.231 9  27831915.739 9 110643003.627 9     -1398.681 9        59.231 9
E03  26317648.268 9 138300175.100 9      2474.300 9        56.975 9  26317648.268 9 138300175.100 9      2474.300 9        56.975 9  26317649.154 9 103276108.259 9      1847.692 9        56.835 9  26317649.154 9 103276108.259 9      1847.692 9        56.835 9  26317649.154 9 105970267.605 9      1895.892 9        56.835 9  26317649.154 9 105970267.605 9      1895.892 9        56.835 9  26317649.154 9 104623187.932 9      1871.792 9        59.845 9  26317649.154 9 104623187.932 9      1871.792 9        59.845 9
E24  24081267.235 9 126547913.448 9      1235.500 9        57.797 9  24081267.235 9 126547913.448 9      1235.500 9        57.797 9  24081266.460 9  94500062.195 9       922.613 9        57.657 9  24081266.460 9  94500062.195 9       922.613 9        57.657 9  24081266.460 9  96965281.209 9       946.682 9        57.657 9  24081266.460 9  96965281.209 9       946.682 9        57.657 9  24081266.460 9  95732671.702 9       934.647 9        60.667 9  24081266.460 9  95732671.702 9       934.647 9        60.667 9
> 2023 01 08 10 00 32.0000000  0 19       0.000000000000
G08  25074183.575 9 131765724.029 9     -1512.310 9        54.230 9  25074184.568 8 102674594.221 8     -1178.423 8        49.730 8  25074183.575 9  98396482.230 9     -1129.322 9        56.330 9
G13  20025341.436 9 105233879.514 9       571.436 9        56.113 9  20025339.178 8  82000416.350 8       445.275 8        51.613 8  20025341.436 9  78583741.195 9       426.722 9        58.213 9
G24  24517958.233 9 128842740.132 9      3552.343 9        54.416 9  24517958.775 8 100396942.582 8      2768.060 8        49.916 8  24517958.233 9  96213734.514 9      2652.724 9        56.516 9
G07  24608029.594 9 129316068.326 9     -2995.471 9        54.354 9  24608027.426 8 100765758.651 8     -2334.133 8        49.854 8  24608029.594 9  96567193.879 9     -2236.878 9        56.454 9
G18  24771241.274 9 130173751.498 9     -1362.461 9        54.335 9  24771239.649 8 101434085.419 8     -1061.658 8        49.835 8  24771241.274 9  97207671.573 9     -1017.422 9        56.435 9
G20  23527528.149 9 123637994.909 9     -3639.184 9        54.722 9  23527526.523 8  96341288.078 8     -2835.728 8        50.222 8  23527528.149 9  92327074.121 9     -2717.573 9        56.822 9
G14  20963243.786 9 110162589.634 9       106.621 9        55.781 9  20963242.251 8  85840972.649 8        83.081 8        51.281 8  20963243.786 9  82264271.480 9        79.620 9        57.881 9
G23  24858403.848 9 130631793.912 9      3227.485 9        54.294 9  24858402.222 8 101791001.586 8      2514.924 8        49.794 8  24858403.848 9  97549716.233 9      2410.135 9        56.394 9
G05  21750580.894 9 114300074.061 9     -2424.426 9        55.468 9  21750578.727 8  89064983.899 8     -1889.163 8        50.968 8  21750580.894 9  85353951.409 9     -1810.448 9        57.568 9
G30  21864411.358 9 114898257.187 9     -2283.089 9        55.473 9  21864412.081 8  89531112.455 8     -1779.030 8        50.973 8  21864411.358 9  85800646.601 9     -1704.904 9        57.573 9
G15  21110826.777 9 110938143.485 9      2296.996 9        55.713 9  21110824.700 8  86445298.105 8      1789.867 8        51.213 8  21110826.777 9  82843418.836 9      1715.289 9        57.813 9
E05  23312623.015 9 122508660.809 9       356.537 9        57.977 9  23312623.015 9 122508660.809 9       356.537 9        57.977 9  23312623.956 9  91483743.908 9       266.245 9        57.837 9  23312623.956 9  91483743.908 9       266.245 9        57.837 9  23312623.956 9  93870276.358 9       273.191 9        57.837 9  23312623.956 9  93870276.358 9       273.191 9        57.837 9  23312623.956 9  92677010.133 9       269.718 9        60.847 9  23312623.956 9  92677010.133 9       269.718 9        60.847 9
E09  25222289.345 9 132544025.106 9     -2108.145 9        57.363 9  25222289.345 9 132544025.106 9     -2108.145 9        57.363 9  25222289.843 9  98977683.041 9     -1574.264 9        57.223 9  25222289.843 9  98977683.041 9     -1574.264 9        57.223 9  25222289.843 9 101559709.555 9     -1615.332 9        57.223 9  25222289.843 9 101559709.555 9     -1615.332 9        57.223 9  25222289.843 9 100268696.298 9     -1594.798 9        60.234 9  25222289.843 9 100268696.298 9     -1594.798 9        60.234 9
E13  28146430.249 9 147910489.273 9       315.096 9        56.288 9  28146430.249 9 147910489.273 9       315.096 9        56.288 9  28146430.415 9 110452638.745 9       235.299 9        56.148 9  28146430.415 9 110452638.745 9       235.299 9        56.148 9  28146430.415 9 113334011.930 9       241.438 9        56.148 9  28146430.415 9 113334011.930 9       241.438 9        56.148 9  28146430.415 9 111893325.338 9       238.368 9        59.159 9  28146430.415 9 111893325.338 9       238.368 9        59.159 9
E25  27067481.663 9 142240576.186 9      3142.996 9        56.725 9  27067481.663 9 142240576.186 9      3142.996 9        56.725 9  27067482.715 9 106218616.216 9      2347.042 9        56.585 9  27067482.715 9 106218616.216 9      2347.042 9        56.585 9  27067482.715 9 108989536.639 9      2408.270 9        56.585 9  27067482.715 9 108989536.639 9      2408.270 9        56.585 9  27067482.715 9 107604076.427 9      2377.656 9        59.596 9  27067482.715 9 107604076.427 9      2377.656 9        59.596 9
E31  24972594.979 9 131231872.355 9     -1561.743 9        57.421 9  24972594.979 9 131231872.355 9     -1561.743 9        57.421 9  24972595.975 9  97997830.669 9     -1166.237 9        57.281 9  24972595.975 9  97997830.669 9     -1166.237 9        57.281 9  24972595.975 9 100554295.817 9     -1196.660 9        57.281 9  24972595.975 9 100554295.817 9     -1196.660 9        57.281 9  24972595.975 9  99276063.243 9     -1181.448 9        60.291 9  24972595.975 9  99276063.243 9     -1181.448 9        60.291 9
E15  27832266.118 9 146259545.623 9     -1850.500 9        56.361 9  27832266.118 9 146259545.623 9     -1850.500 9        56.361 9  27832267.724 9 109219796.864 9     -1381.867 9        56.221 9  27832267.724 9 109219796.864 9     -1381.867 9        56.221 9  27832267.724 9 112069008.956 9     -1417.916 9        56.221 9  27832267.724 9 112069008.956 9     -1417.916 9        56.221 9  27832267.724 9 110644402.910 9     -1399.892 9        59.231 9  27832267.724 9 110644402.910 9     -1399.892 9        59.231 9
E03  26317177.547 9 138297701.444 9      2473.002 9        56.975 9  26317177.547 9 138297701.444 9      2473.002 9        56.975 9  26317178.433 9 103274261.049 9      1846.722 9        56.835 9  26317178.433 9 103274261.049 9      1846.722 9        56.835 9  26317178.433 9 105968372.206 9      1894.898 9        56.835 9  26317178.433 9 105968372.206 9      1894.898 9        56.835 9  26317178.433 9 104621316.627 9      1870.810 9        59.846 9  26317178.433 9 104621316.627 9      1870.810 9        59.846 9
E24  24081032.104 9 126546677.825 9      1235.756 9        57.797 9  24081032.104 9 126546677.825 9      1235.756 9        57.797 9  24081031.329 9  94499139.490 9       922.805 9        57.657 9  24081031.329 9  94499139.490 9       922.805 9        57.657 9  24081031.329 9  96964334.433 9       946.878 9        57.657 9  24081031.329 9  96964334.433 9       946.878 9        57.657 9  24081031.329 9  95731736.961 9       934.841 9        60.667 9  24081031.329 9  95731736.961 9       934.841 9        60.667 9
> 2023 01 08 10 00 33.0000000  0 19       0.000000000000
G08  25074471.480 9 131767236.981 9     -1513.577 9        54.230 9  25074472.473 8 102675773.144 8     -1179.410 8        49.730 8  25074471.480 9  98397612.032 9     -1130.268 9        56.330 9
G13  20025232.768 9 105233308.465 9       570.666 9        56.113 9  20025230.511 8  81999971.376 8       444.675 8        51.613 8  20025232.768 9  78583314.763 9       426.147 9        58.213 9
G24  24517282.308 9 128839188.121 9      3551.651 9        54.417 9  24517282.850 8 100394174.781 8      2767.521 8        49.917 8  24517282.308 9  96211082.039 9      2652.207 9        56.517 9
G07  24608599.580 9 129319063.625 9     -2995.111 9        54.354 9  24608597.412 8 100768092.650 8     -2333.852 8        49.854 8  24608599.580 9  96569430.629 9     -2236.609 9        56.454 9
G18  24771500.718 9 130175114.883 9     -1364.319 9        54.335 9  24771499.092 8 101435147.798 8     -1063.105 8        49.835 8  24771500.718 9  97208689.686 9     -1018.809 9        56.435 9
G20  23528220.587 9 123641633.699 9     -3638.406 9        54.722 9  23528218.962 8  96344123.498 8     -2835.122 8        50.222 8  23528220.587 9  92329791.399 9     -2716.992 9        56.822 9
G14  20963223.510 9 110162483.079 9       106.503 9        55.781 9  20963221.974 8  85840889.619 8        82.990 8        51.281 8  20963223.510 9  82264191.910 9        79.532 9        57.881 9
G23  24857789.846 9 130628567.310 9      3225.713 9        54.294 9  24857788.220 8 101788487.351 8      2513.543 8        49.794 8  24857789.846 9  97547306.757 9      2408.812 9        56.394 9
G05  21751042.270 9 114302498.609 9     -2424.679 9        55.467 9  21751040.103 8  89066873.157 8     -1889.360 8        50.967 8  21751042.270 9  85355761.948 9     -1810.637 9        57.567 9
G30  21864845.819 9 114900540.293 9     -2283.107 9        55.473 9  21864846.541 8  89532891.499 8     -1779.045 8        50.973 8  21864845.819 9  85802351.518 9     -1704.918 9        57.573 9
G15  21110389.800 9 110935847.155 9      2295.657 9        55.714 9  21110387.723 8  86443508.757 8      1788.824 8        51.214 8  21110389.800 9  82841704.044 9      1714.289 9        57.814 9
E05  23312555.216 9 122508304.523 9       356.037 9        57.977 9  23312555.216 9 122508304.523 9       356.037 9        57.977 9  23312556.157 9  91483477.851 9       265.872 9        57.837 9  23312556.157 9  91483477.851 9       265.872 9        57.837 9  23312556.157 9  93870003.360 9       272.807 9        57.837 9  23312556.157 9  93870003.360 9       272.807 9        57.837 9  23312556.157 9  92676740.606 9       269.340 9        60.847 9  23312556.157 9  92676740.606 9       269.340 9        60.847 9
E09  25222690.436 9 132546132.853 9     -2107.340 9        57.363 9  25222690.436 9 132546132.853 9     -2107.340 9        57.363 9  25222690.934 9  98979257.008 9     -1573.663 9        57.223 9  25222690.934 9  98979257.008 9     -1573.663 9        57.223 9  25222690.934 9 101561324.582 9     -1614.715 9        57.223 9  25222690.934 9 101561324.582 9     -1614.715 9        57.223 9  25222690.934 9 100270290.795 9     -1594.189 9        60.233 9  25222690.934 9 100270290.795 9     -1594.189 9        60.233 9
E13  28146370.468 9 147910175.119 9       313.216 9        56.288 9  28146370.468 9 147910175.119 9       313.216 9        56.288 9  28146370.634 9 110452404.150 9       233.895 9        56.149 9  28146370.634 9 110452404.150 9       233.895 9        56.149 9  28146370.634 9 113333771.215 9       239.997 9        56.149 9  28146370.634 9 113333771.215 9       239.997 9        56.149 9  28146370.634 9 111893087.682 9       236.946 9        59.159 9  28146370.634 9 111893087.682 9       236.946 9        59.159 9
E25  27066883.507 9 142237432.851 9      3143.658 9        56.725 9  27066883.507 9 142237432.851 9      3143.658 9        56.725 9  27066884.559 9 106216268.920 9      2347.537 9        56.586 9  27066884.559 9 106216268.920 9      2347.537 9        56.586 9  27066884.559 9 108987128.109 9      2408.777 9        56.586 9  27066884.559 9 108987128.109 9      2408.777 9        56.586 9  27066884.559 9 107601698.514 9      2378.157 9        59.596 9  27066884.559 9 107601698.514 9      2378.157 9        59.596 9
E31  24972892.199 9 131233434.257 9     -1562.045 9        57.421 9  24972892.199 9 131233434.257 9     -1562.045 9        57.421 9  24972893.195 9  97998997.026 9     -1166.462 9        57.281 9  24972893.195 9  97998997.026 9     -1166.462 9        57.281 9  24972893.195 9 100555492.600 9     -1196.892 9        57.281 9  24972893.195 9 100555492.600 9     -1196.892 9        57.281 9  24972893.195 9  99277244.813 9     -1181.677 9        60.291 9  24972893.195 9  99277244.813 9     -1181.677 9        60.291 9
E15  27832618.412 9 146261396.937 9     -1852.136 9        56.361 9  27832618.412 9 146261396.937 9     -1852.136 9        56.361 9  27832620.017 9 109221179.338 9     -1383.089 9        56.221 9  27832620.017 9 109221179.338 9     -1383.089 9        56.221 9  27832620.017 9 112070427.495 9     -1419.169 9        56.221 9  27832620.017 9 112070427.495 9     -1419.169 9        56.221 9  27832620.017 9 110645803.417 9     -1401.129 9        59.231 9  27832620.017 9 110645803.417 9     -1401.129 9        59.231 9
E03  26316707.076 9 138295229.100 9      2471.676 9        56.975 9  26316707.076 9 138295229.100 9      2471.676 9        56.975 9  26316707.962 9 103272414.817 9      1845.732 9        56.835 9  26316707.962 9 103272414.817 9      1845.732 9        56.835 9  26316707.962 9 105966477.813 9      1893.881 9        56.835 9  26316707.962 9 105966477.813 9      1893.881 9        56.835 9  26316707.962 9 104619446.315 9      1869.807 9        59.846 9  26316707.962 9 104619446.315 9      1869.807 9        59.846 9
E24  24080796.926 9 126545441.959 9      1235.982 9        57.797 9  24080796.926 9 126545441.959 9      1235.982 9        57.797 9  24080796.151 9  94498216.603 9       922.973 9        57.657 9  24080796.151 9  94498216.603 9       922.973 9        57.657 9  24080796.151 9  96963387.471 9       947.051 9        57.657 9  24080796.151 9  96963387.471 9       947.051 9        57.657 9  24080796.151 9  95730802.037 9       935.012 9        60.667 9  24080796.151 9  95730802.037 9       935.012 9        60.667 9
> 2023 01 08 10 00 34.0000000  0 19       0.000000000000
G08  25074759.616 9 131768751.148 9     -1514.741 9        54.230 9  25074760.609 8 102676953.015 8     -1180.318 8        49.730 8  25074759.616 9  98398742.740 9     -1131.138 9        56.330 9
G13  20025124.246 9 105232738.173 9       569.904 9        56.113 9  20025121.988 8  81999526.993 8       444.081 8        51.613 8  20025124.246 9  78582888.896 9       425.578 9        58.213 9
G24  24516606.524 9 128835636.851 9      3550.869 9        54.417 9  24516607.066 8 100391407.557 8      2766.911 8        49.917 8  24516606.524 9  96208430.116 9      2651.623 9        56.517 9
G07  24609169.487 9 129322058.509 9     -2994.651 9        54.354 9  24609167.320 8 100770426.326 8     -2333.494 8        49.854 8  24609169.487 9  96571667.068 9     -2236.265 9        56.454 9
G18  24771760.519 9 130176480.145 9     -1366.205 9        54.334 9  24771758.893 8 101436211.638 8     -1064.575 8        49.834 8  24771760.519 9  97209709.199 9     -1020.218 9        56.434 9
G20  23528912.885 9 123645271.749 9     -3637.712 9        54.722 9  23528911.260 8  96346958.342 8     -2834.581 8        50.222 8  23528912.885 9  92332508.124 9     -2716.473 9        56.822 9
G14  20963203.249 9 110162376.611 9       106.425 9        55.781 9  20963201.714 8  85840806.656 8        82.929 8        51.281 8  20963203.249 9  82264112.404 9        79.473 9        57.881 9
G23  24857176.180 9 130625342.472 9      3223.965 9        54.295 9  24857174.554 8 101785974.490 8      2512.180 8        49.795 8  24857176.180 9  97544898.599 9      2407.506 9        56.395 9
G05  21751503.700 9 114304923.440 9     -2425.003 9        55.467 9  21751501.533 8  89068762.636 8     -1889.613 8        50.967 8  21751503.700 9  85357572.698 9     -1810.879 9        57.567 9
G30  21865280.274 9 114902823.370 9     -2283.048 9        55.473 9  21865280.996 8  89534670.520 8     -1778.999 8        50.973 8  21865280.274 9  85804056.413 9     -1704.874 9        57.573 9
G15  21109953.079 9 110933552.168 9      2294.303 9        55.714 9  21109951.001 8  86441720.456 8      1787.769 8        51.214 8  21109953.079 9  82839990.255 9      1713.278 9        57.814 9
E05  23312487.511 9 122507948.729 9       355.539 9        57.977 9  23312487.511 9 122507948.729 9       355.539 9        57.977 9  23312488.452 9  91483212.160 9       265.500 9        57.837 9  23312488.452 9  91483212.160 9       265.500 9        57.837 9  23312488.452 9  93869730.738 9       272.426 9        57.837 9  23312488.452 9  93869730.738 9       272.426 9        57.837 9  23312488.452 9  92676471.449 9       268.963 9        60.847 9  23312488.452 9  92676471.449 9       268.963 9        60.847 9
E09  25223091.370 9 132548239.774 9     -2106.514 9        57.363 9  25223091.370 9 132548239.774 9     -2106.514 9        57.363 9  25223091.868 9  98980830.358 9     -1573.046 9        57.223 9  25223091.868 9  98980830.358 9     -1573.046 9        57.223 9  25223091.868 9 101562938.976 9     -1614.082 9        57.223 9  25223091.868 9 101562938.976 9     -1614.082 9        57.223 9  25223091.868 9 100271884.667 9     -1593.564 9        60.233 9  25223091.868 9 100271884.667 9     -1593.564 9        60.233 9
E13  28146311.040 9 147909862.823 9       311.387 9        56.288 9  28146311.040 9 147909862.823 9       311.387 9        56.288 9  28146311.206 9 110452170.942 9       232.530 9        56.149 9  28146311.206 9 110452170.942 9       232.530 9        56.149 9  28146311.206 9 113333531.923 9       238.596 9        56.149 9  28146311.206 9 113333531.923 9       238.596 9        56.149 9  28146311.206 9 111892851.432 9       235.563 9        59.159 9  28146311.206 9 111892851.432 9       235.563 9        59.159 9
E25  27066285.232 9 142234288.896 9      3144.230 9        56.726 9  27066285.232 9 142234288.896 9      3144.230 9        56.726 9  27066286.284 9 106213921.161 9      2347.964 9        56.586 9  27066286.284 9 106213921.161 9      2347.964 9        56.586 9  27066286.284 9 108984719.104 9      2409.215 9        56.586 9  27066286.284 9 108984719.104 9      2409.215 9        56.586 9  27066286.284 9 107599320.133 9      2378.589 9        59.596 9  27066286.284 9 107599320.133 9      2378.589 9        59.596 9
E31  24973189.467 9 131234996.413 9     -1562.265 9        57.421 9  24973189.467 9 131234996.413 9     -1562.265 9        57.421 9  24973190.464 9  98000163.570 9     -1166.626 9        57.281 9  24973190.464 9  98000163.570 9     -1166.626 9        57.281 9  24973190.464 9 100556689.576 9     -1197.060 9        57.281 9  24973190.464 9 100556689.576 9     -1197.060 9        57.281 9  24973190.464 9  99278426.573 9     -1181.843 9        60.291 9  24973190.464 9  99278426.573 9     -1181.843 9        60.291 9
E15  27832971.021 9 146263249.909 9     -1853.808 9        56.361 9  27832971.021 9 146263249.909 9     -1853.808 9        56.361 9  27832972.626 9 109222563.051 9     -1384.337 9        56.221 9  27832972.626 9 109222563.051 9     -1384.337 9        56.221 9  27832972.626 9 112071847.305 9     -1420.450 9        56.221 9  27832972.626 9 112071847.305 9     -1420.450 9        56.221 9  27832972.626 9 110647205.178 9     -1402.394 9        59.231 9  27832972.626 9 110647205.178 9     -1402.394 9        59.231 9
E03  26316236.859 9 138292758.092 9      2470.330 9        56.975 9  26316236.859 9 138292758.092 9      2470.330 9        56.975 9  26316237.745 9 103270569.585 9      1844.727 9        56.836 9  26316237.745 9 103270569.585 9      1844.727 9        56.836 9  26316237.745 9 105964584.443 9      1892.850 9        56.836 9  26316237.745 9 105964584.443 9      1892.850 9        56.836 9  26316237.745 9 104617577.014 9      1868.788 9        59.846 9  26316237.745 9 104617577.014 9      1868.788 9        59.846 9
E24  24080561.704 9 126544205.860 9      1236.202 9        57.797 9  24080561.704 9 126544205.860 9      1236.202 9        57.797 9  24080560.929 9  94497293.541 9       923.138 9        57.657 9  24080560.929 9  94497293.541 9       923.138 9        57.657 9  24080560.929 9  96962440.330 9       947.219 9        57.657 9  24080560.929 9  96962440.330 9       947.219 9        57.657 9  24080560.929 9  95729866.935 9       935.179 9        60.668 9  24080560.929 9  95729866.935 9       935.179 9        60.668 9
> 2023 01 08 10 00 35.0000000  0 19       0.000000000000
G08  25075047.965 9 131770266.431 9     -1515.809 9        54.230 9  25075048.958 8 102678133.754 8     -1181.150 8        49.730 8  25075047.965 9  98399874.283 9     -1131.935 9        56.330 9
G13  20025015.867 9 105232168.641 9       569.152 9        56.113 9  20025013.609 8  81999083.202 8       443.495 8        51.613 8  20025015.867 9  78582463.595 9       425.016 9        58.213 9
G24  24515930.897 9 128832086.408 9      3550.000 9        54.417 9  24515931.439 8 100388640.978 8      2766.234 8        49.917 8  24515930.897 9  96205778.811 9      2650.974 9        56.517 9
G07  24609739.298 9 129325052.884 9     -2994.096 9        54.354 9  24609737.131 8 100772759.605 8     -2333.062 8        49.854 8  24609739.298 9  96573903.128 9     -2235.851 9        56.454 9
G18  24772020.681 9 130177847.309 9     -1368.118 9        54.334 9  24772019.056 8 101437276.961 8     -1066.066 8        49.834 8  24772020.681 9  97210730.133 9     -1021.647 9        56.434 9
G20  23529605.058 9 123648909.143 9     -3637.095 9        54.721 9  23529603.433 8  96349792.675 8     -2834.100 8        50.221 8  23529605.058 9  92335224.360 9     -2716.013 9        56.821 9
G14  20963183.000 9 110162270.201 9       106.387 9        55.781 9  20963181.465 8  85840723.740 8        82.899 8        51.281 8  20963183.000 9  82264032.942 9        79.445 9        57.881 9
G23  24856562.844 9 130622119.374 9      3222.238 9        54.295 9  24856561.219 8 101783462.985 8      2510.835 8        49.795 8  24856562.844 9  97542491.741 9      2406.217 9        56.395 9
G05  21751965.198 9 114307348.629 9     -2425.393 9        55.467 9  21751963.031 8  89070652.394 8     -1889.916 8        50.967 8  21751965.198 9  85359383.716 9     -1811.170 9        57.567 9
G30  21865714.711 9 114905106.350 9     -2282.914 9        55.472 9  21865715.433 8  89536449.465 8     -1778.894 8        50.972 8  21865714.711 9  85805761.235 9     -1704.773 9        57.572 9
G15  21109516.617 9 110931258.545 9      2292.936 9        55.714 9  21109514.539 8  86439933.217 8      1786.703 8        51.214 8  21109516.617 9  82838277.485 9      1712.257 9        57.814 9
E05  23312419.900 9 122507593.432 9       355.045 9        57.977 9  23312419.900 9 122507593.432 9       355.045 9        57.977 9  23312420.841 9  91482946.841 9       265.131 9        57.837 9  23312420.841 9  91482946.841 9       265.131 9        57.837 9  23312420.841 9  93869458.498 9       272.048 9        57.837 9  23312420.841 9  93869458.498 9       272.048 9        57.837 9  23312420.841 9  92676202.669 9       268.589 9        60.847 9  23312420.841 9  92676202.669 9       268.589 9        60.847 9
E09  25223492.144 9 132550345.856 9     -2105.665 9        57.363 9  25223492.144 9 132550345.856 9     -2105.665 9        57.363 9  25223492.642 9  98982403.082 9     -1572.412 9        57.223 9  25223492.642 9  98982403.082 9     -1572.412 9        57.223 9  25223492.642 9 101564552.728 9     -1613.432 9        57.223 9  25223492.642 9 101564552.728 9     -1613.432 9        57.223 9  25223492.642 9 100273477.905 9     -1592.922 9        60.233 9  25223492.642 9 100273477.905 9     -1592.922 9        60.233 9
E13  28146251.955 9 147909552.333 9       309.607 9        56.288 9  28146251.955 9 147909552.333 9       309.607 9        56.288 9  28146252.121 9 110451939.082 9       231.200 9        56.149 9  28146252.121 9 110451939.082 9       231.200 9        56.149 9  28146252.121 9 113333294.015 9       237.231 9        56.149 9  28146252.121 9 113333294.015 9       237.231 9        56.149 9  28146252.121 9 111892616.549 9       234.216 9        59.159 9  28146252.121 9 111892616.549 9       234.216 9        59.159 9
E25  27065686.856 9 142231144.411 9      3144.717 9        56.726 9  27065686.856 9 142231144.411 9      3144.717 9        56.726 9  27065687.908 9 106211573.007 9      2348.327 9        56.586 9  27065687.908 9 106211573.007 9      2348.327 9        56.586 9  27065687.908 9 108982309.694 9      2409.588 9        56.586 9  27065687.908 9 108982309.694 9      2409.588 9        56.586 9  27065687.908 9 107596941.351 9      2378.958 9        59.596 9  27065687.908 9 107596941.351 9      2378.958 9        59.596 9
E31  24973486.770 9 131236558.748 9     -1562.405 9        57.421 9  24973486.770 9 131236558.748 9     -1562.405 9        57.421 9  24973487.766 9  98001330.249 9     -1166.731 9        57.281 9  24973487.766 9  98001330.249 9     -1166.731 9        57.281 9  24973487.766 9 100557886.690 9     -1197.168 9        57.281 9  24973487.766 9 100557886.690 9     -1197.168 9        57.281 9  24973487.766 9  99279608.470 9     -1181.949 9        60.291 9  24973487.766 9  99279608.470 9     -1181.949 9        60.291 9
E15  27833323.951 9 146265104.573 9     -1855.515 9        56.360 9  27833323.951 9 146265104.573 9     -1855.515 9        56.360 9  27833325.557 9 109223948.028 9     -1385.612 9        56.221 9  27833325.557 9 109223948.028 9     -1385.612 9        56.221 9  27833325.557 9 112073268.411 9     -1421.758 9        56.221 9  27833325.557 9 112073268.411 9     -1421.758 9        56.221 9  27833325.557 9 110648608.220 9     -1403.685 9        59.231 9  27833325.557 9 110648608.220 9     -1403.685 9        59.231 9
E03  26315766.900 9 138290288.443 9      2468.966 9        56.976 9  26315766.900 9 138290288.443 9      2468.966 9        56.976 9  26315767.786 9 103268725.366 9      1843.708 9        56.836 9  26315767.786 9 103268725.366 9      1843.708 9        56.836 9  26315767.786 9 105962692.114 9      1891.805 9        56.836 9  26315767.786 9 105962692.114 9      1891.805 9        56.836 9  26315767.786 9 104615708.740 9      1867.757 9        59.846 9  26315767.786 9 104615708.740 9      1867.757 9        59.846 9
E24  24080326.441 9 126542969.542 9      1236.418 9        57.797 9  24080326.441 9 126542969.542 9      1236.418 9        57.797 9  24080325.666 9  94496370.318 9       923.300 9        57.657 9  24080325.666 9  94496370.318 9       923.300 9        57.657 9  24080325.666 9  96961493.021 9       947.386 9        57.657 9  24080325.666 9  96961493.021 9       947.386 9        57.657 9  24080325.666 9  95728931.670 9       935.343 9        60.668 9  24080325.666 9  95728931.670 9       935.343 9        60.668 9
> 2023 01 08 10 00 36.0000000  0 19       0.000000000000
G08  25075336.507 9 131771782.729 9     -1516.771 9        54.230 9  25075337.500 8 102679315.285 8     -1181.899 8        49.730 8  25075336.507 9  98401006.583 9     -1132.653 9        56.330 9
G13  20024907.633 9 105231599.864 9       568.403 9        56.113 9  20024905.375 8  81998639.999 8       442.912 8        51.613 8  20024907.633 9  78582038.860 9       424.457 9        58.213 9
G24  24515255.443 9 128828536.874 9      3549.047 9        54.417 9  24515255.985 8 100385875.108 8      2765.491 8        49.917 8  24515255.443 9  96203128.185 9      2650.262 9        56.517 9
G07  24610308.995 9 129328046.661 9     -2993.450 9        54.354 9  24610306.827 8 100775092.419 8     -2332.558 8        49.854 8  24610308.995 9  96576138.741 9     -2235.368 9        56.454 9
G18  24772281.210 9 130179216.394 9     -1370.049 9        54.334 9  24772279.584 8 101438343.780 8     -1067.571 8        49.834 8  24772281.210 9  97211752.502 9     -1023.089 9        56.434 9
G20  23530297.123 9 123652545.969 9     -3636.571 9        54.721 9  23530295.498 8  96352626.566 8     -2833.691 8        50.221 8  23530297.123 9  92337940.172 9     -2715.621 9        56.821 9
G14  20963162.757 9 110162163.823 9       106.375 9        55.781 9  20963161.222 8  85840640.847 8        82.890 8        51.281 8  20963162.757 9  82263953.504 9        79.436 9        57.881 9
G23  24855949.834 9 130618897.985 9      3220.545 9        54.295 9  24855948.209 8 101780952.812 8      2509.516 8        49.795 8  24855949.834 9  97540086.157 9      2404.953 9        56.395 9
G05  21752426.779 9 114309774.250 9     -2425.860 9        55.467 9  21752424.611 8  89072542.488 8     -1890.280 8        50.967 8  21752426.779 9  85361195.057 9     -1811.518 9        57.567 9
G30  21866149.116 9 114907389.167 9     -2282.711 9        55.472 9  21866149.839 8  89538228.283 8     -1778.736 8        50.972 8  21866149.116 9  85807465.936 9     -1704.622 9        57.572 9
G15  21109080.416 9 110928966.298 9      2291.557 9        55.714 9  21109078.339 8  86438147.051 8      1785.629 8        51.214 8  21109080.416 9  82836565.742 9      1711.227 9        57.814 9
E05  23312352.384 9 122507238.636 9       354.548 9        57.977 9  23312352.384 9 122507238.636 9       354.548 9        57.977 9  23312353.326 9  91482681.896 9       264.760 9        57.837 9  23312353.326 9  91482681.896 9       264.760 9        57.837 9  23312353.326 9  93869186.641 9       271.666 9        57.837 9  23312353.326 9  93869186.641 9       271.666 9        57.837 9  23312353.326 9  92675934.269 9       268.213 9        60.847 9  23312353.326 9  92675934.269 9       268.213 9        60.847 9
E09  25223892.757 9 132552451.092 9     -2104.809 9        57.363 9  25223892.757 9 132552451.092 9     -2104.809 9        57.363 9  25223893.255 9  98983975.174 9     -1571.773 9        57.223 9  25223893.255 9  98983975.174 9     -1571.773 9        57.223 9  25223893.255 9 101566165.831 9     -1612.776 9        57.223 9  25223893.255 9 101566165.831 9     -1612.776 9        57.223 9  25223893.255 9 100275070.502 9     -1592.274 9        60.233 9  25223893.255 9 100275070.502 9     -1592.274 9        60.233 9
E13  28146193.204 9 147909243.591 9       307.888 9        56.288 9  28146193.204 9 147909243.591 9       307.888 9        56.288 9  28146193.370 9 110451708.528 9       229.917 9        56.149 9  28146193.370 9 110451708.528 9       229.917 9        56.149 9  28146193.370 9 113333057.447 9       235.914 9        56.149 9  28146193.370 9 113333057.447 9       235.914 9        56.149 9  28146193.370 9 111892382.988 9       232.916 9        59.159 9  28146193.370 9 111892382.988 9       232.916 9        59.159 9
E25  27065088.398 9 142227999.491 9      3145.106 9        56.726 9  27065088.398 9 142227999.491 9      3145.106 9        56.726 9  27065089.450 9 106209224.527 9      2348.618 9        56.586 9  27065089.450 9 106209224.527 9      2348.618 9        56.586 9  27065089.450 9 108979899.950 9      2409.887 9        56.586 9  27065089.450 9 108979899.950 9      2409.887 9        56.586 9  27065089.450 9 107594562.239 9      2379.253 9        59.596 9  27065089.450 9 107594562.239 9      2379.253 9        59.596 9
E31  24973784.093 9 131238121.192 9     -1562.471 9        57.420 9  24973784.093 9 131238121.192 9     -1562.471 9        57.420 9  24973785.089 9  98002497.009 9     -1166.781 9        57.281 9  24973785.089 9  98002497.009 9     -1166.781 9        57.281 9  24973785.089 9 100559083.887 9     -1197.218 9        57.281 9  24973785.089 9 100559083.887 9     -1197.218 9        57.281 9  24973785.089 9  99280790.448 9     -1181.999 9        60.291 9  24973785.089 9  99280790.448 9     -1181.999 9        60.291 9
E15  27833677.209 9 146266960.954 9     -1857.247 9        56.360 9  27833677.209 9 146266960.954 9     -1857.247 9        56.360 9  27833678.815 9 109225334.287 9     -1386.905 9        56.220 9  27833678.815 9 109225334.287 9     -1386.905 9        56.220 9  27833678.815 9 112074690.833 9     -1423.085 9        56.220 9  27833678.815 9 112074690.833 9     -1423.085 9        56.220 9  27833678.815 9 110650012.560 9     -1404.995 9        59.231 9  27833678.815 9 110650012.560 9     -1404.995 9        59.231 9
E03  26315297.202 9 138287820.163 9      2467.591 9        56.976 9  26315297.202 9 138287820.163 9      2467.591 9        56.976 9  26315298.088 9 103266882.170 9      1842.681 9        56.836 9  26315298.088 9 103266882.170 9      1842.681 9        56.836 9  26315298.088 9 105960800.835 9      1890.751 9        56.836 9  26315298.088 9 105960800.835 9      1890.751 9        56.836 9  26315298.088 9 104613841.502 9      1866.716 9        59.846 9  26315298.088 9 104613841.502 9      1866.716 9        59.846 9
E24  24080091.139 9 126541733.024 9      1236.617 9        57.797 9  24080091.139 9 126541733.024 9      1236.617 9        57.797 9  24080090.364 9  94495446.943 9       923.448 9        57.657 9  24080090.364 9  94495446.943 9       923.448 9        57.657 9  24080090.364 9  96960545.559 9       947.538 9        57.657 9  24080090.364 9  96960545.559 9       947.538 9        57.657 9  24080090.364 9  95727996.251 9       935.493 9        60.668 9  24080090.364 9  95727996.251 9       935.493 9        60.668 9
> 2023 01 08 10 00 37.0000000  0 19       0.000000000000
G08  25075625.222 9 131773299.941 9     -1517.634 9        54.229 9  25075626.216 8 102680497.528 8     -1182.572 8        49.729 8  25075625.222 9  98402139.566 9     -1133.298 9        56.329 9
G13  20024799.541 9 105231031.841 9       567.649 9        56.114 9  20024797.283 8  81998197.383 8       442.324 8        51.614 8  20024799.541 9  78581614.686 9       423.894 9        58.214 9
G24  24514580.177 9 128824988.328 9      3548.024 9        54.418 9  24514580.719 8 100383110.007 8      2764.694 8        49.918 8  24514580.177 9  96200478.297 9      2649.499 9        56.518 9
G07  24610878.562 9 129331039.756 9     -2992.729 9        54.353 9  24610876.394 8 100777424.701 8     -2331.996 8        49.853 8  24610878.562 9  96578373.844 9     -2234.830 9        56.453 9
G18  24772542.105 9 130180587.410 9     -1371.982 9        54.334 9  24772540.480 8 101439412.105 8     -1069.077 8        49.834 8  24772542.105 9  97212776.313 9     -1024.532 9        56.434 9
G20  23530989.097 9 123656182.317 9     -3636.141 9        54.721 9  23530987.472 8  96355460.084 8     -2833.356 8        50.221 8  23530989.097 9  92340655.627 9     -2715.300 9        56.821 9
G14  20963142.516 9 110162057.453 9       106.372 9        55.781 9  20963140.980 8  85840557.962 8        82.887 8        51.281 8  20963142.516 9  82263874.072 9        79.434 9        57.881 9
G23  24855337.142 9 130615678.266 9      3218.898 9        54.295 9  24855335.517 8 101778443.940 8      2508.232 8        49.795 8  24855337.142 9  97537681.822 9      2403.722 9        56.395 9
G05  21752888.456 9 114312200.378 9     -2426.405 9        55.467 9  21752886.288 8  89074432.978 8     -1890.705 8        50.967 8  21752888.456 9  85363006.776 9     -1811.926 9        57.567 9
G30  21866583.479 9 114909671.758 9     -2282.459 9        55.472 9  21866584.201 8  89540006.926 8     -1778.540 8        50.972 8  21866583.479 9  85809170.469 9     -1704.434 9        57.572 9
G15  21108644.480 9 110926675.435 9      2290.168 9        55.714 9  21108642.403 8  86436361.963 8      1784.546 8        51.214 8  21108644.480 9  82834855.033 9      1710.190 9        57.814 9
E05  23312284.965 9 122506884.346 9       354.037 9        57.977 9  23312284.965 9 122506884.346 9       354.037 9        57.977 9  23312285.907 9  91482417.329 9       264.378 9        57.837 9  23312285.907 9  91482417.329 9       264.378 9        57.837 9  23312285.907 9  93868915.172 9       271.275 9        57.837 9  23312285.907 9  93868915.172 9       271.275 9        57.837 9  23312285.907 9  92675666.250 9       267.827 9        60.847 9  23312285.907 9  92675666.250 9       267.827 9        60.847 9
E09  25224293.208 9 132554555.480 9     -2103.966 9        57.362 9  25224293.208 9 132554555.480 9     -2103.966 9        57.362 9  25224293.707 9  98985546.632 9     -1571.143 9        57.223 9  25224293.707 9  98985546.632 9     -1571.143 9        57.223 9  25224293.707 9 101567778.284 9     -1612.130 9        57.223 9  25224293.707 9 101567778.284 9     -1612.130 9        57.223 9  25224293.707 9 100276662.458 9     -1591.637 9        60.233 9  25224293.707 9 100276662.458 9     -1591.637 9        60.233 9
E13  28146134.773 9 147908936.535 9       306.238 9        56.288 9  28146134.773 9 147908936.535 9       306.238 9        56.288 9  28146134.939 9 110451479.233 9       228.684 9        56.149 9  28146134.939 9 110451479.233 9       228.684 9        56.149 9  28146134.939 9 113332822.169 9       234.650 9        56.149 9  28146134.939 9 113332822.169 9       234.650 9        56.149 9  28146134.939 9 111892150.701 9       231.667 9        59.159 9  28146134.939 9 111892150.701 9       231.667 9        59.159 9
E25  27064489.874 9 142224854.229 9      3145.398 9        56.726 9  27064489.874 9 142224854.229 9      3145.398 9        56.726 9  27064490.927 9 106206875.793 9      2348.836 9        56.586 9  27064490.927 9 106206875.793 9      2348.836 9        56.586 9  27064490.927 9 108977489.944 9      2410.110 9        56.586 9  27064490.927 9 108977489.944 9      2410.110 9        56.586 9  27064490.927 9 107592182.869 9      2379.473 9        59.597 9  27064490.927 9 107592182.869 9      2379.473 9        59.597 9
E31  24974081.423 9 131239683.675 9     -1562.481 9        57.420 9  24974081.423 9 131239683.675 9     -1562.481 9        57.420 9  24974082.420 9  98003663.799 9     -1166.788 9        57.281 9  24974082.420 9  98003663.799 9     -1166.788 9        57.281 9  24974082.420 9 100560281.115 9     -1197.226 9        57.281 9  24974082.420 9 100560281.115 9     -1197.226 9        57.281 9  24974082.420 9  99281972.457 9     -1182.007 9        60.291 9  24974082.420 9  99281972.457 9     -1182.007 9        60.291 9
E15  27834030.797 9 146268819.072 9     -1858.988 9        56.360 9  27834030.797 9 146268819.072 9     -1858.988 9        56.360 9  27834032.403 9 109226721.842 9     -1388.205 9        56.220 9  27834032.403 9 109226721.842 9     -1388.205 9        56.220 9  27834032.403 9 112076114.586 9     -1424.419 9        56.220 9  27834032.403 9 112076114.586 9     -1424.419 9        56.220 9  27834032.403 9 110651418.214 9     -1406.312 9        59.231 9  27834032.403 9 110651418.214 9     -1406.312 9        59.231 9
E03  26314827.766 9 138285353.260 9      2466.213 9        56.976 9  26314827.766 9 138285353.260 9      2466.213 9        56.976 9  26314828.652 9 103265040.002 9      1841.653 9        56.836 9  26314828.652 9 103265040.002 9      1841.653 9        56.836 9  26314828.652 9 105958910.611 9      1889.696 9        56.836 9  26314828.652 9 105958910.611 9      1889.696 9        56.836 9  26314828.652 9 104611975.306 9      1865.674 9        59.846 9  26314828.652 9 104611975.306 9      1865.674 9        59.846 9
E24  24079855.803 9 126540496.324 9      1236.782 9        57.797 9  24079855.803 9 126540496.324 9      1236.782 9        57.797 9  24079855.028 9  94494523.434 9       923.571 9        57.658 9  24079855.028 9  94494523.434 9       923.571 9        57.658 9  24079855.028 9  96959597.958 9       947.664 9        57.658 9  24079855.028 9  96959597.958 9       947.664 9        57.658 9  24079855.028 9  95727060.696 9       935.618 9        60.668 9  24079855.028 9  95727060.696 9       935.618 9        60.668 9
> 2023 01 08 10 00 38.0000000  0 19       0.000000000000
G08  25075914.093 9 131774817.963 9     -1518.394 9        54.229 9  25075915.086 8 102681680.403 8     -1183.164 8        49.729 8  25075914.093 9  98403273.154 9     -1133.865 9        56.329 9
G13  20024691.593 9 105230464.566 9       566.900 9        56.114 9  20024689.335 8  81997755.351 8       441.741 8        51.614 8  20024691.593 9  78581191.072 9       423.335 9        58.214 9
G24  24513905.113 9 128821440.841 9      3546.932 9        54.418 9  24513905.655 8 100380345.731 8      2763.843 8        49.918 8  24513905.113 9  96197829.199 9      2648.683 9        56.518 9
G07  24611447.984 9 129334032.088 9     -2991.929 9        54.353 9  24611445.816 8 100779756.388 8     -2331.373 8        49.853 8  24611447.984 9  96580608.378 9     -2234.232 9        56.453 9
G18  24772803.369 9 130181960.363 9     -1373.916 9        54.334 9  24772801.744 8 101440481.937 8     -1070.584 8        49.834 8  24772803.369 9  97213801.569 9     -1025.977 9        56.434 9
G20  23531680.998 9 123659818.281 9     -3635.804 9        54.720 9  23531679.373 8  96358293.302 8     -2833.094 8        50.220 8  23531680.998 9  92343370.794 9     -2715.049 9        56.820 9
G14  20963122.272 9 110161951.074 9       106.387 9        55.781 9  20963120.737 8  85840475.069 8        82.899 8        51.281 8  20963122.272 9  82263794.633 9        79.445 9        57.881 9
G23  24854724.759 9 130612460.172 9      3217.297 9        54.295 9  24854723.134 8 101775936.335 8      2506.985 8        49.795 8  24854724.759 9  97535278.700 9      2402.527 9        56.395 9
G05  21753350.243 9 114314627.087 9     -2427.024 9        55.466 9  21753348.075 8  89076323.919 8     -1891.188 8        50.966 8  21753350.243 9  85364818.929 9     -1812.388 9        57.566 9
G30  21867017.787 9 114911954.064 9     -2282.148 9        55.472 9  21867018.510 8  89541785.346 8     -1778.297 8        50.972 8  21867017.787 9  85810874.788 9     -1704.202 9        57.572 9
G15  21108208.808 9 110924385.962 9      2288.778 9        55.715 9  21108206.730 8  86434577.958 8      1783.463 8        51.215 8  21108208.808 9  82833145.361 9      1709.152 9        57.815 9
E05  23312217.643 9 122506530.564 9       353.525 9        57.977 9  23312217.643 9 122506530.564 9       353.525 9        57.977 9  23312218.584 9  91482153.141 9       263.996 9        57.837 9  23312218.584 9  91482153.141 9       263.996 9        57.837 9  23312218.584 9  93868644.092 9       270.883 9        57.837 9  23312218.584 9  93868644.092 9       270.883 9        57.837 9  23312218.584 9  92675398.617 9       267.440 9        60.847 9  23312218.584 9  92675398.617 9       267.440 9        60.847 9
E09  25224693.499 9 132556659.024 9     -2103.128 9        57.362 9  25224693.499 9 132556659.024 9     -2103.128 9        57.362 9  25224693.998 9  98987117.460 9     -1570.518 9        57.222 9  25224693.998 9  98987117.460 9     -1570.518 9        57.222 9  25224693.998 9 101569390.090 9     -1611.488 9        57.222 9  25224693.998 9 101569390.090 9     -1611.488 9        57.222 9  25224693.998 9 100278253.775 9     -1591.003 9        60.233 9  25224693.998 9 100278253.775 9     -1591.003 9        60.233 9
E13  28146076.649 9 147908631.094 9       304.659 9        56.288 9  28146076.649 9 147908631.094 9       304.659 9        56.288 9  28146076.816 9 110451251.144 9       227.505 9        56.149 9  28146076.816 9 110451251.144 9       227.505 9        56.149 9  28146076.816 9 113332588.131 9       233.440 9        56.149 9  28146076.816 9 113332588.131 9       233.440 9        56.149 9  28146076.816 9 111891919.637 9       230.473 9        59.159 9  28146076.816 9 111891919.637 9       230.473 9        59.159 9
E25  27063891.305 9 142221708.724 9      3145.592 9        56.726 9  27063891.305 9 142221708.724 9      3145.592 9        56.726 9  27063892.357 9 106204526.877 9      2348.981 9        56.586 9  27063892.357 9 106204526.877 9      2348.981 9        56.586 9  27063892.357 9 108975079.752 9      2410.259 9        56.586 9  27063892.357 9 108975079.752 9      2410.259 9        56.586 9  27063892.357 9 107589803.314 9      2379.620 9        59.597 9  27063892.357 9 107589803.314 9      2379.620 9        59.597 9
E31  24974378.749 9 131241246.132 9     -1562.424 9        57.420 9  24974378.749 9 131241246.132 9     -1562.424 9        57.420 9  24974379.746 9  98004830.568 9     -1166.745 9        57.280 9  24974379.746 9  98004830.568 9     -1166.745 9        57.280 9  24974379.746 9 100561478.322 9     -1197.182 9        57.280 9  24974379.746 9 100561478.322 9     -1197.182 9        57.280 9  24974379.746 9  99283154.445 9     -1181.964 9        60.291 9  24974379.746 9  99283154.445 9     -1181.964 9        60.291 9
E15  27834384.718 9 146270678.937 9     -1860.737 9        56.360 9  27834384.718 9 146270678.937 9     -1860.737 9        56.360 9  27834386.323 9 109228110.703 9     -1389.512 9        56.220 9  27834386.323 9 109228110.703 9     -1389.512 9        56.220 9  27834386.323 9 112077539.677 9     -1425.760 9        56.220 9  27834386.323 9 112077539.677 9     -1425.760 9        56.220 9  27834386.323 9 110652825.190 9     -1407.636 9        59.230 9  27834386.323 9 110652825.190 9     -1407.636 9        59.230 9
E03  26314358.592 9 138282887.733 9      2464.839 9        56.976 9  26314358.592 9 138282887.733 9      2464.839 9        56.976 9  26314359.478 9 103263198.862 9      1840.626 9        56.836 9  26314359.478 9 103263198.862 9      1840.626 9        56.836 9  26314359.478 9 105957021.441 9      1888.643 9        56.836 9  26314359.478 9 105957021.441 9      1888.643 9        56.836 9  26314359.478 9 104610110.151 9      1864.635 9        59.847 9  26314359.478 9 104610110.151 9      1864.635 9        59.847 9
E24  24079620.437 9 126539259.468 9      1236.923 9        57.797 9  24079620.437 9 126539259.468 9      1236.923 9        57.797 9  24079619.662 9  94493599.808 9       923.676 9        57.658 9  24079619.662 9  94493599.808 9       923.676 9        57.658 9  24079619.662 9  96958650.237 9       947.772 9        57.658 9  24079619.662 9  96958650.237 9       947.772 9        57.658 9  24079619.662 9  95726125.023 9       935.724 9        60.668 9  24079619.662 9  95726125.023 9       935.724 9        60.668 9
> 2023 01 08 10 00 39.0000000  0 19       0.000000000000
G08  25076203.097 9 131776336.694 9     -1519.050 9        54.229 9  25076204.091 8 102682863.830 8     -1183.675 8        49.729 8  25076203.097 9  98404407.272 9     -1134.355 9        56.329 9
G13  20024583.785 9 105229898.033 9       566.166 9        56.114 9  20024581.527 8  81997313.897 8       441.168 8        51.614 8  20024583.785 9  78580768.012 9       422.786 9        58.214 9
G24  24513230.263 9 128817894.479 9      3545.773 9        54.418 9  24513230.804 8 100377582.332 8      2762.940 8        49.918 8  24513230.263 9  96195180.942 9      2647.818 9        56.518 9
G07  24612017.246 9 129337023.583 9     -2991.052 9        54.353 9  24612015.079 8 100782087.422 8     -2330.690 8        49.853 8  24612017.246 9  96582842.286 9     -2233.578 9        56.453 9
G18  24773065.001 9 130183335.246 9     -1375.846 9        54.334 9  24773063.375 8 101441553.275 8     -1072.088 8        49.834 8  24773065.001 9  97214828.268 9     -1027.417 9        56.434 9
G20  23532372.844 9 123663453.954 9     -3635.560 9        54.720 9  23532371.218 8  96361126.295 8     -2832.904 8        50.220 8  23532372.844 9  92346085.745 9     -2714.866 9        56.820 9
G14  20963102.024 9 110161844.669 9       106.425 9        55.781 9  20963100.489 8  85840392.156 8        82.928 8        51.281 8  20963102.024 9  82263715.175 9        79.473 9        57.881 9
G23  24854112.676 9 130609243.653 9      3215.749 9        54.296 9  24854111.050 8 101773429.956 8      2505.779 8        49.796 8  24854112.676 9  97532876.754 9      2401.371 9        56.396 9
G05  21753812.154 9 114317054.448 9     -2427.710 9        55.466 9  21753809.987 8  89078215.369 8     -1891.722 8        50.966 8  21753812.154 9  85366631.568 9     -1812.900 9        57.566 9
G30  21867452.031 9 114914236.030 9     -2281.776 9        55.472 9  21867452.753 8  89543563.501 8     -1778.007 8        50.972 8  21867452.031 9  85812578.853 9     -1703.924 9        57.572 9
G15  21107773.399 9 110922097.874 9      2287.395 9        55.715 9  21107771.322 8  86432795.032 8      1782.385 8        51.215 8  21107773.399 9  82831436.724 9      1708.119 9        57.815 9
E05  23312150.417 9 122506177.291 9       353.019 9        57.977 9  23312150.417 9 122506177.291 9       353.019 9        57.977 9  23312151.358 9  91481889.333 9       263.618 9        57.837 9  23312151.358 9  91481889.333 9       263.618 9        57.837 9  23312151.358 9  93868373.403 9       270.495 9        57.837 9  23312151.358 9  93868373.403 9       270.495 9        57.837 9  23312151.358 9  92675131.368 9       267.057 9        60.847 9  23312151.358 9  92675131.368 9       267.057 9        60.847 9
E09  25225093.632 9 132558761.732 9     -2102.295 9        57.362 9  25225093.632 9 132558761.732 9     -2102.295 9        57.362 9  25225094.130 9  98988687.665 9     -1569.895 9        57.222 9  25225094.130 9  98988687.665 9     -1569.895 9        57.222 9  25225094.130 9 101571001.256 9     -1610.849 9        57.222 9  25225094.130 9 101571001.256 9     -1610.849 9        57.222 9  25225094.130 9 100279844.460 9     -1590.372 9        60.233 9  25225094.130 9 100279844.460 9     -1590.372 9        60.233 9
E13  28146018.819 9 147908327.195 9       303.155 9        56.288 9  28146018.819 9 147908327.195 9       303.155 9        56.288 9  28146018.985 9 110451024.206 9       226.382 9        56.149 9  28146018.985 9 110451024.206 9       226.382 9        56.149 9  28146018.985 9 113332355.272 9       232.287 9        56.149 9  28146018.985 9 113332355.272 9       232.287 9        56.149 9  28146018.985 9 111891689.739 9       229.335 9        59.159 9  28146018.985 9 111891689.739 9       229.335 9        59.159 9
E25  27063292.707 9 142218563.071 9      3145.691 9        56.727 9  27063292.707 9 142218563.071 9      3145.691 9        56.727 9  27063293.759 9 106202177.850 9      2349.055 9        56.587 9  27063293.759 9 106202177.850 9      2349.055 9        56.587 9  27063293.759 9 108972669.447 9      2410.335 9        56.587 9  27063293.759 9 108972669.447 9      2410.335 9        56.587 9  27063293.759 9 107587423.648 9      2379.695 9        59.597 9  27063293.759 9 107587423.648 9      2379.695 9        59.597 9
E31  24974676.058 9 131242808.498 9     -1562.298 9        57.420 9  24974676.058 9 131242808.498 9     -1562.298 9        57.420 9  24974677.054 9  98005997.270 9     -1166.651 9        57.280 9  24974677.054 9  98005997.270 9     -1166.651 9        57.280 9  24974677.054 9 100562675.460 9     -1197.086 9        57.280 9  24974677.054 9 100562675.460 9     -1197.086 9        57.280 9  24974677.054 9  99284336.365 9     -1181.869 9        60.291 9  24974677.054 9  99284336.365 9     -1181.869 9        60.291 9
E15  27834738.971 9 146272540.553 9     -1862.490 9        56.360 9  27834738.971 9 146272540.553 9     -1862.490 9        56.360 9  27834740.577 9 109229500.870 9     -1390.820 9        56.220 9  27834740.577 9 109229500.870 9     -1390.820 9        56.220 9  27834740.577 9 112078966.110 9     -1427.103 9        56.220 9  27834740.577 9 112078966.110 9     -1427.103 9        56.220 9  27834740.577 9 110654233.490 9     -1408.961 9        59.230 9  27834740.577 9 110654233.490 9     -1408.961 9        59.230 9
E03  26313889.678 9 138280423.575 9      2463.475 9        56.976 9  26313889.678 9 138280423.575 9      2463.475 9        56.976 9  26313890.564 9 103261358.744 9      1839.608 9        56.836 9  26313890.564 9 103261358.744 9      1839.608 9        56.836 9  26313890.564 9 105955133.320 9      1887.598 9        56.836 9  26313890.564 9 105955133.320 9      1887.598 9        56.836 9  26313890.564 9 104608246.032 9      1863.603 9        59.847 9  26313890.564 9 104608246.032 9      1863.603 9        59.847 9
E24  24079385.047 9 126538022.481 9      1237.045 9        57.798 9  24079385.047 9 126538022.481 9      1237.045 9        57.798 9  24079384.271 9  94492676.084 9       923.767 9        57.658 9  24079384.271 9  94492676.084 9       923.767 9        57.658 9  24079384.271 9  96957702.416 9       947.866 9        57.658 9  24079384.271 9  96957702.416 9       947.866 9        57.658 9  24079384.271 9  95725189.250 9       935.816 9        60.668 9  24079384.271 9  95725189.250 9       935.816 9        60.668 9
> 2023 01 08 10 00 40.0000000  0 19       0.000000000000
G08  25076492.218 9 131777856.031 9     -1519.610 9        54.229 9  25076493.211 8 102684047.729 8     -1184.112 8        49.729 8  25076492.218 9  98405541.841 9     -1134.774 9        56.329 9
G13  20024476.117 9 105229332.235 9       565.428 9        56.114 9  20024473.859 8  81996873.015 8       440.593 8        51.614 8  20024476.117 9  78580345.500 9       422.235 9        58.214 9
G24  24512555.638 9 128814349.302 9      3544.563 9        54.418 9  24512556.180 8 100374819.857 8      2761.998 8        49.918 8  24512555.638 9  96192533.570 9      2646.914 9        56.518 9
G07  24612586.336 9 129340014.169 9     -2990.117 9        54.353 9  24612584.169 8 100784417.750 8     -2329.962 8        49.853 8  24612586.336 9  96585075.516 9     -2232.880 9        56.453 9
G18  24773326.998 9 130184712.049 9     -1377.757 9        54.334 9  24773325.372 8 101442626.109 8     -1073.577 8        49.834 8  24773326.998 9  97215856.400 9     -1028.845 9        56.434 9
G20  23533064.653 9 123667089.433 9     -3635.413 9        54.720 9  23533063.027 8  96363959.135 8     -2832.789 8        50.220 8  23533064.653 9  92348800.551 9     -2714.757 9        56.820 9
G14  20963081.769 9 110161738.226 9       106.458 9        55.781 9  20963080.234 8  85840309.214 8        82.955 8        51.281 8  20963081.769 9  82263635.688 9        79.498 9        57.881 9
G23  24853500.881 9 130606028.650 9      3214.262 9        54.296 9  24853499.256 8 101770924.759 8      2504.620 8        49.796 8  24853500.881 9  97530475.940 9      2400.260 9        56.396 9
G05  21754274.203 9 114319482.532 9     -2428.470 9        55.466 9  21754272.036 8  89080107.383 8     -1892.314 8        50.966 8  21754274.203 9  85368444.748 9     -1813.468 9        57.566 9
G30  21867886.200 9 114916517.602 9     -2281.367 9        55.472 9  21867886.922 8  89545341.350 8     -1777.689 8        50.972 8  21867886.200 9  85814282.625 9     -1703.618 9        57.572 9
G15  21107338.253 9 110919811.167 9      2286.015 9        55.715 9  21107336.176 8  86431013.182 8      1781.310 8        51.215 8  21107338.253 9  82829729.118 9      1707.089 9        57.815 9
E05  23312083.289 9 122505824.528 9       352.502 9        57.977 9  23312083.289 9 122505824.528 9       352.502 9        57.977 9  23312084.230 9  91481625.906 9       263.232 9        57.837 9  23312084.230 9  91481625.906 9       263.232 9        57.837 9  23312084.230 9  93868103.104 9       270.099 9        57.837 9  23312084.230 9  93868103.104 9       270.099 9        57.837 9  23312084.230 9  92674864.505 9       266.666 9        60.847 9  23312084.230 9  92674864.505 9       266.666 9        60.847 9
E09  25225493.608 9 132560863.621 9     -2101.491 9        57.362 9  25225493.608 9 132560863.621 9     -2101.491 9        57.362 9  25225494.106 9  98990257.257 9     -1569.295 9        57.222 9  25225494.106 9  98990257.257 9     -1569.295 9        57.222 9  25225494.106 9 101572611.794 9     -1610.233 9        57.222 9  25225494.106 9 101572611.794 9     -1610.233 9        57.222 9  25225494.106 9 100281434.525 9     -1589.764 9        60.232 9  25225494.106 9 100281434.525 9     -1589.764 9        60.232 9
E13  28145961.268 9 147908024.758 9       301.731 9        56.289 9  28145961.268 9 147908024.758 9       301.731 9        56.289 9  28145961.434 9 110450798.361 9       225.318 9        56.149 9  28145961.434 9 110450798.361 9       225.318 9        56.149 9  28145961.434 9 113332123.535 9       231.196 9        56.149 9  28145961.434 9 113332123.535 9       231.196 9        56.149 9  28145961.434 9 111891460.948 9       228.257 9        59.159 9  28145961.434 9 111891460.948 9       228.257 9        59.159 9
E25  27062694.100 9 142215417.370 9      3145.693 9        56.727 9  27062694.100 9 142215417.370 9      3145.693 9        56.727 9  27062695.152 9 106199828.788 9      2349.056 9        56.587 9  27062695.152 9 106199828.788 9      2349.056 9        56.587 9  27062695.152 9 108970259.104 9      2410.336 9        56.587 9  27062695.152 9 108970259.104 9      2410.336 9        56.587 9  27062695.152 9 107585043.946 9      2379.696 9        59.597 9  27062695.152 9 107585043.946 9      2379.696 9        59.597 9
E31  24974973.337 9 131244370.713 9     -1562.126 9        57.420 9  24974973.337 9 131244370.713 9     -1562.126 9        57.420 9  24974974.334 9  98007163.859 9     -1166.523 9        57.280 9  24974974.334 9  98007163.859 9     -1166.523 9        57.280 9  24974974.334 9 100563872.482 9     -1196.954 9        57.280 9  24974974.334 9 100563872.482 9     -1196.954 9        57.280 9  24974974.334 9  99285518.170 9     -1181.739 9        60.290 9  24974974.334 9  99285518.170 9     -1181.739 9        60.290 9
E15  27835093.557 9 146274403.915 9     -1864.231 9        56.360 9  27835093.557 9 146274403.915 9     -1864.231 9        56.360 9  27835095.163 9 109230892.342 9     -1392.121 9        56.220 9  27835095.163 9 109230892.342 9     -1392.121 9        56.220 9  27835095.163 9 112080393.881 9     -1428.437 9        56.220 9  27835095.163 9 112080393.881 9     -1428.437 9        56.220 9  27835095.163 9 110655643.111 9     -1410.279 9        59.230 9  27835095.163 9 110655643.111 9     -1410.279 9        59.230 9
E03  26313421.023 9 138277960.773 9      2462.127 9        56.976 9  26313421.023 9 138277960.773 9      2462.127 9        56.976 9  26313421.908 9 103259519.638 9      1838.601 9        56.837 9  26313421.908 9 103259519.638 9      1838.601 9        56.837 9  26313421.908 9 105953246.237 9      1886.565 9        56.837 9  26313421.908 9 105953246.237 9      1886.565 9        56.837 9  26313421.908 9 104606382.938 9      1862.583 9        59.847 9  26313421.908 9 104606382.938 9      1862.583 9        59.847 9
E24  24079149.636 9 126536785.392 9      1237.125 9        57.798 9  24079149.636 9 126536785.392 9      1237.125 9        57.798 9  24079148.861 9  94491752.284 9       923.827 9        57.658 9  24079148.861 9  94491752.284 9       923.827 9        57.658 9  24079148.861 9  96956754.517 9       947.927 9        57.658 9  24079148.861 9  96956754.517 9       947.927 9        57.658 9  24079148.861 9  95724253.400 9       935.877 9        60.668 9  24079148.861 9  95724253.400 9       935.877 9        60.668 9
> 2023 01 08 10 00 41.0000000  0 19       0.000000000000
G08  25076781.434 9 131779375.873 9     -1520.061 9        54.229 9  25076782.427 8 102685232.021 8     -1184.463 8        49.729 8  25076781.434 9  98406676.788 9     -1135.110 9        56.329 9
G13  20024368.587 9 105228767.162 9       564.711 9        56.114 9  20024366.330 8  81996432.699 8       440.034 8        51.614 8  20024368.587 9  78579923.530 9       421.699 9        58.214 9
G24  24511881.249 9 128810805.364 9      3543.298 9        54.419 9  24511881.791 8 100372058.347 8      2761.011 8        49.919 8  24511881.249 9  96189887.122 9      2645.969 9        56.519 9
G07  24613155.241 9 129343003.785 9     -2989.112 9        54.353 9  24613153.073 8 100786747.320 8     -2329.178 8        49.853 8  24613155.241 9  96587308.021 9     -2232.129 9        56.453 9
G18  24773589.357 9 130186090.755 9     -1379.648 9        54.334 9  24773587.731 8 101443700.425 8     -1075.051 8        49.834 8  24773589.357 9  97216885.953 9     -1030.257 9        56.434 9
G20  23533756.442 9 123670724.814 9     -3635.365 9        54.720 9  23533754.817 8  96366791.900 8     -2832.752 8        50.220 8  23533756.442 9  92351515.283 9     -2714.720 9        56.820 9
G14  20963061.505 9 110161631.739 9       106.511 9        55.781 9  20963059.970 8  85840226.237 8        82.996 8        51.281 8  20963061.505 9  82263556.168 9        79.538 9        57.881 9
G23  24852889.363 9 130602815.101 9      3212.842 9        54.296 9  24852887.738 8 101768420.695 8      2503.514 8        49.796 8  24852889.363 9  97528076.212 9      2399.200 9        56.396 9
G05  21754736.403 9 114321911.408 9     -2429.296 9        55.466 9  21754734.236 8  89082000.014 8     -1892.958 8        50.966 8  21754736.403 9  85370258.519 9     -1814.084 9        57.566 9
G30  21868320.285 9 114918798.734 9     -2280.898 9        55.471 9  21868321.007 8  89547118.855 8     -1777.323 8        50.971 8  21868320.285 9  85815986.068 9     -1703.268 9        57.571 9
G15  21106903.368 9 110917525.828 9      2284.656 9        55.715 9  21106901.290 8  86429232.399 8      1780.252 8        51.215 8  21106903.368 9  82828022.534 9      1706.074 9        57.815 9
E05  23312016.257 9 122505472.275 9       351.997 9        57.977 9  23312016.257 9 122505472.275 9       351.997 9        57.977 9  23312017.198 9  91481362.860 9       262.855 9        57.837 9  23312017.198 9  91481362.860 9       262.855 9        57.837 9  23312017.198 9  93867833.195 9       269.712 9        57.837 9  23312017.198 9  93867833.195 9       269.712 9        57.837 9  23312017.198 9  92674598.028 9       266.283 9        60.847 9  23312017.198 9  92674598.028 9       266.283 9        60.847 9
E09  25225893.432 9 132562964.710 9     -2100.699 9        57.362 9  25225893.432 9 132562964.710 9     -2100.699 9        57.362 9  25225893.930 9  98991826.252 9     -1568.704 9        57.222 9  25225893.930 9  98991826.252 9     -1568.704 9        57.222 9  25225893.930 9 101574221.719 9     -1609.627 9        57.222 9  25225893.930 9 101574221.719 9     -1609.627 9        57.222 9  25225893.930 9 100283023.985 9     -1589.165 9        60.232 9  25225893.930 9 100283023.985 9     -1589.165 9        60.232 9
E13  28145903.978 9 147907723.701 9       300.396 9        56.289 9  28145903.978 9 147907723.701 9       300.396 9        56.289 9  28145904.144 9 110450573.545 9       224.321 9        56.149 9  28145904.144 9 110450573.545 9       224.321 9        56.149 9  28145904.144 9 113331892.855 9       230.173 9        56.149 9  28145904.144 9 113331892.855 9       230.173 9        56.149 9  28145904.144 9 111891233.200 9       227.247 9        59.159 9  28145904.144 9 111891233.200 9       227.247 9        59.159 9
E25  27062095.502 9 142212271.717 9      3145.594 9        56.727 9  27062095.502 9 142212271.717 9      3145.594 9        56.727 9  27062096.554 9 106197479.761 9      2348.983 9        56.587 9  27062096.554 9 106197479.761 9      2348.983 9        56.587 9  27062096.554 9 108967848.798 9      2410.260 9        56.587 9  27062096.554 9 108967848.798 9      2410.260 9        56.587 9  27062096.554 9 107582664.280 9      2379.622 9        59.597 9  27062096.554 9 107582664.280 9      2379.622 9        59.597 9
E31  24975270.577 9 131245932.719 9     -1561.885 9        57.420 9  24975270.577 9 131245932.719 9     -1561.885 9        57.420 9  24975271.574 9  98008330.292 9     -1166.343 9        57.280 9  24975271.574 9  98008330.292 9     -1166.343 9        57.280 9  24975271.574 9 100565069.343 9     -1196.769 9        57.280 9  24975271.574 9 100565069.343 9     -1196.769 9        57.280 9  24975271.574 9  99286699.818 9     -1181.556 9        60.290 9  24975271.574 9  99286699.818 9     -1181.556 9        60.290 9
E15  27835448.474 9 146276269.013 9     -1865.960 9        56.360 9  27835448.474 9 146276269.013 9     -1865.960 9        56.360 9  27835450.079 9 109232285.110 9     -1393.412 9        56.220 9  27835450.079 9 109232285.110 9     -1393.412 9        56.220 9  27835450.079 9 112081822.982 9     -1429.761 9        56.220 9  27835450.079 9 112081822.982 9     -1429.761 9        56.220 9  27835450.079 9 110657054.046 9     -1411.586 9        59.230 9  27835450.079 9 110657054.046 9     -1411.586 9        59.230 9
E03  26312952.621 9 138275499.305 9      2460.805 9        56.977 9  26312952.621 9 138275499.305 9      2460.805 9        56.977 9  26312953.507 9 103257681.529 9      1837.614 9        56.837 9  26312953.507 9 103257681.529 9      1837.614 9        56.837 9  26312953.507 9 105951360.178 9      1885.552 9        56.837 9  26312953.507 9 105951360.178 9      1885.552 9        56.837 9  26312953.507 9 104604520.854 9      1861.583 9        59.847 9  26312953.507 9 104604520.854 9      1861.583 9        59.847 9
E24  24078914.213 9 126535548.234 9      1237.182 9        57.798 9  24078914.213 9 126535548.234 9      1237.182 9        57.798 9  24078913.438 9  94490828.431 9       923.870 9        57.658 9  24078913.438 9  94490828.431 9       923.870 9        57.658 9  24078913.438 9  96955806.564 9       947.971 9        57.658 9  24078913.438 9  96955806.564 9       947.971 9        57.658 9  24078913.438 9  95723317.498 9       935.920 9        60.668 9  24078913.438 9  95723317.498 9       935.920 9        60.668 9
> 2023 01 08 10 00 42.0000000  0 19       0.000000000000
G08  25077070.727 9 131780896.120 9     -1520.419 9        54.229 9  25077071.721 8 102686416.629 8     -1184.742 8        49.729 8  25077070.727 9  98407812.038 9     -1135.378 9        56.329 9
G13  20024261.194 9 105228202.806 9       564.003 9        56.114 9  20024258.936 8  81995992.941 8       439.483 8        51.614 8  20024261.194 9  78579502.095 9       421.171 9        58.214 9
G24  24511207.104 9 128807262.711 9      3541.986 9        54.419 9  24511207.646 8 100369297.838 8      2759.989 8        49.919 8  24511207.104 9  96187241.635 9      2644.990 9        56.519 9
G07  24613723.950 9 129345992.372 9     -2988.052 9        54.352 9  24613721.783 8 100789076.089 8     -2328.352 8        49.852 8  24613723.950 9  96589539.758 9     -2231.337 9        56.452 9
G18  24773852.073 9 130187471.336 9     -1381.518 9        54.334 9  24773850.447 8 101444776.203 8     -1076.507 8        49.834 8  24773852.073 9  97217916.907 9     -1031.653 9        56.434 9
G20  23534448.232 9 123674360.194 9     -3635.406 9        54.719 9  23534446.607 8  96369624.663 8     -2832.784 8        50.219 8  23534448.232 9  92354230.015 9     -2714.751 9        56.819 9
G14  20963041.232 9 110161525.201 9       106.570 9        55.781 9  20963039.696 8  85840143.220 8        83.042 8        51.281 8  20963041.232 9  82263476.611 9        79.582 9        57.881 9
G23  24852278.109 9 130599602.937 9      3211.485 9        54.296 9  24852276.483 8 101765917.709 8      2502.456 8        49.796 8  24852278.109 9  97525677.518 9      2398.187 9        56.396 9
G05  21755198.766 9 114324341.143 9     -2430.183 9        55.466 9  21755196.599 8  89083893.314 8     -1893.649 8        50.966 8  21755198.766 9  85372072.932 9     -1814.747 9        57.566 9
G30  21868754.277 9 114921079.381 9     -2280.386 9        55.471 9  21868755.000 8  89548895.982 8     -1776.924 8        50.971 8  21868754.277 9  85817689.148 9     -1702.886 9        57.571 9
G15  21106468.739 9 110915241.842 9      2283.312 9        55.715 9  21106466.662 8  86427452.669 8      1779.204 8        51.215 8  21106468.739 9  82826316.960 9      1705.070 9        57.815 9
E05  23311949.322 9 122505120.529 9       351.494 9        57.977 9  23311949.322 9 122505120.529 9       351.494 9        57.977 9  23311950.263 9  91481100.193 9       262.479 9        57.837 9  23311950.263 9  91481100.193 9       262.479 9        57.837 9  23311950.263 9  93867563.676 9       269.327 9        57.837 9  23311950.263 9  93867563.676 9       269.327 9        57.837 9  23311950.263 9  92674331.935 9       265.903 9        60.847 9  23311950.263 9  92674331.935 9       265.903 9        60.847 9
E09  25226293.108 9 132565065.025 9     -2099.929 9        57.362 9  25226293.108 9 132565065.025 9     -2099.929 9        57.362 9  25226293.607 9  98993394.669 9     -1568.129 9        57.222 9  25226293.607 9  98993394.669 9     -1568.129 9        57.222 9  25226293.607 9 101575831.051 9     -1609.037 9        57.222 9  25226293.607 9 101575831.051 9     -1609.037 9        57.222 9  25226293.607 9 100284612.860 9     -1588.583 9        60.232 9  25226293.607 9 100284612.860 9     -1588.583 9        60.232 9
E13  28145846.935 9 147907423.936 9       299.141 9        56.289 9  28145846.935 9 147907423.936 9       299.141 9        56.289 9  28145847.101 9 110450349.695 9       223.384 9        56.149 9  28145847.101 9 110450349.695 9       223.384 9        56.149 9  28145847.101 9 113331663.165 9       229.212 9        56.149 9  28145847.101 9 113331663.165 9       229.212 9        56.149 9  28145847.101 9 111891006.430 9       226.298 9        59.159 9  28145847.101 9 111891006.430 9       226.298 9        59.159 9
E25  27061496.932 9 142209126.209 9      3145.406 9        56.727 9  27061496.932 9 142209126.209 9      3145.406 9        56.727 9  27061497.984 9 106195130.843 9      2348.842 9        56.587 9  27061497.984 9 106195130.843 9      2348.842 9        56.587 9  27061497.984 9 108965438.604 9      2410.116 9        56.587 9  27061497.984 9 108965438.604 9      2410.116 9        56.587 9  27061497.984 9 107580284.723 9      2379.479 9        59.598 9  27061497.984 9 107580284.723 9      2379.479 9        59.598 9
E31  24975567.767 9 131247494.463 9     -1561.592 9        57.420 9  24975567.767 9 131247494.463 9     -1561.592 9        57.420 9  24975568.764 9  98009496.530 9     -1166.124 9        57.280 9  24975568.764 9  98009496.530 9     -1166.124 9        57.280 9  24975568.764 9 100566266.004 9     -1196.544 9        57.280 9  24975568.764 9 100566266.004 9     -1196.544 9        57.280 9  24975568.764 9  99287881.267 9     -1181.334 9        60.290 9  24975568.764 9  99287881.267 9     -1181.334 9        60.290 9
E15  27835803.717 9 146278135.828 9     -1867.674 9        56.360 9  27835803.717 9 146278135.828 9     -1867.674 9        56.360 9  27835805.323 9 109233679.160 9     -1394.691 9        56.220 9  27835805.323 9 109233679.160 9     -1394.691 9        56.220 9  27835805.323 9 112083253.399 9     -1431.075 9        56.220 9  27835805.323 9 112083253.399 9     -1431.075 9        56.220 9  27835805.323 9 110658466.279 9     -1412.883 9        59.230 9  27835805.323 9 110658466.279 9     -1412.883 9        59.230 9
E03  26312484.468 9 138273039.146 9      2459.506 9        56.977 9  26312484.468 9 138273039.146 9      2459.506 9        56.977 9  26312485.354 9 103255844.397 9      1836.644 9        56.837 9  26312485.354 9 103255844.397 9      1836.644 9        56.837 9  26312485.354 9 105949475.121 9      1884.557 9        56.837 9  26312485.354 9 105949475.121 9      1884.557 9        56.837 9  26312485.354 9 104602659.759 9      1860.600 9        59.847 9  26312485.354 9 104602659.759 9      1860.600 9        59.847 9
E24  24078678.782 9 126534311.038 9      1237.210 9        57.798 9  24078678.782 9 126534311.038 9      1237.210 9        57.798 9  24078678.007 9  94489904.551 9       923.890 9        57.658 9  24078678.007 9  94489904.551 9       923.890 9        57.658 9  24078678.007 9  96954858.583 9       947.992 9        57.658 9  24078678.007 9  96954858.583 9       947.992 9        57.658 9  24078678.007 9  95722381.567 9       935.941 9        60.668 9  24078678.007 9  95722381.567 9       935.941 9        60.668 9
> 2023 01 08 10 00 43.0000000  0 19       0.000000000000
G08  25077360.079 9 131782416.674 9     -1520.680 9        54.229 9  25077361.073 8 102687601.477 8     -1184.946 8        49.729 8  25077360.079 9  98408947.516 9     -1135.573 9        56.329 9
G13  20024153.935 9 105227639.155 9       563.302 9        56.114 9  20024151.677 8  81995553.732 8       438.936 8        51.614 8  20024153.935 9  78579081.187 9       420.647 9        58.214 9
G24  24510533.212 9 128803721.384 9      3540.651 9        54.419 9  24510533.754 8 100366538.362 8      2758.949 8        49.919 8  24510533.212 9  96184597.137 9      2643.992 9        56.519 9
G07  24614292.454 9 129348979.880 9     -2986.957 9        54.352 9  24614290.286 8 100791404.017 8     -2327.499 8        49.852 8  24614292.454 9  96591770.689 9     -2230.520 9        56.452 9
G18  24774115.140 9 130188853.762 9     -1383.335 9        54.334 9  24774113.514 8 101445853.417 8     -1077.923 8        49.834 8  24774115.140 9  97218949.238 9     -1033.010 9        56.434 9
G20  23535140.040 9 123677995.669 9     -3635.551 9        54.719 9  23535138.415 8  96372457.501 8     -2832.897 8        50.219 8  23535140.040 9  92356944.818 9     -2714.860 9        56.819 9
G14  20963020.949 9 110161418.615 9       106.610 9        55.781 9  20963019.414 8  85840060.166 8        83.073 8        51.281 8  20963020.949 9  82263397.017 9        79.611 9        57.881 9
G23  24851667.104 9 130596392.084 9      3210.218 9        54.297 9  24851665.478 8 101763415.746 8      2501.469 8        49.797 8  24851667.104 9  97523279.803 9      2397.241 9        56.397 9
G05  21755661.305 9 114326771.802 9     -2431.138 9        55.466 9  21755659.138 8  89085787.334 8     -1894.394 8        50.966 8  21755661.305 9  85373888.034 9     -1815.460 9        57.566 9
G30  21869188.170 9 114923359.504 9     -2279.853 9        55.471 9  21869188.893 8  89550672.702 8     -1776.509 8        50.971 8  21869188.170 9  85819391.837 9     -1702.487 9        57.571 9
G15  21106034.364 9 110912959.186 9      2281.995 9        55.715 9  21106032.287 8  86425673.977 8      1778.178 8        51.215 8  21106034.364 9  82824612.379 9      1704.087 9        57.815 9
E05  23311882.483 9 122504769.290 9       350.987 9        57.977 9  23311882.483 9 122504769.290 9       350.987 9        57.977 9  23311883.425 9  91480837.904 9       262.100 9        57.837 9  23311883.425 9  91480837.904 9       262.100 9        57.837 9  23311883.425 9  93867294.545 9       268.938 9        57.837 9  23311883.425 9  93867294.545 9       268.938 9        57.837 9  23311883.425 9  92674066.224 9       265.519 9        60.847 9  23311883.425 9  92674066.224 9       265.519 9        60.847 9
E09  25226692.644 9 132567164.597 9     -2099.213 9        57.362 9  25226692.644 9 132567164.597 9     -2099.213 9        57.362 9  25226693.142 9  98994962.531 9     -1567.594 9        57.222 9  25226693.142 9  98994962.531 9     -1567.594 9        57.222 9  25226693.142 9 101577439.815 9     -1608.488 9        57.222 9  25226693.142 9 101577439.815 9     -1608.488 9        57.222 9  25226693.142 9 100286201.173 9     -1588.041 9        60.232 9  25226693.142 9 100286201.173 9     -1588.041 9        60.232 9
E13  28145790.120 9 147907125.374 9       297.989 9        56.289 9  28145790.120 9 147907125.374 9       297.989 9        56.289 9  28145790.286 9 110450126.742 9       222.524 9        56.149 9  28145790.286 9 110450126.742 9       222.524 9        56.149 9  28145790.286 9 113331434.397 9       228.329 9        56.149 9  28145790.286 9 113331434.397 9       228.329 9        56.149 9  28145790.286 9 111890780.570 9       225.427 9        59.159 9  28145790.286 9 111890780.570 9       225.427 9        59.159 9
E25  27060898.407 9 142205980.942 9      3145.117 9        56.727 9  27060898.407 9 142205980.942 9      3145.117 9        56.727 9  27060899.459 9 106192782.105 9      2348.626 9        56.587 9  27060899.459 9 106192782.105 9      2348.626 9        56.587 9  27060899.459 9 108963028.594 9      2409.895 9        56.587 9  27060899.459 9 108963028.594 9      2409.895 9        56.587 9  27060899.459 9 107577905.350 9      2379.260 9        59.598 9  27060899.459 9 107577905.350 9      2379.260 9        59.598 9
E31  24975864.898 9 131249055.896 9     -1561.265 9        57.420 9  24975864.898 9 131249055.896 9     -1561.265 9        57.420 9  24975865.894 9  98010662.535 9     -1165.880 9        57.280 9  24975865.894 9  98010662.535 9     -1165.880 9        57.280 9  24975865.894 9 100567462.427 9     -1196.294 9        57.280 9  24975865.894 9 100567462.427 9     -1196.294 9        57.280 9  24975865.894 9  99289062.481 9     -1181.087 9        60.290 9  24975865.894 9  99289062.481 9     -1181.087 9        60.290 9
E15  27836159.282 9 146280004.335 9     -1869.341 9        56.360 9  27836159.282 9 146280004.335 9     -1869.341 9        56.360 9  27836160.888 9 109235074.473 9     -1395.937 9        56.220 9  27836160.888 9 109235074.473 9     -1395.937 9        56.220 9  27836160.888 9 112084685.112 9     -1432.353 9        56.220 9  27836160.888 9 112084685.112 9     -1432.353 9        56.220 9  27836160.888 9 110659879.792 9     -1414.145 9        59.230 9  27836160.888 9 110659879.792 9     -1414.145 9        59.230 9
E03  26312016.558 9 138270580.262 9      2458.255 9        56.977 9  26312016.558 9 138270580.262 9      2458.255 9        56.977 9  26312017.444 9 103254008.218 9      1835.710 9        56.837 9  26312017.444 9 103254008.218 9      1835.710 9        56.837 9  26312017.444 9 105947591.041 9      1883.598 9        56.837 9  26312017.444 9 105947591.041 9      1883.598 9        56.837 9  26312017.444 9 104600799.630 9      1859.654 9        59.847 9  26312017.444 9 104600799.630 9      1859.654 9        59.847 9
E24  24078443.352 9 126533073.842 9      1237.184 9        57.798 9  24078443.352 9 126533073.842 9      1237.184 9        57.798 9  24078442.577 9  94488980.671 9       923.871 9        57.658 9  24078442.577 9  94488980.671 9       923.871 9        57.658 9  24078442.577 9  96953910.602 9       947.972 9        57.658 9  24078442.577 9  96953910.602 9       947.972 9        57.658 9  24078442.577 9  95721445.637 9       935.922 9        60.668 9  24078442.577 9  95721445.637 9       935.922 9        60.668 9
> 2023 01 08 10 00 44.0000000  0 19       0.000000000000
G08  25077649.471 9 131783937.440 9     -1520.841 9        54.229 9  25077650.465 8 102688786.489 8     -1185.071 8        49.729 8  25077649.471 9  98410083.153 9     -1135.693 9        56.329 9
G13  20024046.807 9 105227076.196 9       562.624 9        56.114 9  20024044.549 8  81995115.063 8       438.409 8        51.614 8  20024046.807 9  78578660.796 9       420.142 9        58.214 9
G24  24509859.579 9 128800181.415 9      3539.274 9        54.419 9  24509860.120 8 100363779.945 8      2757.876 8        49.919 8  24509859.579 9  96181953.654 9      2642.964 9        56.519 9
G07  24614860.744 9 129351966.263 9     -2985.806 9        54.352 9  24614858.576 8 100793731.070 8     -2326.602 8        49.852 8  24614860.744 9  96594000.781 9     -2229.660 9        56.452 9
G18  24774378.550 9 130190237.991 9     -1385.120 9        54.334 9  24774376.924 8 101446932.038 8     -1079.314 8        49.834 8  24774378.550 9  97219982.916 9     -1034.343 9        56.434 9
G20  23535831.885 9 123681631.336 9     -3635.789 9        54.719 9  23535830.259 8  96375290.488 8     -2833.083 8        50.219 8  23535831.885 9  92359659.764 9     -2715.037 9        56.819 9
G14  20963000.657 9 110161311.982 9       106.664 9        55.781 9  20962999.122 8  85839977.076 8        83.115 8        51.281 8  20963000.657 9  82263317.390 9        79.652 9        57.881 9
G23  24851056.333 9 130593182.464 9      3209.025 9        54.297 9  24851054.708 8 101760914.743 8      2500.539 8        49.797 8  24851056.333 9  97520883.009 9      2396.350 9        56.397 9
G05  21756124.032 9 114329203.446 9     -2432.149 9        55.465 9  21756121.864 8  89087682.121 8     -1895.181 8        50.965 8  21756124.032 9  85375703.872 9     -1816.215 9        57.565 9
G30  21869621.957 9 114925639.069 9     -2279.268 9        55.471 9  21869622.680 8  89552448.986 8     -1776.053 8        50.971 8  21869621.957 9  85821094.110 9     -1702.051 9        57.571 9
G15  21105600.238 9 110910677.836 9      2280.709 9        55.716 9  21105598.161 8  86423896.301 8      1777.176 8        51.216 8  21105600.238 9  82822908.773 9      1703.127 9        57.816 9
E05  23311815.740 9 122504418.553 9       350.495 9        57.977 9  23311815.740 9 122504418.553 9       350.495 9        57.977 9  23311816.682 9  91480575.990 9       261.734 9        57.837 9  23311816.682 9  91480575.990 9       261.734 9        57.837 9  23311816.682 9  93867025.798 9       268.561 9        57.837 9  23311816.682 9  93867025.798 9       268.561 9        57.837 9  23311816.682 9  92673800.894 9       265.147 9        60.847 9  23311816.682 9  92673800.894 9       265.147 9        60.847 9
E09  25227092.045 9 132569263.464 9     -2098.517 9        57.361 9  25227092.045 9 132569263.464 9     -2098.517 9        57.361 9  25227092.543 9  98996529.867 9     -1567.074 9        57.222 9  25227092.543 9  98996529.867 9     -1567.074 9        57.222 9  25227092.543 9 101579048.037 9     -1607.955 9        57.222 9  25227092.543 9 101579048.037 9     -1607.955 9        57.222 9  25227092.543 9 100287788.952 9     -1587.515 9        60.232 9  25227092.543 9 100287788.952 9     -1587.515 9        60.232 9
E13  28145733.517 9 147906827.919 9       296.928 9        56.289 9  28145733.517 9 147906827.919 9       296.928 9        56.289 9  28145733.683 9 110449904.618 9       221.732 9        56.149 9  28145733.683 9 110449904.618 9       221.732 9        56.149 9  28145733.683 9 113331206.477 9       227.516 9        56.149 9  28145733.683 9 113331206.477 9       227.516 9        56.149 9  28145733.683 9 111890555.547 9       224.624 9        59.159 9  28145733.683 9 111890555.547 9       224.624 9        59.159 9
E25  27060299.947 9 142202836.011 9      3144.736 9        56.728 9  27060299.947 9 142202836.011 9      3144.736 9        56.728 9  27060300.999 9 106190433.617 9      2348.342 9        56.588 9  27060300.999 9 106190433.617 9      2348.342 9        56.588 9  27060300.999 9 108960618.842 9      2409.603 9        56.588 9  27060300.999 9 108960618.842 9      2409.603 9        56.588 9  27060300.999 9 107575526.230 9      2378.972 9        59.598 9  27060300.999 9 107575526.230 9      2378.972 9        59.598 9
E31  24976161.961 9 131250616.972 9     -1560.876 9        57.420 9  24976161.961 9 131250616.972 9     -1560.876 9        57.420 9  24976162.957 9  98011828.273 9     -1165.589 9        57.280 9  24976162.957 9  98011828.273 9     -1165.589 9        57.280 9  24976162.957 9 100568658.576 9     -1195.996 9        57.280 9  24976162.957 9 100568658.576 9     -1195.996 9        57.280 9  24976162.957 9  99290243.425 9     -1180.793 9        60.290 9  24976162.957 9  99290243.425 9     -1180.793 9        60.290 9
E15  27836515.162 9 146281874.499 9     -1870.985 9        56.359 9  27836515.162 9 146281874.499 9     -1870.985 9        56.359 9  27836516.768 9 109236471.025 9     -1397.164 9        56.220 9  27836516.768 9 109236471.025 9     -1397.164 9        56.220 9  27836516.768 9 112086118.095 9     -1433.612 9        56.220 9  27836516.768 9 112086118.095 9     -1433.612 9        56.220 9  27836516.768 9 110661294.560 9     -1415.388 9        59.230 9  27836516.768 9 110661294.560 9     -1415.388 9        59.230 9
E03  26311548.883 9 138268122.615 9      2457.041 9        56.977 9  26311548.883 9 138268122.615 9      2457.041 9        56.977 9  26311549.769 9 103252172.962 9      1834.803 9        56.837 9  26311549.769 9 103252172.962 9      1834.803 9        56.837 9  26311549.769 9 105945707.909 9      1882.668 9        56.837 9  26311549.769 9 105945707.909 9      1882.668 9        56.837 9  26311549.769 9 104598940.435 9      1858.735 9        59.847 9  26311549.769 9 104598940.435 9      1858.735 9        59.847 9
E24  24078207.929 9 126531836.685 9      1237.136 9        57.798 9  24078207.929 9 126531836.685 9      1237.136 9        57.798 9  24078207.153 9  94488056.820 9       923.836 9        57.658 9  24078207.153 9  94488056.820 9       923.836 9        57.658 9  24078207.153 9  96952962.650 9       947.936 9        57.658 9  24078207.153 9  96952962.650 9       947.936 9        57.658 9  24078207.153 9  95720509.735 9       935.886 9        60.668 9  24078207.153 9  95720509.735 9       935.886 9        60.668 9
> 2023 01 08 10 00 45.0000000  0 19       0.000000000000
G08  25077938.886 9 131785458.326 9     -1520.916 9        54.229 9  25077939.880 8 102689971.595 8     -1185.130 8        49.729 8  25077938.886 9  98411218.880 9     -1135.749 9        56.329 9
G13  20023939.809 9 105226513.916 9       561.948 9        56.114 9  20023937.551 8  81994676.923 8       437.881 8        51.614 8  20023939.809 9  78578240.911 9       419.636 9        58.214 9
G24  24509186.208 9 128796642.830 9      3537.883 9        54.419 9  24509186.750 8 100361022.606 8      2756.792 8        49.919 8  24509186.208 9  96179311.204 9      2641.925 9        56.519 9
G07  24615428.813 9 129354951.485 9     -2984.632 9        54.352 9  24615426.645 8 100796057.217 8     -2325.688 8        49.852 8  24615428.813 9  96596230.005 9     -2228.784 9        56.452 9
G18  24774642.295 9 130191623.979 9     -1386.849 9        54.333 9  24774640.669 8 101448012.028 8     -1080.662 8        49.833 8  24774642.295 9  97221017.906 9     -1035.634 9        56.433 9
G20  23536523.783 9 123685267.289 9     -3636.125 9        54.719 9  23536522.158 8  96378123.698 8     -2833.344 8        50.219 8  23536523.783 9  92362374.923 9     -2715.288 9        56.819 9
G14  20962980.359 9 110161205.311 9       106.690 9        55.781 9  20962978.823 8  85839893.955 8        83.135 8        51.281 8  20962980.359 9  82263237.732 9        79.671 9        57.881 9
G23  24850445.782 9 130589973.994 9      3207.921 9        54.297 9  24850444.156 8 101758414.637 8      2499.678 8        49.797 8  24850445.782 9  97518487.074 9      2395.525 9        56.397 9
G05  21756586.957 9 114331636.132 9     -2433.223 9        55.465 9  21756584.789 8  89089577.721 8     -1896.018 8        50.965 8  21756586.957 9  85377520.488 9     -1817.017 9        57.565 9
G30  21870055.632 9 114927918.046 9     -2278.674 9        55.471 9  21870056.355 8  89554224.812 8     -1775.590 8        50.971 8  21870055.632 9  85822795.943 9     -1701.607 9        57.571 9
G15  21105166.354 9 110908397.760 9      2279.450 9        55.716 9  21105164.277 8  86422119.619 8      1776.195 8        51.216 8  21105166.354 9  82821206.119 9      1702.187 9        57.816 9
E05  23311749.092 9 122504068.313 9       349.995 9        57.977 9  23311749.092 9 122504068.313 9       349.995 9        57.977 9  23311750.033 9  91480314.447 9       261.360 9        57.837 9  23311750.033 9  91480314.447 9       261.360 9        57.837 9  23311750.033 9  93866757.433 9       268.178 9        57.837 9  23311750.033 9  93866757.433 9       268.178 9        57.837 9  23311750.033 9  92673535.940 9       264.769 9        60.847 9  23311750.033 9  92673535.940 9       264.769 9        60.847 9
E09  25227491.319 9 132571361.663 9     -2097.880 9        57.361 9  25227491.319 9 132571361.663 9     -2097.880 9        57.361 9  25227491.817 9  98998096.704 9     -1566.599 9        57.221 9  25227491.817 9  98998096.704 9     -1566.599 9        57.221 9  25227491.817 9 101580655.749 9     -1607.467 9        57.221 9  25227491.817 9 101580655.749 9     -1607.467 9        57.221 9  25227491.817 9 100289376.227 9     -1587.033 9        60.232 9  25227491.817 9 100289376.227 9     -1587.033 9        60.232 9
E13  28145677.106 9 147906531.479 9       295.966 9        56.289 9  28145677.106 9 147906531.479 9       295.966 9        56.289 9  28145677.272 9 110449683.250 9       221.014 9        56.149 9  28145677.272 9 110449683.250 9       221.014 9        56.149 9  28145677.272 9 113330979.334 9       226.779 9        56.149 9  28145677.272 9 113330979.334 9       226.779 9        56.149 9  28145677.272 9 111890331.292 9       223.896 9        59.159 9  28145677.272 9 111890331.292 9       223.896 9        59.159 9
E25  27059701.568 9 142199691.506 9      3144.262 9        56.728 9  27059701.568 9 142199691.506 9      3144.262 9        56.728 9  27059702.620 9 106188085.448 9      2347.988 9        56.588 9  27059702.620 9 106188085.448 9      2347.988 9        56.588 9  27059702.620 9 108958209.416 9      2409.239 9        56.588 9  27059702.620 9 108958209.416 9      2409.239 9        56.588 9  27059702.620 9 107573147.432 9      2378.613 9        59.598 9  27059702.620 9 107573147.432 9      2378.613 9        59.598 9
E31  24976458.948 9 131252177.650 9     -1560.466 9        57.420 9  24976458.948 9 131252177.650 9     -1560.466 9        57.420 9  24976459.945 9  98012993.715 9     -1165.283 9        57.280 9  24976459.945 9  98012993.715 9     -1165.283 9        57.280 9  24976459.945 9 100569854.421 9     -1195.682 9        57.280 9  24976459.945 9 100569854.421 9     -1195.682 9        57.280 9  24976459.945 9  99291424.068 9     -1180.482 9        60.290 9  24976459.945 9  99291424.068 9     -1180.482 9        60.290 9
E15  27836871.351 9 146283746.283 9     -1872.577 9        56.359 9  27836871.351 9 146283746.283 9     -1872.577 9        56.359 9  27836872.957 9 109237868.786 9     -1398.353 9        56.219 9  27836872.957 9 109237868.786 9     -1398.353 9        56.219 9  27836872.957 9 112087552.319 9     -1434.832 9        56.219 9  27836872.957 9 112087552.319 9     -1434.832 9        56.219 9  27836872.957 9 110662710.552 9     -1416.593 9        59.230 9  27836872.957 9 110662710.552 9     -1416.593 9        59.230 9
E03  26311081.435 9 138265666.159 9      2455.875 9        56.977 9  26311081.435 9 138265666.159 9      2455.875 9        56.977 9  26311082.321 9 103250338.595 9      1833.933 9        56.837 9  26311082.321 9 103250338.595 9      1833.933 9        56.837 9  26311082.321 9 105943825.689 9      1881.774 9        56.837 9  26311082.321 9 105943825.689 9      1881.774 9        56.837 9  26311082.321 9 104597082.142 9      1857.854 9        59.848 9  26311082.321 9 104597082.142 9      1857.854 9        59.848 9
E24  24077972.520 9 126530599.603 9      1237.032 9        57.798 9  24077972.520 9 126530599.603 9      1237.032 9        57.798 9  24077971.745 9  94487133.025 9       923.758 9        57.658 9  24077971.745 9  94487133.025 9       923.758 9        57.658 9  24077971.745 9  96952014.757 9       947.856 9        57.658 9  24077971.745 9  96952014.757 9       947.856 9        57.658 9  24077971.745 9  95719573.891 9       935.807 9        60.669 9  24077971.745 9  95719573.891 9       935.807 9        60.669 9
