     3.04           OBSERVATION DATA    M: MIXED            RINEX VERSION / TYPE
PosApp V8.01.00     Spirent             20230108 100018 UTC PGM / RUN BY / DATE 
                                                            MARKER NAME         
GEODETIC                                                    MARKER TYPE         
gpssim              Spirent                                 OBSERVER / AGENCY   
rec_num             rec_type            rec_vers            REC # / TYPE / VERS 
1                   ant_type                                ANT # / TYPE        
     1.000                                                  INTERVAL            
  2023     1     8    10     0    0.0000000     GPS         TIME OF FIRST OBS   
  4156857.1196   673209.0288  4774767.0311                  APPROX POSITION XYZ 
        0.0000        0.0000        0.0000                  ANTENNA: DELTA H/E/N
G   12 C1C L1C D1C S1C C2X L2X D2X S2X C5I L5I D5I S5I      SYS / # / OBS TYPES 
E   32 C1B L1B D1B S1B C1C L1C D1C S1C C5I L5I D5I S5I C5Q  SYS / # / OBS TYPES 
       L5Q D5Q S5Q C7I L7I D7I S7I C7Q L7Q D7Q S7Q C8I L8I  SYS / # / OBS TYPES 
       D8I S8I C8Q L8Q D8Q S8Q                              SYS / # / OBS TYPES 
GNSS SIMULATOR OUTPUTS ALIGNED CARRIER PHASES.              COMMENT             
NO FURTHER PHASE SHIFTS APPLIED IN THE RINEX ENCODER.       COMMENT             
G L1C                                                       SYS / PHASE SHIFT   
G L2X  0.00000                                              SYS / PHASE SHIFT   
G L5I                                                       SYS / PHASE SHIFT   
E L1B                                                       SYS / PHASE SHIFT   
E L1C  0.00000                                              SYS / PHASE SHIFT   
E L5I                                                       SYS / PHASE SHIFT   
E L5Q  0.00000                                              SYS / PHASE SHIFT   
E L7I                                                       SYS / PHASE SHIFT   
E L7Q  0.00000                                              SYS / PHASE SHIFT   
E L8I                                                       SYS / PHASE SHIFT   
E L8Q  0.00000                                              SYS / PHASE SHIFT   
DBHZ                                                        SIGNAL STRENGTH UNIT
                                                            END OF HEADER       
> 2023 01 08 10 00  0.0000000  0 19       0.000000000000
G08  25064336.317 9 131713976.341 9     -1477.809 9        54.233 9  25064337.310 8 102634271.347 8     -1151.540 8        49.733 8  25064336.317 9  98357839.476 9     -1103.559 9        56.333 9
G13  20029156.050 9 105253925.450 9       586.180 9        56.112 9  20029153.792 8  82016036.560 8       456.763 8        51.612 8  20029156.050 9  78598710.563 9       437.732 9        58.212 9
G24  24541385.449 9 128965850.984 9      3533.697 9        54.408 9  24541385.991 8 100492873.116 8      2753.530 8        49.908 8  24541385.449 9  96305667.943 9      2638.800 9        56.508 9
G07  24588097.988 9 129211327.032 9     -2971.251 9        54.361 9  24588095.820 8 100684142.058 8     -2315.261 8        49.861 8  24588097.988 9  96488977.978 9     -2218.792 9        56.461 9
G18  24764682.329 9 130139284.007 9     -1359.712 9        54.337 9  24764680.703 8 101407227.634 8     -1059.516 8        49.837 8  24764682.329 9  97181932.862 9     -1015.369 9        56.437 9
G20  23505635.604 9 123522948.809 9     -3646.654 9        54.730 9  23505633.978 8  96251641.765 8     -2841.548 8        50.230 8  23505635.604 9  92241163.071 9     -2723.151 9        56.830 9
G14  20962987.746 9 110161244.132 9       137.559 9        55.781 9  20962986.211 8  85839924.205 8       107.189 8        51.281 8  20962987.746 9  82263266.722 9       102.723 9        57.881 9
G23  24879206.472 9 130741112.439 9      3233.422 9        54.287 9  24879204.846 8 101876184.854 8      2519.550 8        49.787 8  24879206.472 9  97631350.198 9      2414.569 9        56.387 9
G05  21736639.249 9 114226810.223 9     -2421.983 9        55.473 9  21736637.082 8  89007895.194 8     -1887.259 8        50.973 8  21736639.249 9  85299241.401 9     -1808.623 9        57.573 9
G30  21849338.067 9 114819046.505 9     -2257.507 9        55.479 9  21849338.789 8  89469389.846 8     -1759.096 8        50.979 8  21849338.067 9  85741495.767 9     -1685.801 9        57.579 9
G15  21126016.706 9 111017967.097 9      2302.241 9        55.707 9  21126014.628 8  86507498.323 8      1793.954 8        51.207 8  21126016.706 9  82903027.378 9      1719.206 9        57.807 9
E05  23315082.363 9 122521584.772 9       365.180 9        57.976 9  23315082.363 9 122521584.772 9       365.180 9        57.976 9  23315083.305 9  91493394.920 9       272.699 9        57.836 9  23315083.305 9  91493394.920 9       272.699 9        57.836 9  23315083.305 9  93880179.135 9       279.813 9        57.836 9  23315083.305 9  93880179.135 9       279.813 9        57.836 9  23315083.305 9  92686787.027 9       276.256 9        60.846 9  23315083.305 9  92686787.027 9       276.256 9        60.846 9
E09  25208254.088 9 132470269.334 9     -2091.364 9        57.368 9  25208254.088 9 132470269.334 9     -2091.364 9        57.368 9  25208254.586 9  98922605.679 9     -1561.733 9        57.228 9  25208254.586 9  98922605.679 9     -1561.733 9        57.228 9  25208254.586 9 101503195.392 9     -1602.474 9        57.228 9  25208254.586 9 101503195.392 9     -1602.474 9        57.228 9  25208254.586 9 100212900.536 9     -1582.104 9        60.238 9  25208254.586 9 100212900.536 9     -1582.104 9        60.238 9
E13  28149058.503 9 147924300.840 9       332.726 9        56.288 9  28149058.503 9 147924300.840 9       332.726 9        56.288 9  28149058.669 9 110462952.578 9       248.464 9        56.148 9  28149058.669 9 110462952.578 9       248.464 9        56.148 9  28149058.669 9 113344594.819 9       254.946 9        56.148 9  28149058.669 9 113344594.819 9       254.946 9        56.148 9  28149058.669 9 111903773.699 9       251.705 9        59.158 9  28149058.669 9 111903773.699 9       251.705 9        59.158 9
E25  27087106.810 9 142343707.026 9      3132.032 9        56.719 9  27087106.810 9 142343707.026 9      3132.032 9        56.719 9  27087107.862 9 106295629.505 9      2338.855 9        56.579 9  27087107.862 9 106295629.505 9      2338.855 9        56.579 9  27087107.862 9 109068558.971 9      2399.869 9        56.579 9  27087107.862 9 109068558.971 9      2399.869 9        56.579 9  27087107.862 9 107682094.238 9      2369.362 9        59.589 9  27087107.862 9 107682094.238 9      2369.362 9        59.589 9
E31  24962025.419 9 131176328.943 9     -1533.638 9        57.425 9  24962025.419 9 131176328.943 9     -1533.638 9        57.425 9  24962026.415 9  97956353.447 9     -1145.249 9        57.285 9  24962026.415 9  97956353.447 9     -1145.249 9        57.285 9  24962026.415 9 100511736.580 9     -1175.125 9        57.285 9  24962026.415 9 100511736.580 9     -1175.125 9        57.285 9  24962026.415 9  99234045.013 9     -1160.187 9        60.295 9  24962026.415 9  99234045.013 9     -1160.187 9        60.295 9
E15  27822777.005 9 146209679.996 9     -1854.604 9        56.364 9  27822777.005 9 146209679.996 9     -1854.604 9        56.364 9  27822778.611 9 109182559.545 9     -1384.932 9        56.224 9  27822778.611 9 109182559.545 9     -1384.932 9        56.224 9  27822778.611 9 112030800.229 9     -1421.060 9        56.224 9  27822778.611 9 112030800.229 9     -1421.060 9        56.224 9  27822778.611 9 110606679.887 9     -1402.996 9        59.234 9  27822778.611 9 110606679.887 9     -1402.996 9        59.234 9
E03  26333740.611 9 138384740.934 9      2465.148 9        56.970 9  26333740.611 9 138384740.934 9      2465.148 9        56.970 9  26333741.497 9 103339258.070 9      1840.857 9        56.830 9  26333741.497 9 103339258.070 9      1840.857 9        56.830 9  26333741.497 9 106035064.802 9      1888.880 9        56.830 9  26333741.497 9 106035064.802 9      1888.880 9        56.830 9  26333741.497 9 104687161.436 9      1864.869 9        59.840 9  26333741.497 9 104687161.436 9      1864.869 9        59.840 9
E24  24088121.745 9 126583934.141 9      1250.762 9        57.794 9  24088121.745 9 126583934.141 9      1250.762 9        57.794 9  24088120.970 9  94526960.764 9       934.011 9        57.654 9  24088120.970 9  94526960.764 9       934.011 9        57.654 9  24088120.970 9  96992881.480 9       958.376 9        57.654 9  24088120.970 9  96992881.480 9       958.376 9        57.654 9  24088120.970 9  95759921.122 9       946.193 9        60.665 9  24088120.970 9  95759921.122 9       946.193 9        60.665 9
> 2023 01 08 10 00  1.0000000  0 19       0.000000000000
G08  25064617.590 9 131715454.439 9     -1478.388 9        54.233 9  25064618.583 8 102635423.111 8     -1151.990 8        49.733 8  25064617.590 9  98358943.250 9     -1103.991 9        56.333 9
G13  20029044.549 9 105253339.507 9       585.706 9        56.112 9  20029042.291 8  82015579.981 8       456.394 8        51.612 8  20029044.549 9  78598273.008 9       437.378 9        58.212 9
G24  24540713.018 9 128962317.336 9      3533.593 9        54.408 9  24540713.560 8 100490119.624 8      2753.449 8        49.908 8  24540713.018 9  96303029.179 9      2638.722 9        56.508 9
G07  24588663.403 9 129214298.305 9     -2971.302 9        54.361 9  24588661.235 8 100686457.336 8     -2315.300 8        49.861 8  24588663.403 9  96491196.786 9     -2218.829 9        56.461 9
G18  24764941.124 9 130140643.984 9     -1360.240 9        54.337 9  24764939.498 8 101408287.357 8     -1059.927 8        49.837 8  24764941.124 9  97182948.430 9     -1015.764 9        56.437 9
G20  23506329.553 9 123526595.538 9     -3646.803 9        54.730 9  23506327.928 8  96254483.373 8     -2841.665 8        50.230 8  23506329.553 9  92243886.278 9     -2723.262 9        56.830 9
G14  20962961.632 9 110161106.902 9       136.900 9        55.781 9  20962960.097 8  85839817.273 8       106.675 8        51.281 8  20962961.632 9  82263164.245 9       102.231 9        57.881 9
G23  24878591.201 9 130737879.168 9      3233.116 9        54.287 9  24878589.575 8 101873665.422 8      2519.311 8        49.787 8  24878591.201 9  97628935.742 9      2414.340 9        56.387 9
G05  21737100.187 9 114229232.467 9     -2422.503 9        55.473 9  21737098.020 8  89009782.657 8     -1887.665 8        50.973 8  21737100.187 9  85301050.219 9     -1809.012 9        57.573 9
G30  21849767.681 9 114821304.145 9     -2257.776 9        55.479 9  21849768.404 8  89471149.046 8     -1759.306 8        50.979 8  21849767.681 9  85743181.667 9     -1686.002 9        57.579 9
G15  21125578.644 9 111015665.069 9      2301.812 9        55.707 9  21125576.567 8  86505704.535 8      1793.620 8        51.207 8  21125578.644 9  82901308.331 9      1718.886 9        57.807 9
E05  23315012.902 9 122521219.751 9       364.863 9        57.976 9  23315012.902 9 122521219.751 9       364.863 9        57.976 9  23315013.843 9  91493122.339 9       272.463 9        57.836 9  23315013.843 9  91493122.339 9       272.463 9        57.836 9  23315013.843 9  93879899.443 9       279.570 9        57.836 9  23315013.843 9  93879899.443 9       279.570 9        57.836 9  23315013.843 9  92686510.891 9       276.017 9        60.846 9  23315013.843 9  92686510.891 9       276.017 9        60.846 9
E09  25208652.084 9 132472360.814 9     -2091.600 9        57.368 9  25208652.084 9 132472360.814 9     -2091.600 9        57.368 9  25208652.582 9  98924167.499 9     -1561.909 9        57.228 9  25208652.582 9  98924167.499 9     -1561.909 9        57.228 9  25208652.582 9 101504797.955 9     -1602.654 9        57.228 9  25208652.582 9 101504797.955 9     -1602.654 9        57.228 9  25208652.582 9 100214482.727 9     -1582.282 9        60.238 9  25208652.582 9 100214482.727 9     -1582.282 9        60.238 9
E13  28148995.234 9 147923968.361 9       332.232 9        56.288 9  28148995.234 9 147923968.361 9       332.232 9        56.288 9  28148995.400 9 110462704.298 9       248.095 9        56.148 9  28148995.400 9 110462704.298 9       248.095 9        56.148 9  28148995.400 9 113344340.062 9       254.567 9        56.148 9  28148995.400 9 113344340.062 9       254.567 9        56.148 9  28148995.400 9 111903522.180 9       251.331 9        59.158 9  28148995.400 9 111903522.180 9       251.331 9        59.158 9
E25  27086510.815 9 142340575.052 9      3131.914 9        56.719 9  27086510.815 9 142340575.052 9      3131.914 9        56.719 9  27086511.867 9 106293290.693 9      2338.767 9        56.579 9  27086511.867 9 106293290.693 9      2338.767 9        56.579 9  27086511.867 9 109066159.146 9      2399.779 9        56.579 9  27086511.867 9 109066159.146 9      2399.779 9        56.579 9  27086511.867 9 107679724.920 9      2369.273 9        59.589 9  27086511.867 9 107679724.920 9      2369.273 9        59.589 9
E31  24962317.296 9 131177862.768 9     -1534.013 9        57.425 9  24962317.296 9 131177862.768 9     -1534.013 9        57.425 9  24962318.293 9  97957498.835 9     -1145.530 9        57.285 9  24962318.293 9  97957498.835 9     -1145.530 9        57.285 9  24962318.293 9 100512911.848 9     -1175.413 9        57.285 9  24962318.293 9 100512911.848 9     -1175.413 9        57.285 9  24962318.293 9  99235205.342 9     -1160.471 9        60.295 9  24962318.293 9  99235205.342 9     -1160.471 9        60.295 9
E15  27823129.958 9 146211534.776 9     -1854.953 9        56.364 9  27823129.958 9 146211534.776 9     -1854.953 9        56.364 9  27823131.564 9 109183944.608 9     -1385.192 9        56.224 9  27823131.564 9 109183944.608 9     -1385.192 9        56.224 9  27823131.564 9 112032221.424 9     -1421.327 9        56.224 9  27823131.564 9 112032221.424 9     -1421.327 9        56.224 9  27823131.564 9 110608083.016 9     -1403.260 9        59.234 9  27823131.564 9 110608083.016 9     -1403.260 9        59.234 9
E03  26333271.518 9 138382275.832 9      2465.050 9        56.970 9  26333271.518 9 138382275.832 9      2465.050 9        56.970 9  26333272.404 9 103337417.247 9      1840.784 9        56.830 9  26333272.404 9 103337417.247 9      1840.784 9        56.830 9  26333272.404 9 106033175.958 9      1888.805 9        56.830 9  26333272.404 9 106033175.958 9      1888.805 9        56.830 9  26333272.404 9 104685296.603 9      1864.795 9        59.840 9  26333272.404 9 104685296.603 9      1864.795 9        59.840 9
E24  24087883.774 9 126582683.596 9      1250.329 9        57.794 9  24087883.774 9 126582683.596 9      1250.329 9        57.794 9  24087882.999 9  94526026.916 9       933.687 9        57.655 9  24087882.999 9  94526026.916 9       933.687 9        57.655 9  24087882.999 9  96991923.270 9       958.044 9        57.655 9  24087882.999 9  96991923.270 9       958.044 9        57.655 9  24087882.999 9  95758975.093 9       945.866 9        60.665 9  24087882.999 9  95758975.093 9       945.866 9        60.665 9
> 2023 01 08 10 00  2.0000000  0 19       0.000000000000
G08  25064898.972 9 131716933.115 9     -1478.966 9        54.233 9  25064899.966 8 102636575.327 8     -1152.441 8        49.733 8  25064898.972 9  98360047.456 9     -1104.423 9        56.333 9
G13  20028933.138 9 105252754.037 9       585.233 9        56.112 9  20028930.880 8  82015123.771 8       456.026 8        51.612 8  20028933.138 9  78597835.807 9       437.025 9        58.212 9
G24  24540040.607 9 128958783.791 9      3533.490 9        54.409 9  24540041.149 8 100487366.212 8      2753.369 8        49.909 8  24540040.607 9  96300390.493 9      2638.645 9        56.509 9
G07  24589228.827 9 129217269.629 9     -2971.352 9        54.361 9  24589226.659 8 100688772.654 8     -2315.339 8        49.861 8  24589228.827 9  96493415.632 9     -2218.867 9        56.461 9
G18  24765200.020 9 130142004.490 9     -1360.769 9        54.337 9  24765198.394 8 101409347.491 8     -1060.339 8        49.837 8  24765200.020 9  97183964.392 9     -1016.158 9        56.437 9
G20  23507023.531 9 123530242.417 9     -3646.953 9        54.730 9  23507021.905 8  96257325.096 8     -2841.781 8        50.230 8  23507023.531 9  92246609.597 9     -2723.374 9        56.830 9
G14  20962935.643 9 110160970.332 9       136.241 9        55.782 9  20962934.108 8  85839710.855 8       106.162 8        51.282 8  20962935.643 9  82263062.261 9       101.739 9        57.882 9
G23  24877975.988 9 130734646.203 9      3232.810 9        54.287 9  24877974.362 8 101871146.229 8      2519.072 8        49.787 8  24877975.988 9  97626521.515 9      2414.111 9        56.387 9
G05  21737561.224 9 114231655.231 9     -2423.023 9        55.473 9  21737559.056 8  89011670.525 8     -1888.070 8        50.973 8  21737561.224 9  85302859.426 9     -1809.400 9        57.573 9
G30  21850197.347 9 114823562.055 9     -2258.046 9        55.479 9  21850198.070 8  89472908.456 8     -1759.516 8        50.979 8  21850197.347 9  85744867.769 9     -1686.203 9        57.579 9
G15  21125140.664 9 111013363.470 9      2301.383 9        55.708 9  21125138.587 8  86503911.081 8      1793.285 8        51.208 8  21125140.664 9  82899589.604 9      1718.565 9        57.808 9
E05  23314943.501 9 122520855.046 9       364.547 9        57.976 9  23314943.501 9 122520855.046 9       364.547 9        57.976 9  23314944.442 9  91492849.994 9       272.226 9        57.836 9  23314944.442 9  91492849.994 9       272.226 9        57.836 9  23314944.442 9  93879619.994 9       279.328 9        57.836 9  23314944.442 9  93879619.994 9       279.328 9        57.836 9  23314944.442 9  92686234.994 9       275.777 9        60.846 9  23314944.442 9  92686234.994 9       275.777 9        60.846 9
E09  25209050.124 9 132474452.531 9     -2091.835 9        57.368 9  25209050.124 9 132474452.531 9     -2091.835 9        57.368 9  25209050.622 9  98925729.495 9     -1562.085 9        57.228 9  25209050.622 9  98925729.495 9     -1562.085 9        57.228 9  25209050.622 9 101506400.699 9     -1602.835 9        57.228 9  25209050.622 9 101506400.699 9     -1602.835 9        57.228 9  25209050.622 9 100216065.097 9     -1582.460 9        60.238 9  25209050.622 9 100216065.097 9     -1582.460 9        60.238 9
E13  28148932.060 9 147923636.376 9       331.738 9        56.288 9  28148932.060 9 147923636.376 9       331.738 9        56.288 9  28148932.226 9 110462456.387 9       247.726 9        56.148 9  28148932.226 9 110462456.387 9       247.726 9        56.148 9  28148932.226 9 113344085.684 9       254.189 9        56.148 9  28148932.226 9 113344085.684 9       254.189 9        56.148 9  28148932.226 9 111903271.036 9       250.957 9        59.158 9  28148932.226 9 111903271.036 9       250.957 9        59.158 9
E25  27085914.842 9 142337443.195 9      3131.797 9        56.719 9  27085914.842 9 142337443.195 9      3131.797 9        56.719 9  27085915.894 9 106290951.969 9      2338.679 9        56.579 9  27085915.894 9 106290951.969 9      2338.679 9        56.579 9  27085915.894 9 109063759.412 9      2399.688 9        56.579 9  27085915.894 9 109063759.412 9      2399.688 9        56.579 9  27085915.894 9 107677355.690 9      2369.184 9        59.590 9  27085915.894 9 107677355.690 9      2369.184 9        59.590 9
E31  24962609.245 9 131179396.968 9     -1534.389 9        57.424 9  24962609.245 9 131179396.968 9     -1534.389 9        57.424 9  24962610.241 9  97958644.504 9     -1145.810 9        57.285 9  24962610.241 9  97958644.504 9     -1145.810 9        57.285 9  24962610.241 9 100514087.404 9     -1175.700 9        57.285 9  24962610.241 9 100514087.404 9     -1175.700 9        57.285 9  24962610.241 9  99236365.954 9     -1160.755 9        60.295 9  24962610.241 9  99236365.954 9     -1160.755 9        60.295 9
E15  27823482.977 9 146213389.905 9     -1855.302 9        56.363 9  27823482.977 9 146213389.905 9     -1855.302 9        56.363 9  27823484.583 9 109185329.932 9     -1385.452 9        56.224 9  27823484.583 9 109185329.932 9     -1385.452 9        56.224 9  27823484.583 9 112033642.887 9     -1421.595 9        56.224 9  27823484.583 9 112033642.887 9     -1421.595 9        56.224 9  27823484.583 9 110609486.409 9     -1403.524 9        59.234 9  27823484.583 9 110609486.409 9     -1403.524 9        59.234 9
E03  26332802.444 9 138379810.829 9      2464.953 9        56.970 9  26332802.444 9 138379810.829 9      2464.953 9        56.970 9  26332803.330 9 103335576.498 9      1840.711 9        56.830 9  26332803.330 9 103335576.498 9      1840.711 9        56.830 9  26332803.330 9 106031287.189 9      1888.730 9        56.830 9  26332803.330 9 106031287.189 9      1888.730 9        56.830 9  26332803.330 9 104683431.844 9      1864.721 9        59.840 9  26332803.330 9 104683431.844 9      1864.721 9        59.840 9
E24  24087645.886 9 126581433.484 9      1249.896 9        57.795 9  24087645.886 9 126581433.484 9      1249.896 9        57.795 9  24087645.110 9  94525093.391 9       933.364 9        57.655 9  24087645.110 9  94525093.391 9       933.364 9        57.655 9  24087645.110 9  96990965.392 9       957.712 9        57.655 9  24087645.110 9  96990965.392 9       957.712 9        57.655 9  24087645.110 9  95758029.391 9       945.538 9        60.665 9  24087645.110 9  95758029.391 9       945.538 9        60.665 9
> 2023 01 08 10 00  3.0000000  0 19       0.000000000000
G08  25065180.465 9 131718412.370 9     -1479.545 9        54.233 9  25065181.459 8 102637727.993 8     -1152.892 8        49.733 8  25065180.465 9  98361152.095 9     -1104.855 9        56.333 9
G13  20028821.817 9 105252169.041 9       584.759 9        56.112 9  20028819.559 8  82014667.929 8       455.657 8        51.612 8  20028821.817 9  78597398.959 9       436.671 9        58.212 9
G24  24539368.216 9 128955250.350 9      3533.386 9        54.409 9  24539368.758 8 100484612.881 8      2753.288 8        49.909 8  24539368.216 9  96297751.884 9      2638.567 9        56.509 9
G07  24589794.261 9 129220241.004 9     -2971.402 9        54.361 9  24589792.093 8 100691088.010 8     -2315.379 8        49.861 8  24589794.261 9  96495634.516 9     -2218.904 9        56.461 9
G18  24765459.016 9 130143365.524 9     -1361.297 9        54.337 9  24765457.390 8 101410408.037 8     -1060.751 8        49.837 8  24765459.016 9  97184980.748 9     -1016.553 9        56.437 9
G20  23507717.538 9 123533889.445 9     -3647.102 9        54.729 9  23507715.912 8  96260166.936 8     -2841.898 8        50.229 8  23507717.538 9  92249333.027 9     -2723.485 9        56.829 9
G14  20962909.780 9 110160834.420 9       135.582 9        55.782 9  20962908.245 8  85839604.949 8       105.648 8        51.282 8  20962909.780 9  82262960.768 9       101.246 9        57.882 9
G23  24877360.834 9 130731413.545 9      3232.503 9        54.288 9  24877359.208 8 101868627.274 8      2518.833 8        49.788 8  24877360.834 9  97624107.518 9      2413.882 9        56.388 9
G05  21738022.359 9 114234078.515 9     -2423.543 9        55.473 9  21738020.192 8  89013558.798 8     -1888.475 8        50.973 8  21738022.359 9  85304669.021 9     -1809.788 9        57.573 9
G30  21850627.065 9 114825820.235 9     -2258.316 9        55.478 9  21850627.787 8  89474668.076 8     -1759.726 8        50.978 8  21850627.065 9  85746554.071 9     -1686.404 9        57.578 9
G15  21124702.766 9 111011062.301 9      2300.953 9        55.708 9  21124700.689 8  86502117.962 8      1792.951 8        51.208 8  21124702.766 9  82897871.198 9      1718.244 9        57.808 9
E05  23314874.160 9 122520490.657 9       364.230 9        57.976 9  23314874.160 9 122520490.657 9       364.230 9        57.976 9  23314875.102 9  91492577.886 9       271.990 9        57.836 9  23314875.102 9  91492577.886 9       271.990 9        57.836 9  23314875.102 9  93879340.788 9       279.085 9        57.836 9  23314875.102 9  93879340.788 9       279.085 9        57.836 9  23314875.102 9  92685959.337 9       275.538 9        60.846 9  23314875.102 9  92685959.337 9       275.538 9        60.846 9
E09  25209448.209 9 132476544.482 9     -2092.071 9        57.368 9  25209448.209 9 132476544.482 9     -2092.071 9        57.368 9  25209448.707 9  98927291.666 9     -1562.260 9        57.228 9  25209448.707 9  98927291.666 9     -1562.260 9        57.228 9  25209448.707 9 101508003.623 9     -1603.015 9        57.228 9  25209448.707 9 101508003.623 9     -1603.015 9        57.228 9  25209448.707 9 100217647.645 9     -1582.638 9        60.238 9  25209448.707 9 100217647.645 9     -1582.638 9        60.238 9
E13  28148868.979 9 147923304.886 9       331.243 9        56.288 9  28148868.979 9 147923304.886 9       331.243 9        56.288 9  28148869.145 9 110462208.846 9       247.357 9        56.148 9  28148869.145 9 110462208.846 9       247.357 9        56.148 9  28148869.145 9 113343831.685 9       253.810 9        56.148 9  28148869.145 9 113343831.685 9       253.810 9        56.148 9  28148869.145 9 111903020.265 9       250.583 9        59.158 9  28148869.145 9 111903020.265 9       250.583 9        59.158 9
E25  27085318.892 9 142334311.456 9      3131.679 9        56.719 9  27085318.892 9 142334311.456 9      3131.679 9        56.719 9  27085319.944 9 106288613.333 9      2338.591 9        56.580 9  27085319.944 9 106288613.333 9      2338.591 9        56.580 9  27085319.944 9 109061359.768 9      2399.598 9        56.580 9  27085319.944 9 109061359.768 9      2399.598 9        56.580 9  27085319.944 9 107674986.550 9      2369.095 9        59.590 9  27085319.944 9 107674986.550 9      2369.095 9        59.590 9
E31  24962901.265 9 131180931.544 9     -1534.764 9        57.424 9  24962901.265 9 131180931.544 9     -1534.764 9        57.424 9  24962902.261 9  97959790.453 9     -1146.090 9        57.284 9  24962902.261 9  97959790.453 9     -1146.090 9        57.284 9  24962902.261 9 100515263.248 9     -1175.988 9        57.284 9  24962902.261 9 100515263.248 9     -1175.988 9        57.284 9  24962902.261 9  99237526.851 9     -1161.039 9        60.295 9  24962902.261 9  99237526.851 9     -1161.039 9        60.295 9
E15  27823836.063 9 146215245.383 9     -1855.650 9        56.363 9  27823836.063 9 146215245.383 9     -1855.650 9        56.363 9  27823837.669 9 109186715.516 9     -1385.713 9        56.223 9  27823837.669 9 109186715.516 9     -1385.713 9        56.223 9  27823837.669 9 112035064.616 9     -1421.862 9        56.223 9  27823837.669 9 112035064.616 9     -1421.862 9        56.223 9  27823837.669 9 110610890.066 9     -1403.787 9        59.234 9  27823837.669 9 110610890.066 9     -1403.787 9        59.234 9
E03  26332333.388 9 138377345.923 9      2464.855 9        56.970 9  26332333.388 9 138377345.923 9      2464.855 9        56.970 9  26332334.274 9 103333735.822 9      1840.638 9        56.830 9  26332334.274 9 103333735.822 9      1840.638 9        56.830 9  26332334.274 9 106029398.496 9      1888.655 9        56.830 9  26332334.274 9 106029398.496 9      1888.655 9        56.830 9  26332334.274 9 104681567.159 9      1864.647 9        59.841 9  26332334.274 9 104681567.159 9      1864.647 9        59.841 9
E24  24087408.080 9 126580183.805 9      1249.462 9        57.795 9  24087408.080 9 126580183.805 9      1249.462 9        57.795 9  24087407.305 9  94524160.189 9       933.040 9        57.655 9  24087407.305 9  94524160.189 9       933.040 9        57.655 9  24087407.305 9  96990007.846 9       957.380 9        57.655 9  24087407.305 9  96990007.846 9       957.380 9        57.655 9  24087407.305 9  95757084.018 9       945.210 9        60.665 9  24087407.305 9  95757084.018 9       945.210 9        60.665 9
> 2023 01 08 10 00  4.0000000  0 19       0.000000000000
G08  25065462.068 9 131719892.204 9     -1480.123 9        54.233 9  25065463.061 8 102638881.110 8     -1153.343 8        49.733 8  25065462.068 9  98362257.165 9     -1105.287 9        56.333 9
G13  20028710.586 9 105251584.518 9       584.286 9        56.112 9  20028708.328 8  82014212.457 8       455.288 8        51.612 8  20028710.586 9  78596962.465 9       436.317 9        58.212 9
G24  24538695.844 9 128951717.012 9      3533.282 9        54.409 9  24538696.386 8 100481859.631 8      2753.207 8        49.909 8  24538695.844 9  96295113.353 9      2638.490 9        56.509 9
G07  24590359.704 9 129223212.429 9     -2971.453 9        54.361 9  24590357.536 8 100693403.406 8     -2315.418 8        49.861 8  24590359.704 9  96497853.437 9     -2218.942 9        56.461 9
G18  24765718.113 9 130144727.086 9     -1361.825 9        54.337 9  24765716.487 8 101411468.995 8     -1061.162 8        49.837 8  24765718.113 9  97185997.499 9     -1016.947 9        56.437 9
G20  23508411.572 9 123537536.622 9     -3647.251 9        54.729 9  23508409.947 8  96263008.893 8     -2842.014 8        50.229 8  23508411.572 9  92252056.568 9     -2723.597 9        56.829 9
G14  20962884.043 9 110160699.167 9       134.923 9        55.782 9  20962882.507 8  85839499.558 8       105.135 8        51.282 8  20962884.043 9  82262859.768 9       100.754 9        57.882 9
G23  24876745.738 9 130728181.194 9      3232.196 9        54.288 9  24876744.112 8 101866108.559 8      2518.595 8        49.788 8  24876745.738 9  97621693.749 9      2413.653 9        56.388 9
G05  21738483.594 9 114236502.319 9     -2424.063 9        55.472 9  21738481.426 8  89015447.477 8     -1888.880 8        50.972 8  21738483.594 9  85306479.004 9     -1810.177 9        57.572 9
G30  21851056.833 9 114828078.683 9     -2258.585 9        55.478 9  21851057.556 8  89476427.907 8     -1759.936 8        50.978 8  21851056.833 9  85748240.575 9     -1686.606 9        57.578 9
G15  21124264.950 9 111008761.561 9      2300.524 9        55.708 9  21124262.873 8  86500325.178 8      1792.616 8        51.208 8  21124264.950 9  82896153.113 9      1717.924 9        57.808 9
E05  23314804.880 9 122520126.586 9       363.913 9        57.976 9  23314804.880 9 122520126.586 9       363.913 9        57.976 9  23314805.821 9  91492306.014 9       271.754 9        57.836 9  23314805.821 9  91492306.014 9       271.754 9        57.836 9  23314805.821 9  93879061.823 9       278.843 9        57.836 9  23314805.821 9  93879061.823 9       278.843 9        57.836 9  23314805.821 9  92685683.919 9       275.298 9        60.846 9  23314805.821 9  92685683.919 9       275.298 9        60.846 9
E09  25209846.339 9 132478636.669 9     -2092.306 9        57.367 9  25209846.339 9 132478636.669 9     -2092.306 9        57.367 9  25209846.837 9  98928854.014 9     -1562.436 9        57.228 9  25209846.837 9  98928854.014 9     -1562.436 9        57.228 9  25209846.837 9 101509606.727 9     -1603.195 9        57.228 9  25209846.837 9 101509606.727 9     -1603.195 9        57.228 9  25209846.837 9 100219230.370 9     -1582.816 9        60.238 9  25209846.837 9 100219230.370 9     -1582.816 9        60.238 9
E13  28148805.993 9 147922973.890 9       330.749 9        56.288 9  28148805.993 9 147922973.890 9       330.749 9        56.288 9  28148806.159 9 110461961.673 9       246.988 9        56.148 9  28148806.159 9 110461961.673 9       246.988 9        56.148 9  28148806.159 9 113343578.065 9       253.431 9        56.148 9  28148806.159 9 113343578.065 9       253.431 9        56.148 9  28148806.159 9 111902769.869 9       250.209 9        59.158 9  28148806.159 9 111902769.869 9       250.209 9        59.158 9
E25  27084722.965 9 142331179.835 9      3131.561 9        56.720 9  27084722.965 9 142331179.835 9      3131.561 9        56.720 9  27084724.017 9 106286274.785 9      2338.503 9        56.580 9  27084724.017 9 106286274.785 9      2338.503 9        56.580 9  27084724.017 9 109058960.214 9      2399.508 9        56.580 9  27084724.017 9 109058960.214 9      2399.508 9        56.580 9  27084724.017 9 107672617.499 9      2369.006 9        59.590 9  27084724.017 9 107672617.499 9      2369.006 9        59.590 9
E31  24963193.356 9 131182466.494 9     -1535.139 9        57.424 9  24963193.356 9 131182466.494 9     -1535.139 9        57.424 9  24963194.353 9  97960936.683 9     -1146.370 9        57.284 9  24963194.353 9  97960936.683 9     -1146.370 9        57.284 9  24963194.353 9 100516439.379 9     -1176.275 9        57.284 9  24963194.353 9 100516439.379 9     -1176.275 9        57.284 9  24963194.353 9  99238688.031 9     -1161.323 9        60.295 9  24963194.353 9  99238688.031 9     -1161.323 9        60.295 9
E15  27824189.215 9 146217101.209 9     -1855.999 9        56.363 9  27824189.215 9 146217101.209 9     -1855.999 9        56.363 9  27824190.821 9 109188101.360 9     -1385.973 9        56.223 9  27824190.821 9 109188101.360 9     -1385.973 9        56.223 9  27824190.821 9 112036486.613 9     -1422.129 9        56.223 9  27824190.821 9 112036486.613 9     -1422.129 9        56.223 9  27824190.821 9 110612293.986 9     -1404.051 9        59.234 9  27824190.821 9 110612293.986 9     -1404.051 9        59.234 9
E03  26331864.351 9 138374881.116 9      2464.757 9        56.970 9  26331864.351 9 138374881.116 9      2464.757 9        56.970 9  26331865.236 9 103331895.219 9      1840.565 9        56.830 9  26331865.236 9 103331895.219 9      1840.565 9        56.830 9  26331865.236 9 106027509.877 9      1888.580 9        56.830 9  26331865.236 9 106027509.877 9      1888.580 9        56.830 9  26331865.236 9 104679702.548 9      1864.572 9        59.841 9  26331865.236 9 104679702.548 9      1864.572 9        59.841 9
E24  24087170.356 9 126578934.560 9      1249.029 9        57.795 9  24087170.356 9 126578934.560 9      1249.029 9        57.795 9  24087169.581 9  94523227.311 9       932.717 9        57.655 9  24087169.581 9  94523227.311 9       932.717 9        57.655 9  24087169.581 9  96989050.632 9       957.048 9        57.655 9  24087169.581 9  96989050.632 9       957.048 9        57.655 9  24087169.581 9  95756138.971 9       944.882 9        60.665 9  24087169.581 9  95756138.971 9       944.882 9        60.665 9
> 2023 01 08 10 00  5.0000000  0 19       0.000000000000
G08  25065743.781 9 131721372.615 9     -1480.702 9        54.233 9  25065744.774 8 102640034.677 8     -1153.793 8        49.733 8  25065743.781 9  98363362.667 9     -1105.719 9        56.333 9
G13  20028599.445 9 105251000.469 9       583.812 9        56.112 9  20028597.187 8  82013757.354 8       454.919 8        51.612 8  20028599.445 9  78596526.324 9       435.964 9        58.212 9
G24  24538023.492 9 128948183.778 9      3533.179 9        54.409 9  24538024.034 8 100479106.462 8      2753.126 8        49.909 8  24538023.492 9  96292474.899 9      2638.413 9        56.509 9
G07  24590925.157 9 129226183.904 9     -2971.503 9        54.360 9  24590922.989 8 100695718.841 8     -2315.457 8        49.860 8  24590925.157 9  96500072.396 9     -2218.980 9        56.460 9
G18  24765977.310 9 130146089.176 9     -1362.353 9        54.336 9  24765975.684 8 101412530.364 8     -1061.574 8        49.836 8  24765977.310 9  97187014.645 9     -1017.342 9        56.436 9
G20  23509105.635 9 123541183.948 9     -3647.400 9        54.729 9  23509104.010 8  96265850.965 8     -2842.130 8        50.229 8  23509105.635 9  92254780.221 9     -2723.708 9        56.829 9
G14  20962858.430 9 110160564.574 9       134.264 9        55.782 9  20962856.895 8  85839394.680 8       104.621 8        51.282 8  20962858.430 9  82262759.260 9       100.262 9        57.882 9
G23  24876130.700 9 130724949.149 9      3231.890 9        54.288 9  24876129.074 8 101863590.083 8      2518.356 8        49.788 8  24876130.700 9  97619280.209 9      2413.424 9        56.388 9
G05  21738944.927 9 114238926.643 9     -2424.582 9        55.472 9  21738942.760 8  89017336.560 8     -1889.285 8        50.972 8  21738944.927 9  85308289.376 9     -1810.565 9        57.572 9
G30  21851486.653 9 114830337.401 9     -2258.854 9        55.478 9  21851487.375 8  89478187.947 8     -1760.146 8        50.978 8  21851486.653 9  85749927.280 9     -1686.807 9        57.578 9
G15  21123827.216 9 111006461.250 9      2300.094 9        55.708 9  21123825.138 8  86498532.728 8      1792.281 8        51.208 8  21123827.216 9  82894435.349 9      1717.603 9        57.808 9
E05  23314735.659 9 122519762.831 9       363.597 9        57.976 9  23314735.659 9 122519762.831 9       363.597 9        57.976 9  23314736.601 9  91492034.379 9       271.517 9        57.836 9  23314736.601 9  91492034.379 9       271.517 9        57.836 9  23314736.601 9  93878783.102 9       278.600 9        57.836 9  23314736.601 9  93878783.102 9       278.600 9        57.836 9  23314736.601 9  92685408.740 9       275.059 9        60.846 9  23314736.601 9  92685408.740 9       275.059 9        60.846 9
E09  25210244.514 9 132480729.091 9     -2092.541 9        57.367 9  25210244.514 9 132480729.091 9     -2092.541 9        57.367 9  25210245.012 9  98930416.537 9     -1562.612 9        57.227 9  25210245.012 9  98930416.537 9     -1562.612 9        57.227 9  25210245.012 9 101511210.012 9     -1603.376 9        57.227 9  25210245.012 9 101511210.012 9     -1603.376 9        57.227 9  25210245.012 9 100220813.274 9     -1582.994 9        60.238 9  25210245.012 9 100220813.274 9     -1582.994 9        60.238 9
E13  28148743.100 9 147922643.388 9       330.254 9        56.288 9  28148743.100 9 147922643.388 9       330.254 9        56.288 9  28148743.266 9 110461714.870 9       246.618 9        56.148 9  28148743.266 9 110461714.870 9       246.618 9        56.148 9  28148743.266 9 113343324.823 9       253.052 9        56.148 9  28148743.266 9 113343324.823 9       253.052 9        56.148 9  28148743.266 9 111902519.847 9       249.835 9        59.158 9  28148743.266 9 111902519.847 9       249.835 9        59.158 9
E25  27084127.059 9 142328048.332 9      3131.443 9        56.720 9  27084127.059 9 142328048.332 9      3131.443 9        56.720 9  27084128.111 9 106283936.325 9      2338.415 9        56.580 9  27084128.111 9 106283936.325 9      2338.415 9        56.580 9  27084128.111 9 109056560.750 9      2399.418 9        56.580 9  27084128.111 9 109056560.750 9      2399.418 9        56.580 9  27084128.111 9 107670248.538 9      2368.916 9        59.590 9  27084128.111 9 107670248.538 9      2368.916 9        59.590 9
E31  24963485.519 9 131184001.820 9     -1535.514 9        57.424 9  24963485.519 9 131184001.820 9     -1535.514 9        57.424 9  24963486.515 9  97962083.192 9     -1146.650 9        57.284 9  24963486.515 9  97962083.192 9     -1146.650 9        57.284 9  24963486.515 9 100517615.797 9     -1176.563 9        57.284 9  24963486.515 9 100517615.797 9     -1176.563 9        57.284 9  24963486.515 9  99239849.495 9     -1161.607 9        60.295 9  24963486.515 9  99239849.495 9     -1161.607 9        60.295 9
E15  27824542.433 9 146218957.384 9     -1856.347 9        56.363 9  27824542.433 9 146218957.384 9     -1856.347 9        56.363 9  27824544.039 9 109189487.465 9     -1386.233 9        56.223 9  27824544.039 9 109189487.465 9     -1386.233 9        56.223 9  27824544.039 9 112037908.877 9     -1422.396 9        56.223 9  27824544.039 9 112037908.877 9     -1422.396 9        56.223 9  27824544.039 9 110613698.171 9     -1404.315 9        59.234 9  27824544.039 9 110613698.171 9     -1404.315 9        59.234 9
E03  26331395.332 9 138372416.406 9      2464.659 9        56.970 9  26331395.332 9 138372416.406 9      2464.659 9        56.970 9  26331396.218 9 103330054.689 9      1840.492 9        56.831 9  26331396.218 9 103330054.689 9      1840.492 9        56.831 9  26331396.218 9 106025621.333 9      1888.505 9        56.831 9  26331396.218 9 106025621.333 9      1888.505 9        56.831 9  26331396.218 9 104677838.011 9      1864.498 9        59.841 9  26331396.218 9 104677838.011 9      1864.498 9        59.841 9
E24  24086932.715 9 126577685.747 9      1248.596 9        57.795 9  24086932.715 9 126577685.747 9      1248.596 9        57.795 9  24086931.940 9  94522294.756 9       932.393 9        57.655 9  24086931.940 9  94522294.756 9       932.393 9        57.655 9  24086931.940 9  96988093.750 9       956.716 9        57.655 9  24086931.940 9  96988093.750 9       956.716 9        57.655 9  24086931.940 9  95755194.253 9       944.555 9        60.665 9  24086931.940 9  95755194.253 9       944.555 9        60.665 9
> 2023 01 08 10 00  6.0000000  0 19       0.000000000000
G08  25066025.604 9 131722853.605 9     -1481.280 9        54.233 9  25066026.598 8 102641188.696 8     -1154.244 8        49.733 8  25066025.604 9  98364468.601 9     -1106.151 9        56.333 9
G13  20028488.394 9 105250416.893 9       583.339 9        56.112 9  20028486.136 8  82013302.619 8       454.550 8        51.612 8  20028488.394 9  78596090.537 9       435.610 9        58.212 9
G24  24537351.159 9 128944650.648 9      3533.075 9        54.410 9  24537351.701 8 100476353.373 8      2753.045 8        49.910 8  24537351.159 9  96289836.523 9      2638.335 9        56.510 9
G07  24591490.619 9 129229155.429 9     -2971.553 9        54.360 9  24591488.452 8 100698034.316 8     -2315.496 8        49.860 8  24591490.619 9  96502291.392 9     -2219.017 9        56.460 9
G18  24766236.607 9 130147451.795 9     -1362.881 9        54.336 9  24766234.982 8 101413592.144 8     -1061.985 8        49.836 8  24766236.607 9  97188032.185 9     -1017.736 9        56.436 9
G20  23509799.727 9 123544831.423 9     -3647.549 9        54.729 9  23509798.101 8  96268693.154 8     -2842.246 8        50.229 8  23509799.727 9  92257503.985 9     -2723.819 9        56.829 9
G14  20962832.943 9 110160430.639 9       133.605 9        55.782 9  20962831.408 8  85839290.315 8       104.108 8        51.282 8  20962832.943 9  82262659.244 9        99.770 9        57.882 9
G23  24875515.721 9 130721717.411 9      3231.583 9        54.288 9  24875514.095 8 101861071.845 8      2518.116 8        49.788 8  24875515.721 9  97616866.898 9      2413.195 9        56.388 9
G05  21739406.360 9 114241351.486 9     -2425.102 9        55.472 9  21739404.192 8  89019226.048 8     -1889.690 8        50.972 8  21739406.360 9  85310100.136 9     -1810.953 9        57.572 9
G30  21851916.524 9 114832596.389 9     -2259.124 9        55.478 9  21851917.246 8  89479948.197 8     -1760.356 8        50.978 8  21851916.524 9  85751614.187 9     -1687.008 9        57.578 9
G15  21123389.563 9 111004161.369 9      2299.665 9        55.708 9  21123387.486 8  86496740.613 8      1791.947 8        51.208 8  21123389.563 9  82892717.905 9      1717.282 9        57.808 9
E05  23314666.499 9 122519399.392 9       363.280 9        57.976 9  23314666.499 9 122519399.392 9       363.280 9        57.976 9  23314667.441 9  91491762.980 9       271.281 9        57.836 9  23314667.441 9  91491762.980 9       271.281 9        57.836 9  23314667.441 9  93878504.623 9       278.358 9        57.836 9  23314667.441 9  93878504.623 9       278.358 9        57.836 9  23314667.441 9  92685133.802 9       274.819 9        60.846 9  23314667.441 9  92685133.802 9       274.819 9        60.846 9
E09  25210642.733 9 132482821.749 9     -2092.777 9        57.367 9  25210642.733 9 132482821.749 9     -2092.777 9        57.367 9  25210643.232 9  98931979.236 9     -1562.788 9        57.227 9  25210643.232 9  98931979.236 9     -1562.788 9        57.227 9  25210643.232 9 101512813.477 9     -1603.556 9        57.227 9  25210643.232 9 101512813.477 9     -1603.556 9        57.227 9  25210643.232 9 100222396.356 9     -1583.172 9        60.238 9  25210643.232 9 100222396.356 9     -1583.172 9        60.238 9
E13  28148680.302 9 147922313.381 9       329.760 9        56.288 9  28148680.302 9 147922313.381 9       329.760 9        56.288 9  28148680.468 9 110461468.436 9       246.249 9        56.148 9  28148680.468 9 110461468.436 9       246.249 9        56.148 9  28148680.468 9 113343071.961 9       252.673 9        56.148 9  28148680.468 9 113343071.961 9       252.673 9        56.148 9  28148680.468 9 111902270.199 9       249.461 9        59.158 9  28148680.468 9 111902270.199 9       249.461 9        59.158 9
E25  27083531.177 9 142324916.947 9      3131.325 9        56.720 9  27083531.177 9 142324916.947 9      3131.325 9        56.720 9  27083532.229 9 106281597.952 9      2338.327 9        56.580 9  27083532.229 9 106281597.952 9      2338.327 9        56.580 9  27083532.229 9 109054161.377 9      2399.327 9        56.580 9  27083532.229 9 109054161.377 9      2399.327 9        56.580 9  27083532.229 9 107667879.665 9      2368.827 9        59.590 9  27083532.229 9 107667879.665 9      2368.827 9        59.590 9
E31  24963777.753 9 131185537.521 9     -1535.889 9        57.424 9  24963777.753 9 131185537.521 9     -1535.889 9        57.424 9  24963778.750 9  97963229.982 9     -1146.930 9        57.284 9  24963778.750 9  97963229.982 9     -1146.930 9        57.284 9  24963778.750 9 100518792.503 9     -1176.850 9        57.284 9  24963778.750 9 100518792.503 9     -1176.850 9        57.284 9  24963778.750 9  99241011.243 9     -1161.890 9        60.294 9  24963778.750 9  99241011.243 9     -1161.890 9        60.294 9
E15  27824895.718 9 146220813.907 9     -1856.696 9        56.363 9  27824895.718 9 146220813.907 9     -1856.696 9        56.363 9  27824897.324 9 109190873.829 9     -1386.494 9        56.223 9  27824897.324 9 109190873.829 9     -1386.494 9        56.223 9  27824897.324 9 112039331.408 9     -1422.663 9        56.223 9  27824897.324 9 112039331.408 9     -1422.663 9        56.223 9  27824897.324 9 110615102.619 9     -1404.578 9        59.233 9  27824897.324 9 110615102.619 9     -1404.578 9        59.233 9
E03  26330926.332 9 138369951.794 9      2464.561 9        56.971 9  26330926.332 9 138369951.794 9      2464.561 9        56.971 9  26330927.218 9 103328214.232 9      1840.419 9        56.831 9  26330927.218 9 103328214.232 9      1840.419 9        56.831 9  26330927.218 9 106023732.864 9      1888.430 9        56.831 9  26330927.218 9 106023732.864 9      1888.430 9        56.831 9  26330927.218 9 104675973.548 9      1864.424 9        59.841 9  26330927.218 9 104675973.548 9      1864.424 9        59.841 9
E24  24086695.157 9 126576437.368 9      1248.163 9        57.795 9  24086695.157 9 126576437.368 9      1248.163 9        57.795 9  24086694.381 9  94521362.525 9       932.069 9        57.655 9  24086694.381 9  94521362.525 9       932.069 9        57.655 9  24086694.381 9  96987137.200 9       956.384 9        57.655 9  24086694.381 9  96987137.200 9       956.384 9        57.655 9  24086694.381 9  95754249.863 9       944.227 9        60.665 9  24086694.381 9  95754249.863 9       944.227 9        60.665 9
> 2023 01 08 10 00  7.0000000  0 19       0.000000000000
G08  25066307.537 9 131724335.174 9     -1481.858 9        54.233 9  25066308.531 8 102642343.164 8     -1154.695 8        49.733 8  25066307.537 9  98365574.967 9     -1106.582 9        56.333 9
G13  20028377.434 9 105249833.791 9       582.865 9        56.112 9  20028375.176 8  82012848.254 8       454.181 8        51.612 8  20028377.434 9  78595655.104 9       435.257 9        58.212 9
G24  24536678.847 9 128941117.621 9      3532.971 9        54.410 9  24536679.389 8 100473600.365 8      2752.964 8        49.910 8  24536678.847 9  96287198.224 9      2638.258 9        56.510 9
G07  24592056.091 9 129232127.005 9     -2971.603 9        54.360 9  24592053.924 8 100700349.829 8     -2315.535 8        49.860 8  24592056.091 9  96504510.426 9     -2219.055 9        56.460 9
G18  24766496.006 9 130148814.941 9     -1363.409 9        54.336 9  24766494.380 8 101414654.337 8     -1062.397 8        49.836 8  24766496.006 9  97189050.119 9     -1018.130 9        56.436 9
G20  23510493.847 9 123548479.048 9     -3647.698 9        54.728 9  23510492.221 8  96271535.458 8     -2842.362 8        50.228 8  23510493.847 9  92260227.860 9     -2723.930 9        56.828 9
G14  20962807.582 9 110160297.364 9       132.946 9        55.782 9  20962806.047 8  85839186.464 8       103.594 8        51.282 8  20962807.582 9  82262559.720 9        99.278 9        57.882 9
G23  24874900.800 9 130718485.980 9      3231.276 9        54.288 9  24874899.174 8 101858553.847 8      2517.877 8        49.788 8  24874900.800 9  97614453.816 9      2412.966 9        56.388 9
G05  21739867.891 9 114243776.849 9     -2425.622 9        55.472 9  21739865.723 8  89021115.942 8     -1890.095 8        50.972 8  21739867.891 9  85311911.283 9     -1811.341 9        57.572 9
G30  21852346.446 9 114834855.646 9     -2259.393 9        55.478 9  21852347.169 8  89481708.657 8     -1760.566 8        50.978 8  21852346.446 9  85753301.294 9     -1687.209 9        57.578 9
G15  21122951.992 9 111001861.918 9      2299.235 9        55.708 9  21122949.915 8  86494948.833 8      1791.612 8        51.208 8  21122951.992 9  82891000.783 9      1716.961 9        57.808 9
E05  23314597.400 9 122519036.270 9       362.963 9        57.976 9  23314597.400 9 122519036.270 9       362.963 9        57.976 9  23314598.341 9  91491491.818 9       271.044 9        57.836 9  23314598.341 9  91491491.818 9       271.044 9        57.836 9  23314598.341 9  93878226.387 9       278.115 9        57.836 9  23314598.341 9  93878226.387 9       278.115 9        57.836 9  23314598.341 9  92684859.102 9       274.580 9        60.846 9  23314598.341 9  92684859.102 9       274.580 9        60.846 9
E09  25211040.998 9 132484914.642 9     -2093.012 9        57.367 9  25211040.998 9 132484914.642 9     -2093.012 9        57.367 9  25211041.496 9  98933542.111 9     -1562.964 9        57.227 9  25211041.496 9  98933542.111 9     -1562.964 9        57.227 9  25211041.496 9 101514417.122 9     -1603.737 9        57.227 9  25211041.496 9 101514417.122 9     -1603.737 9        57.227 9  25211041.496 9 100223979.616 9     -1583.350 9        60.237 9  25211041.496 9 100223979.616 9     -1583.350 9        60.237 9
E13  28148617.598 9 147921983.868 9       329.265 9        56.288 9  28148617.598 9 147921983.868 9       329.265 9        56.288 9  28148617.764 9 110461222.372 9       245.880 9        56.148 9  28148617.764 9 110461222.372 9       245.880 9        56.148 9  28148617.764 9 113342819.477 9       252.294 9        56.148 9  28148617.764 9 113342819.477 9       252.294 9        56.148 9  28148617.764 9 111902020.924 9       249.087 9        59.158 9  28148617.764 9 111902020.924 9       249.087 9        59.158 9
E25  27082935.316 9 142321785.680 9      3131.207 9        56.720 9  27082935.316 9 142321785.680 9      3131.207 9        56.720 9  27082936.368 9 106279259.668 9      2338.239 9        56.580 9  27082936.368 9 106279259.668 9      2338.239 9        56.580 9  27082936.368 9 109051762.095 9      2399.237 9        56.580 9  27082936.368 9 109051762.095 9      2399.237 9        56.580 9  27082936.368 9 107665510.882 9      2368.738 9        59.591 9  27082936.368 9 107665510.882 9      2368.738 9        59.591 9
E31  24964070.058 9 131187073.597 9     -1536.264 9        57.424 9  24964070.058 9 131187073.597 9     -1536.264 9        57.424 9  24964071.055 9  97964377.052 9     -1147.210 9        57.284 9  24964071.055 9  97964377.052 9     -1147.210 9        57.284 9  24964071.055 9 100519969.496 9     -1177.138 9        57.284 9  24964071.055 9 100519969.496 9     -1177.138 9        57.284 9  24964071.055 9  99242173.274 9     -1162.174 9        60.294 9  24964071.055 9  99242173.274 9     -1162.174 9        60.294 9
E15  27825249.069 9 146222670.779 9     -1857.044 9        56.363 9  27825249.069 9 146222670.779 9     -1857.044 9        56.363 9  27825250.675 9 109192260.454 9     -1386.754 9        56.223 9  27825250.675 9 109192260.454 9     -1386.754 9        56.223 9  27825250.675 9 112040754.205 9     -1422.930 9        56.223 9  27825250.675 9 112040754.205 9     -1422.930 9        56.223 9  27825250.675 9 110616507.330 9     -1404.842 9        59.233 9  27825250.675 9 110616507.330 9     -1404.842 9        59.233 9
E03  26330457.351 9 138367487.281 9      2464.463 9        56.971 9  26330457.351 9 138367487.281 9      2464.463 9        56.971 9  26330458.236 9 103326373.849 9      1840.346 9        56.831 9  26330458.236 9 103326373.849 9      1840.346 9        56.831 9  26330458.236 9 106021844.471 9      1888.355 9        56.831 9  26330458.236 9 106021844.471 9      1888.355 9        56.831 9  26330458.236 9 104674109.160 9      1864.350 9        59.841 9  26330458.236 9 104674109.160 9      1864.350 9        59.841 9
E24  24086457.680 9 126575189.423 9      1247.729 9        57.795 9  24086457.680 9 126575189.423 9      1247.729 9        57.795 9  24086456.905 9  94520430.618 9       931.746 9        57.655 9  24086456.905 9  94520430.618 9       931.746 9        57.655 9  24086456.905 9  96986180.982 9       956.052 9        57.655 9  24086456.905 9  96986180.982 9       956.052 9        57.655 9  24086456.905 9  95753305.800 9       943.899 9        60.665 9  24086456.905 9  95753305.800 9       943.899 9        60.665 9
> 2023 01 08 10 00  8.0000000  0 19       0.000000000000
G08  25066589.580 9 131725817.320 9     -1482.436 9        54.233 9  25066590.574 8 102643498.084 8     -1155.145 8        49.733 8  25066589.580 9  98366681.765 9     -1107.014 9        56.333 9
G13  20028266.563 9 105249251.162 9       582.392 9        56.112 9  20028264.305 8  82012394.258 8       453.812 8        51.612 8  20028266.563 9  78595220.024 9       434.903 9        58.212 9
G24  24536006.554 9 128937584.699 9      3532.867 9        54.410 9  24536007.096 8 100470847.439 8      2752.884 8        49.910 8  24536006.554 9  96284560.002 9      2638.180 9        56.510 9
G07  24592621.573 9 129235098.630 9     -2971.654 9        54.360 9  24592619.405 8 100702665.382 8     -2315.574 8        49.860 8  24592621.573 9  96506729.497 9     -2219.092 9        56.460 9
G18  24766755.504 9 130150178.616 9     -1363.937 9        54.336 9  24766753.879 8 101415716.940 8     -1062.808 8        49.836 8  24766755.504 9  97190068.447 9     -1018.525 9        56.436 9
G20  23511187.995 9 123552126.820 9     -3647.846 9        54.728 9  23511186.369 8  96274377.879 8     -2842.478 8        50.228 8  23511187.995 9  92262951.846 9     -2724.041 9        56.828 9
G14  20962782.346 9 110160164.747 9       132.287 9        55.782 9  20962780.810 8  85839083.126 8       103.081 8        51.282 8  20962782.346 9  82262460.688 9        98.786 9        57.882 9
G23  24874285.937 9 130715254.856 9      3230.969 9        54.289 9  24874284.312 8 101856036.088 8      2517.638 8        49.789 8  24874285.937 9  97612040.964 9      2412.736 9        56.389 9
G05  21740329.521 9 114246202.732 9     -2426.141 9        55.472 9  21740327.354 8  89023006.240 8     -1890.500 8        50.972 8  21740329.521 9  85313722.819 9     -1811.729 9        57.572 9
G30  21852776.420 9 114837115.172 9     -2259.662 9        55.478 9  21852777.142 8  89483469.327 8     -1760.776 8        50.978 8  21852776.420 9  85754988.603 9     -1687.410 9        57.578 9
G15  21122514.503 9 110999562.896 9      2298.805 9        55.709 9  21122512.425 8  86493157.387 8      1791.277 8        51.209 8  21122514.503 9  82889283.981 9      1716.640 9        57.809 9
E05  23314528.360 9 122518673.465 9       362.647 9        57.976 9  23314528.360 9 122518673.465 9       362.647 9        57.976 9  23314529.301 9  91491220.892 9       270.808 9        57.836 9  23314529.301 9  91491220.892 9       270.808 9        57.836 9  23314529.301 9  93877948.393 9       277.872 9        57.836 9  23314529.301 9  93877948.393 9       277.872 9        57.836 9  23314529.301 9  92684584.642 9       274.340 9        60.846 9  23314529.301 9  92684584.642 9       274.340 9        60.846 9
E09  25211439.307 9 132487007.771 9     -2093.247 9        57.367 9  25211439.307 9 132487007.771 9     -2093.247 9        57.367 9  25211439.805 9  98935105.161 9     -1563.139 9        57.227 9  25211439.805 9  98935105.161 9     -1563.139 9        57.227 9  25211439.805 9 101516020.948 9     -1603.917 9        57.227 9  25211439.805 9 101516020.948 9     -1603.917 9        57.227 9  25211439.805 9 100225563.054 9     -1583.528 9        60.237 9  25211439.805 9 100225563.054 9     -1583.528 9        60.237 9
E13  28148554.988 9 147921654.850 9       328.771 9        56.288 9  28148554.988 9 147921654.850 9       328.771 9        56.288 9  28148555.154 9 110460976.676 9       245.511 9        56.148 9  28148555.154 9 110460976.676 9       245.511 9        56.148 9  28148555.154 9 113342567.372 9       251.915 9        56.148 9  28148555.154 9 113342567.372 9       251.915 9        56.148 9  28148555.154 9 111901772.024 9       248.713 9        59.158 9  28148555.154 9 111901772.024 9       248.713 9        59.158 9
E25  27082339.478 9 142318654.530 9      3131.089 9        56.720 9  27082339.478 9 142318654.530 9      3131.089 9        56.720 9  27082340.530 9 106276921.473 9      2338.151 9        56.581 9  27082340.530 9 106276921.473 9      2338.151 9        56.581 9  27082340.530 9 109049362.902 9      2399.146 9        56.581 9  27082340.530 9 109049362.902 9      2399.146 9        56.581 9  27082340.530 9 107663142.187 9      2368.649 9        59.591 9  27082340.530 9 107663142.187 9      2368.649 9        59.591 9
E31  24964362.435 9 131188610.048 9     -1536.639 9        57.424 9  24964362.435 9 131188610.048 9     -1536.639 9        57.424 9  24964363.432 9  97965524.401 9     -1147.490 9        57.284 9  24964363.432 9  97965524.401 9     -1147.490 9        57.284 9  24964363.432 9 100521146.777 9     -1177.425 9        57.284 9  24964363.432 9 100521146.777 9     -1177.425 9        57.284 9  24964363.432 9  99243335.589 9     -1162.458 9        60.294 9  24964363.432 9  99243335.589 9     -1162.458 9        60.294 9
E15  27825602.486 9 146224527.999 9     -1857.393 9        56.363 9  27825602.486 9 146224527.999 9     -1857.393 9        56.363 9  27825604.092 9 109193647.340 9     -1387.014 9        56.223 9  27825604.092 9 109193647.340 9     -1387.014 9        56.223 9  27825604.092 9 112042177.270 9     -1423.197 9        56.223 9  27825604.092 9 112042177.270 9     -1423.197 9        56.223 9  27825604.092 9 110617912.305 9     -1405.105 9        59.233 9  27825604.092 9 110617912.305 9     -1405.105 9        59.233 9
E03  26329988.388 9 138365022.865 9      2464.365 9        56.971 9  26329988.388 9 138365022.865 9      2464.365 9        56.971 9  26329989.274 9 103324533.538 9      1840.272 9        56.831 9  26329989.274 9 103324533.538 9      1840.272 9        56.831 9  26329989.274 9 106019956.152 9      1888.279 9        56.831 9  26329989.274 9 106019956.152 9      1888.279 9        56.831 9  26329989.274 9 104672244.845 9      1864.276 9        59.841 9  26329989.274 9 104672244.845 9      1864.276 9        59.841 9
E24  24086220.287 9 126573941.911 9      1247.296 9        57.795 9  24086220.287 9 126573941.911 9      1247.296 9        57.795 9  24086219.512 9  94519499.034 9       931.422 9        57.655 9  24086219.512 9  94519499.034 9       931.422 9        57.655 9  24086219.512 9  96985225.096 9       955.720 9        57.655 9  24086219.512 9  96985225.096 9       955.720 9        57.655 9  24086219.512 9  95752362.065 9       943.571 9        60.665 9  24086219.512 9  95752362.065 9       943.571 9        60.665 9
> 2023 01 08 10 00  9.0000000  0 19       0.000000000000
G08  25066871.733 9 131727300.045 9     -1483.014 9        54.233 9  25066872.727 8 102644653.454 8     -1155.596 8        49.733 8  25066871.733 9  98367788.995 9     -1107.446 9        56.333 9
G13  20028155.783 9 105248669.007 9       581.918 9        56.112 9  20028153.525 8  82011940.630 8       453.443 8        51.612 8  20028155.783 9  78594785.298 9       434.549 9        58.212 9
G24  24535334.281 9 128934051.880 9      3532.763 9        54.410 9  24535334.823 8 100468094.593 8      2752.803 8        49.910 8  24535334.281 9  96281921.858 9      2638.103 9        56.510 9
G07  24593187.064 9 129238070.306 9     -2971.704 9        54.360 9  24593184.896 8 100704980.973 8     -2315.613 8        49.860 8  24593187.064 9  96508948.605 9     -2219.129 9        56.460 9
G18  24767015.103 9 130151542.818 9     -1364.465 9        54.336 9  24767013.478 8 101416779.955 8     -1063.219 8        49.836 8  24767015.103 9  97191087.169 9     -1018.919 9        56.436 9
G20  23511882.171 9 123555774.742 9     -3647.995 9        54.728 9  23511880.545 8  96277220.415 8     -2842.594 8        50.228 8  23511882.171 9  92265675.944 9     -2724.152 9        56.828 9
G14  20962757.235 9 110160032.789 9       131.628 9        55.782 9  20962755.700 8  85838980.302 8       102.568 8        51.282 8  20962757.235 9  82262362.148 9        98.294 9        57.882 9
G23  24873671.133 9 130712024.039 9      3230.662 9        54.289 9  24873669.508 8 101853518.568 8      2517.399 8        49.789 8  24873671.133 9  97609628.341 9      2412.507 9        56.389 9
G05  21740791.250 9 114248629.134 9     -2426.661 9        55.471 9  21740789.082 8  89024896.943 8     -1890.904 8        50.971 8  21740791.250 9  85315534.743 9     -1812.117 9        57.571 9
G30  21853206.444 9 114839374.968 9     -2259.932 9        55.477 9  21853207.167 8  89485230.206 8     -1760.986 8        50.977 8  21853206.444 9  85756676.112 9     -1687.611 9        57.577 9
G15  21122077.095 9 110997264.305 9      2298.375 9        55.709 9  21122075.018 8  86491366.277 8      1790.942 8        51.209 8  21122077.095 9  82887567.500 9      1716.319 9        57.809 9
E05  23314459.381 9 122518310.976 9       362.330 9        57.976 9  23314459.381 9 122518310.976 9       362.330 9        57.976 9  23314460.322 9  91490950.202 9       270.571 9        57.836 9  23314460.322 9  91490950.202 9       270.571 9        57.836 9  23314460.322 9  93877670.642 9       277.630 9        57.836 9  23314460.322 9  93877670.642 9       277.630 9        57.836 9  23314460.322 9  92684310.422 9       274.100 9        60.846 9  23314460.322 9  92684310.422 9       274.100 9        60.846 9
E09  25211837.661 9 132489101.134 9     -2093.483 9        57.367 9  25211837.661 9 132489101.134 9     -2093.483 9        57.367 9  25211838.159 9  98936668.387 9     -1563.315 9        57.227 9  25211838.159 9  98936668.387 9     -1563.315 9        57.227 9  25211838.159 9 101517624.954 9     -1604.097 9        57.227 9  25211838.159 9 101517624.954 9     -1604.097 9        57.227 9  25211838.159 9 100227146.670 9     -1583.706 9        60.237 9  25211838.159 9 100227146.670 9     -1583.706 9        60.237 9
E13  28148492.472 9 147921326.326 9       328.276 9        56.288 9  28148492.472 9 147921326.326 9       328.276 9        56.288 9  28148492.638 9 110460731.350 9       245.142 9        56.148 9  28148492.638 9 110460731.350 9       245.142 9        56.148 9  28148492.638 9 113342315.646 9       251.537 9        56.148 9  28148492.638 9 113342315.646 9       251.537 9        56.148 9  28148492.638 9 111901523.498 9       248.339 9        59.158 9  28148492.638 9 111901523.498 9       248.339 9        59.158 9
E25  27081743.663 9 142315523.499 9      3130.971 9        56.721 9  27081743.663 9 142315523.499 9      3130.971 9        56.721 9  27081744.715 9 106274583.365 9      2338.063 9        56.581 9  27081744.715 9 106274583.365 9      2338.063 9        56.581 9  27081744.715 9 109046963.800 9      2399.056 9        56.581 9  27081744.715 9 109046963.800 9      2399.056 9        56.581 9  27081744.715 9 107660773.583 9      2368.559 9        59.591 9  27081744.715 9 107660773.583 9      2368.559 9        59.591 9
E31  24964654.884 9 131190146.874 9     -1537.014 9        57.424 9  24964654.884 9 131190146.874 9     -1537.014 9        57.424 9  24964655.880 9  97966672.031 9     -1147.770 9        57.284 9  24964655.880 9  97966672.031 9     -1147.770 9        57.284 9  24964655.880 9 100522324.345 9     -1177.712 9        57.284 9  24964655.880 9 100522324.345 9     -1177.712 9        57.284 9  24964655.880 9  99244498.188 9     -1162.741 9        60.294 9  24964655.880 9  99244498.188 9     -1162.741 9        60.294 9
E15  27825955.970 9 146226385.568 9     -1857.741 9        56.363 9  27825955.970 9 146226385.568 9     -1857.741 9        56.363 9  27825957.575 9 109195034.485 9     -1387.274 9        56.223 9  27825957.575 9 109195034.485 9     -1387.274 9        56.223 9  27825957.575 9 112043600.602 9     -1423.464 9        56.223 9  27825957.575 9 112043600.602 9     -1423.464 9        56.223 9  27825957.575 9 110619317.543 9     -1405.369 9        59.233 9  27825957.575 9 110619317.543 9     -1405.369 9        59.233 9
E03  26329519.444 9 138362558.548 9      2464.267 9        56.971 9  26329519.444 9 138362558.548 9      2464.267 9        56.971 9  26329520.330 9 103322693.301 9      1840.199 9        56.831 9  26329520.330 9 103322693.301 9      1840.199 9        56.831 9  26329520.330 9 106018067.909 9      1888.204 9        56.831 9  26329520.330 9 106018067.909 9      1888.204 9        56.831 9  26329520.330 9 104670380.605 9      1864.202 9        59.841 9  26329520.330 9 104670380.605 9      1864.202 9        59.841 9
E24  24085982.975 9 126572694.832 9      1246.863 9        57.795 9  24085982.975 9 126572694.832 9      1246.863 9        57.795 9  24085982.200 9  94518567.774 9       931.099 9        57.655 9  24085982.200 9  94518567.774 9       931.099 9        57.655 9  24085982.200 9  96984269.542 9       955.388 9        57.655 9  24085982.200 9  96984269.542 9       955.388 9        57.655 9  24085982.200 9  95751418.658 9       943.243 9        60.666 9  24085982.200 9  95751418.658 9       943.243 9        60.666 9
> 2023 01 08 10 00 10.0000000  0 19       0.000000000000
G08  25067153.997 9 131728783.348 9     -1483.593 9        54.232 9  25067154.990 8 102645809.274 8     -1156.046 8        49.732 8  25067153.997 9  98368896.656 9     -1107.878 9        56.332 9
G13  20028045.092 9 105248087.326 9       581.444 9        56.112 9  20028042.834 8  82011487.372 8       453.074 8        51.612 8  20028045.092 9  78594350.925 9       434.196 9        58.212 9
G24  24534662.028 9 128930519.165 9      3532.660 9        54.410 9  24534662.570 8 100465341.828 8      2752.722 8        49.910 8  24534662.028 9  96279283.792 9      2638.025 9        56.510 9
G07  24593752.565 9 129241042.032 9     -2971.754 9        54.359 9  24593750.397 8 100707296.604 8     -2315.652 8        49.859 8  24593752.565 9  96511167.751 9     -2219.167 9        56.459 9
G18  24767274.803 9 130152907.548 9     -1364.993 9        54.336 9  24767273.177 8 101417843.381 8     -1063.631 8        49.836 8  24767274.803 9  97192106.286 9     -1019.313 9        56.436 9
G20  23512576.376 9 123559422.812 9     -3648.144 9        54.728 9  23512574.750 8  96280063.067 8     -2842.709 8        50.228 8  23512576.376 9  92268400.152 9     -2724.263 9        56.828 9
G14  20962732.250 9 110159901.490 9       130.969 9        55.782 9  20962730.714 8  85838877.991 8       102.054 8        51.282 8  20962732.250 9  82262264.100 9        97.802 9        57.882 9
G23  24873056.388 9 130708793.529 9      3230.354 9        54.289 9  24873054.762 8 101851001.288 8      2517.159 8        49.789 8  24873056.388 9  97607215.947 9      2412.278 9        56.389 9
G05  21741253.078 9 114251056.055 9     -2427.180 9        55.471 9  21741250.910 8  89026788.050 8     -1891.309 8        50.971 8  21741253.078 9  85317347.054 9     -1812.504 9        57.571 9
G30  21853636.520 9 114841635.032 9     -2260.201 9        55.477 9  21853637.243 8  89486991.295 8     -1761.195 8        50.977 8  21853636.520 9  85758363.823 9     -1687.812 9        57.577 9
G15  21121639.769 9 110994966.143 9      2297.945 9        55.709 9  21121637.692 8  86489575.502 8      1790.607 8        51.209 8  21121639.769 9  82885851.341 9      1715.998 9        57.809 9
E05  23314390.462 9 122517948.805 9       362.013 9        57.976 9  23314390.462 9 122517948.805 9       362.013 9        57.976 9  23314391.403 9  91490679.749 9       270.335 9        57.836 9  23314391.403 9  91490679.749 9       270.335 9        57.836 9  23314391.403 9  93877393.134 9       277.387 9        57.836 9  23314391.403 9  93877393.134 9       277.387 9        57.836 9  23314391.403 9  92684036.442 9       273.861 9        60.847 9  23314391.403 9  92684036.442 9       273.861 9        60.847 9
E09  25212236.059 9 132491194.734 9     -2093.718 9        57.367 9  25212236.059 9 132491194.734 9     -2093.718 9        57.367 9  25212236.558 9  98938231.789 9     -1563.491 9        57.227 9  25212236.558 9  98938231.789 9     -1563.491 9        57.227 9  25212236.558 9 101519229.140 9     -1604.277 9        57.227 9  25212236.558 9 101519229.140 9     -1604.277 9        57.227 9  25212236.558 9 100228730.465 9     -1583.884 9        60.237 9  25212236.558 9 100228730.465 9     -1583.884 9        60.237 9
E13  28148430.050 9 147920998.297 9       327.782 9        56.288 9  28148430.050 9 147920998.297 9       327.782 9        56.288 9  28148430.216 9 110460486.393 9       244.772 9        56.148 9  28148430.216 9 110460486.393 9       244.772 9        56.148 9  28148430.216 9 113342064.299 9       251.158 9        56.148 9  28148430.216 9 113342064.299 9       251.158 9        56.148 9  28148430.216 9 111901275.346 9       247.965 9        59.158 9  28148430.216 9 111901275.346 9       247.965 9        59.158 9
E25  27081147.870 9 142312392.586 9      3130.853 9        56.721 9  27081147.870 9 142312392.586 9      3130.853 9        56.721 9  27081148.922 9 106272245.345 9      2337.975 9        56.581 9  27081148.922 9 106272245.345 9      2337.975 9        56.581 9  27081148.922 9 109044564.789 9      2398.965 9        56.581 9  27081148.922 9 109044564.789 9      2398.965 9        56.581 9  27081148.922 9 107658405.067 9      2368.470 9        59.591 9  27081148.922 9 107658405.067 9      2368.470 9        59.591 9
E31  24964947.403 9 131191684.075 9     -1537.389 9        57.424 9  24964947.403 9 131191684.075 9     -1537.389 9        57.424 9  24964948.400 9  97967819.941 9     -1148.050 9        57.284 9  24964948.400 9  97967819.941 9     -1148.050 9        57.284 9  24964948.400 9 100523502.200 9     -1178.000 9        57.284 9  24964948.400 9 100523502.200 9     -1178.000 9        57.284 9  24964948.400 9  99245661.071 9     -1163.025 9        60.294 9  24964948.400 9  99245661.071 9     -1163.025 9        60.294 9
E15  27826309.519 9 146228243.484 9     -1858.089 9        56.363 9  27826309.519 9 146228243.484 9     -1858.089 9        56.363 9  27826311.125 9 109196421.890 9     -1387.534 9        56.223 9  27826311.125 9 109196421.890 9     -1387.534 9        56.223 9  27826311.125 9 112045024.201 9     -1423.731 9        56.223 9  27826311.125 9 112045024.201 9     -1423.731 9        56.223 9  27826311.125 9 110620723.045 9     -1405.632 9        59.233 9  27826311.125 9 110620723.045 9     -1405.632 9        59.233 9
E03  26329050.518 9 138360094.328 9      2464.168 9        56.971 9  26329050.518 9 138360094.328 9      2464.168 9        56.971 9  26329051.404 9 103320853.137 9      1840.126 9        56.831 9  26329051.404 9 103320853.137 9      1840.126 9        56.831 9  26329051.404 9 106016179.741 9      1888.129 9        56.831 9  26329051.404 9 106016179.741 9      1888.129 9        56.831 9  26329051.404 9 104668516.439 9      1864.127 9        59.842 9  26329051.404 9 104668516.439 9      1864.127 9        59.842 9
E24  24085745.747 9 126571448.186 9      1246.429 9        57.795 9  24085745.747 9 126571448.186 9      1246.429 9        57.795 9  24085744.972 9  94517636.837 9       930.775 9        57.655 9  24085744.972 9  94517636.837 9       930.775 9        57.655 9  24085744.972 9  96983314.320 9       955.056 9        57.655 9  24085744.972 9  96983314.320 9       955.056 9        57.655 9  24085744.972 9  95750475.578 9       942.916 9        60.666 9  24085744.972 9  95750475.578 9       942.916 9        60.666 9
> 2023 01 08 10 00 11.0000000  0 19       0.000000000000
G08  25067436.370 9 131730267.229 9     -1484.171 9        54.232 9  25067437.363 8 102646965.545 8     -1156.497 8        49.732 8  25067436.370 9  98370004.749 9     -1108.309 9        56.332 9
G13  20027934.492 9 105247506.118 9       580.971 9        56.112 9  20027932.234 8  82011034.483 8       452.705 8        51.612 8  20027934.492 9  78593916.906 9       433.842 9        58.212 9
G24  24533989.794 9 128926986.554 9      3532.556 9        54.411 9  24533990.336 8 100462589.144 8      2752.641 8        49.911 8  24533989.794 9  96276645.803 9      2637.947 9        56.511 9
G07  24594318.075 9 129244013.808 9     -2971.804 9        54.359 9  24594315.907 8 100709612.274 8     -2315.691 8        49.859 8  24594318.075 9  96513386.935 9     -2219.204 9        56.459 9
G18  24767534.603 9 130154272.806 9     -1365.520 9        54.336 9  24767532.977 8 101418907.218 8     -1064.042 8        49.836 8  24767534.603 9  97193125.797 9     -1019.707 9        56.436 9
G20  23513270.609 9 123563071.030 9     -3648.292 9        54.727 9  23513268.983 8  96282905.834 8     -2842.825 8        50.227 8  23513270.609 9  92271124.471 9     -2724.374 9        56.827 9
G14  20962707.390 9 110159770.850 9       130.310 9        55.782 9  20962705.854 8  85838776.194 8       101.541 8        51.282 8  20962707.390 9  82262166.544 9        97.310 9        57.882 9
G23  24872441.701 9 130705563.326 9      3230.047 9        54.289 9  24872440.075 8 101848484.247 8      2516.920 8        49.789 8  24872441.701 9  97604803.783 9      2412.048 9        56.389 9
G05  21741715.004 9 114253483.496 9     -2427.699 9        55.471 9  21741712.837 8  89028679.562 8     -1891.714 8        50.971 8  21741715.004 9  85319159.753 9     -1812.892 9        57.571 9
G30  21854066.648 9 114843895.366 9     -2260.470 9        55.477 9  21854067.370 8  89488752.595 8     -1761.405 8        50.977 8  21854066.648 9  85760051.734 9     -1688.013 9        57.577 9
G15  21121202.526 9 110992668.411 9      2297.515 9        55.709 9  21121200.448 8  86487785.061 8      1790.272 8        51.209 8  21121202.526 9  82884135.502 9      1715.677 9        57.809 9
E05  23314321.603 9 122517586.950 9       361.697 9        57.976 9  23314321.603 9 122517586.950 9       361.697 9        57.976 9  23314322.544 9  91490409.533 9       270.098 9        57.836 9  23314322.544 9  91490409.533 9       270.098 9        57.836 9  23314322.544 9  93877115.869 9       277.144 9        57.836 9  23314322.544 9  93877115.869 9       277.144 9        57.836 9  23314322.544 9  92683762.701 9       273.621 9        60.847 9  23314322.544 9  92683762.701 9       273.621 9        60.847 9
E09  25212634.503 9 132493288.568 9     -2093.953 9        57.366 9  25212634.503 9 132493288.568 9     -2093.953 9        57.366 9  25212635.001 9  98939795.367 9     -1563.667 9        57.227 9  25212635.001 9  98939795.367 9     -1563.667 9        57.227 9  25212635.001 9 101520833.507 9     -1604.458 9        57.227 9  25212635.001 9 101520833.507 9     -1604.458 9        57.227 9  25212635.001 9 100230314.437 9     -1584.062 9        60.237 9  25212635.001 9 100230314.437 9     -1584.062 9        60.237 9
E13  28148367.722 9 147920670.762 9       327.288 9        56.288 9  28148367.722 9 147920670.762 9       327.288 9        56.288 9  28148367.888 9 110460241.805 9       244.403 9        56.148 9  28148367.888 9 110460241.805 9       244.403 9        56.148 9  28148367.888 9 113341813.331 9       250.779 9        56.148 9  28148367.888 9 113341813.331 9       250.779 9        56.148 9  28148367.888 9 111901027.568 9       247.591 9        59.158 9  28148367.888 9 111901027.568 9       247.591 9        59.158 9
E25  27080552.099 9 142309261.791 9      3130.735 9        56.721 9  27080552.099 9 142309261.791 9      3130.735 9        56.721 9  27080553.151 9 106269907.414 9      2337.886 9        56.581 9  27080553.151 9 106269907.414 9      2337.886 9        56.581 9  27080553.151 9 109042165.868 9      2398.875 9        56.581 9  27080553.151 9 109042165.868 9      2398.875 9        56.581 9  27080553.151 9 107656036.641 9      2368.381 9        59.591 9  27080553.151 9 107656036.641 9      2368.381 9        59.591 9
E31  24965239.994 9 131193221.650 9     -1537.764 9        57.423 9  24965239.994 9 131193221.650 9     -1537.764 9        57.423 9  24965240.991 9  97968968.130 9     -1148.330 9        57.284 9  24965240.991 9  97968968.130 9     -1148.330 9        57.284 9  24965240.991 9 100524680.343 9     -1178.287 9        57.284 9  24965240.991 9 100524680.343 9     -1178.287 9        57.284 9  24965240.991 9  99246824.237 9     -1163.309 9        60.294 9  24965240.991 9  99246824.237 9     -1163.309 9        60.294 9
E15  27826663.136 9 146230101.749 9     -1858.437 9        56.362 9  27826663.136 9 146230101.749 9     -1858.437 9        56.362 9  27826664.741 9 109197809.556 9     -1387.794 9        56.223 9  27826664.741 9 109197809.556 9     -1387.794 9        56.223 9  27826664.741 9 112046448.066 9     -1423.997 9        56.223 9  27826664.741 9 112046448.066 9     -1423.997 9        56.223 9  27826664.741 9 110622128.811 9     -1405.896 9        59.233 9  27826664.741 9 110622128.811 9     -1405.896 9        59.233 9
E03  26328581.612 9 138357630.207 9      2464.070 9        56.971 9  26328581.612 9 138357630.207 9      2464.070 9        56.971 9  26328582.498 9 103319013.047 9      1840.052 9        56.831 9  26328582.498 9 103319013.047 9      1840.052 9        56.831 9  26328582.498 9 106014291.648 9      1888.054 9        56.831 9  26328582.498 9 106014291.648 9      1888.054 9        56.831 9  26328582.498 9 104666652.347 9      1864.053 9        59.842 9  26328582.498 9 104666652.347 9      1864.053 9        59.842 9
E24  24085508.600 9 126570201.974 9      1245.996 9        57.795 9  24085508.600 9 126570201.974 9      1245.996 9        57.795 9  24085507.825 9  94516706.224 9       930.451 9        57.655 9  24085507.825 9  94516706.224 9       930.451 9        57.655 9  24085507.825 9  96982359.430 9       954.724 9        57.655 9  24085507.825 9  96982359.430 9       954.724 9        57.655 9  24085507.825 9  95749532.827 9       942.588 9        60.666 9  24085507.825 9  95749532.827 9       942.588 9        60.666 9
> 2023 01 08 10 00 12.0000000  0 19       0.000000000000
G08  25067718.853 9 131731751.688 9     -1484.749 9        54.232 9  25067719.846 8 102648122.266 8     -1156.947 8        49.732 8  25067718.853 9  98371113.273 9     -1108.741 9        56.332 9
G13  20027823.982 9 105246925.384 9       580.497 9        56.112 9  20027821.724 8  82010581.963 8       452.335 8        51.612 8  20027823.982 9  78593483.241 9       433.488 9        58.212 9
G24  24533317.580 9 128923454.047 9      3532.452 9        54.411 9  24533318.122 8 100459836.541 8      2752.560 8        49.911 8  24533317.580 9  96274007.892 9      2637.870 9        56.511 9
G07  24594883.595 9 129246985.635 9     -2971.854 9        54.359 9  24594881.427 8 100711927.982 8     -2315.730 8        49.859 8  24594883.595 9  96515606.156 9     -2219.242 9        56.459 9
G18  24767794.503 9 130155638.592 9     -1366.048 9        54.336 9  24767792.877 8 101419971.467 8     -1064.453 8        49.836 8  24767794.503 9  97194145.702 9     -1020.101 9        56.436 9
G20  23513964.870 9 123566719.397 9     -3648.440 9        54.727 9  23513963.244 8  96285748.718 8     -2842.940 8        50.227 8  23513964.870 9  92273848.901 9     -2724.485 9        56.827 9
G14  20962682.655 9 110159640.870 9       129.651 9        55.782 9  20962681.120 8  85838674.910 8       101.027 8        51.282 8  20962682.655 9  82262069.481 9        96.818 9        57.882 9
G23  24871827.072 9 130702333.431 9      3229.740 9        54.290 9  24871825.446 8 101845967.445 8      2516.680 8        49.790 8  24871827.072 9  97602391.848 9      2411.819 9        56.390 9
G05  21742177.030 9 114255911.455 9     -2428.218 9        55.471 9  21742174.862 8  89030571.479 8     -1892.118 8        50.971 8  21742177.030 9  85320972.840 9     -1813.280 9        57.571 9
G30  21854496.826 9 114846155.969 9     -2260.739 9        55.477 9  21854497.549 8  89490514.103 8     -1761.615 8        50.977 8  21854496.826 9  85761739.847 9     -1688.214 9        57.577 9
G15  21120765.364 9 110990371.110 9      2297.085 9        55.709 9  21120763.286 8  86485994.956 8      1789.937 8        51.209 8  21120765.364 9  82882419.985 9      1715.356 9        57.809 9
E05  23314252.805 9 122517225.412 9       361.380 9        57.976 9  23314252.805 9 122517225.412 9       361.380 9        57.976 9  23314253.746 9  91490139.553 9       269.861 9        57.836 9  23314253.746 9  91490139.553 9       269.861 9        57.836 9  23314253.746 9  93876838.846 9       276.901 9        57.836 9  23314253.746 9  93876838.846 9       276.901 9        57.836 9  23314253.746 9  92683489.200 9       273.381 9        60.847 9  23314253.746 9  92683489.200 9       273.381 9        60.847 9
E09  25213032.991 9 132495382.638 9     -2094.189 9        57.366 9  25213032.991 9 132495382.638 9     -2094.189 9        57.366 9  25213033.489 9  98941359.120 9     -1563.842 9        57.226 9  25213033.489 9  98941359.120 9     -1563.842 9        57.226 9  25213033.489 9 101522438.054 9     -1604.638 9        57.226 9  25213033.489 9 101522438.054 9     -1604.638 9        57.226 9  25213033.489 9 100231898.587 9     -1584.240 9        60.237 9  25213033.489 9 100231898.587 9     -1584.240 9        60.237 9
E13  28148305.488 9 147920343.721 9       326.793 9        56.288 9  28148305.488 9 147920343.721 9       326.793 9        56.288 9  28148305.654 9 110459997.587 9       244.034 9        56.148 9  28148305.654 9 110459997.587 9       244.034 9        56.148 9  28148305.654 9 113341562.741 9       250.400 9        56.148 9  28148305.654 9 113341562.741 9       250.400 9        56.148 9  28148305.654 9 111900780.164 9       247.217 9        59.158 9  28148305.654 9 111900780.164 9       247.217 9        59.158 9
E25  27079956.351 9 142306131.114 9      3130.617 9        56.721 9  27079956.351 9 142306131.114 9      3130.617 9        56.721 9  27079957.404 9 106267569.571 9      2337.798 9        56.581 9  27079957.404 9 106267569.571 9      2337.798 9        56.581 9  27079957.404 9 109039767.038 9      2398.784 9        56.581 9  27079957.404 9 109039767.038 9      2398.784 9        56.581 9  27079957.404 9 107653668.305 9      2368.291 9        59.592 9  27079957.404 9 107653668.305 9      2368.291 9        59.592 9
E31  24965532.656 9 131194759.601 9     -1538.139 9        57.423 9  24965532.656 9 131194759.601 9     -1538.139 9        57.423 9  24965533.653 9  97970116.600 9     -1148.610 9        57.283 9  24965533.653 9  97970116.600 9     -1148.610 9        57.283 9  24965533.653 9 100525858.772 9     -1178.574 9        57.283 9  24965533.653 9 100525858.772 9     -1178.574 9        57.283 9  24965533.653 9  99247987.686 9     -1163.592 9        60.294 9  24965533.653 9  99247987.686 9     -1163.592 9        60.294 9
E15  27827016.818 9 146231960.362 9     -1858.785 9        56.362 9  27827016.818 9 146231960.362 9     -1858.785 9        56.362 9  27827018.424 9 109199197.481 9     -1388.054 9        56.222 9  27827018.424 9 109199197.481 9     -1388.054 9        56.222 9  27827018.424 9 112047872.198 9     -1424.264 9        56.222 9  27827018.424 9 112047872.198 9     -1424.264 9        56.222 9  27827018.424 9 110623534.839 9     -1406.159 9        59.233 9  27827018.424 9 110623534.839 9     -1406.159 9        59.233 9
E03  26328112.724 9 138355166.184 9      2463.972 9        56.972 9  26328112.724 9 138355166.184 9      2463.972 9        56.972 9  26328113.610 9 103317173.030 9      1839.979 9        56.832 9  26328113.610 9 103317173.030 9      1839.979 9        56.832 9  26328113.610 9 106012403.630 9      1887.979 9        56.832 9  26328113.610 9 106012403.630 9      1887.979 9        56.832 9  26328113.610 9 104664788.330 9      1863.979 9        59.842 9  26328113.610 9 104664788.330 9      1863.979 9        59.842 9
E24  24085271.537 9 126568956.195 9      1245.562 9        57.795 9  24085271.537 9 126568956.195 9      1245.562 9        57.795 9  24085270.761 9  94515775.935 9       930.128 9        57.656 9  24085270.761 9  94515775.935 9       930.128 9        57.656 9  24085270.761 9  96981404.872 9       954.392 9        57.656 9  24085270.761 9  96981404.872 9       954.392 9        57.656 9  24085270.761 9  95748590.403 9       942.260 9        60.666 9  24085270.761 9  95748590.403 9       942.260 9        60.666 9
> 2023 01 08 10 00 13.0000000  0 19       0.000000000000
G08  25068001.446 9 131733236.725 9     -1485.327 9        54.232 9  25068002.439 8 102649279.438 8     -1157.397 8        49.732 8  25068001.446 9  98372222.229 9     -1109.172 9        56.332 9
G13  20027713.562 9 105246345.124 9       580.023 9        56.112 9  20027711.304 8  82010129.812 8       451.966 8        51.612 8  20027713.562 9  78593049.930 9       433.134 9        58.212 9
G24  24532645.386 9 128919921.644 9      3532.348 9        54.411 9  24532645.928 8 100457084.019 8      2752.479 8        49.911 8  24532645.386 9  96271370.059 9      2637.792 9        56.511 9
G07  24595449.124 9 129249957.511 9     -2971.904 9        54.359 9  24595446.956 8 100714243.730 8     -2315.769 8        49.859 8  24595449.124 9  96517825.414 9     -2219.279 9        56.459 9
G18  24768054.504 9 130157004.905 9     -1366.576 9        54.336 9  24768052.878 8 101421036.126 8     -1064.864 8        49.836 8  24768054.504 9  97195166.000 9     -1020.495 9        56.436 9
G20  23514659.159 9 123570367.912 9     -3648.588 9        54.727 9  23514657.533 8  96288591.716 8     -2843.056 8        50.227 8  23514659.159 9  92276573.441 9     -2724.595 9        56.827 9
G14  20962658.046 9 110159511.548 9       128.993 9        55.782 9  20962656.511 8  85838574.140 8       100.514 8        51.282 8  20962658.046 9  82261972.909 9        96.326 9        57.882 9
G23  24871212.502 9 130699103.843 9      3229.432 9        54.290 9  24871210.876 8 101843450.884 8      2516.441 8        49.790 8  24871212.502 9  97599980.143 9      2411.589 9        56.390 9
G05  21742639.154 9 114258339.934 9     -2428.737 9        55.471 9  21742636.986 8  89032463.800 8     -1892.523 8        50.971 8  21742639.154 9  85322786.314 9     -1813.667 9        57.571 9
G30  21854927.056 9 114848416.841 9     -2261.008 9        55.477 9  21854927.778 8  89492275.822 8     -1761.824 8        50.977 8  21854927.056 9  85763428.160 9     -1688.415 9        57.577 9
G15  21120328.284 9 110988074.238 9      2296.655 9        55.710 9  21120326.206 8  86484205.186 8      1789.601 8        51.210 8  21120328.284 9  82880704.788 9      1715.035 9        57.810 9
E05  23314184.066 9 122516864.190 9       361.063 9        57.976 9  23314184.066 9 122516864.190 9       361.063 9        57.976 9  23314185.008 9  91489869.810 9       269.625 9        57.836 9  23314185.008 9  91489869.810 9       269.625 9        57.836 9  23314185.008 9  93876562.066 9       276.659 9        57.836 9  23314185.008 9  93876562.066 9       276.659 9        57.836 9  23314185.008 9  92683215.938 9       273.142 9        60.847 9  23314185.008 9  92683215.938 9       273.142 9        60.847 9
E09  25213431.524 9 132497476.943 9     -2094.424 9        57.366 9  25213431.524 9 132497476.943 9     -2094.424 9        57.366 9  25213432.022 9  98942923.049 9     -1564.018 9        57.226 9  25213432.022 9  98942923.049 9     -1564.018 9        57.226 9  25213432.022 9 101524042.781 9     -1604.818 9        57.226 9  25213432.022 9 101524042.781 9     -1604.818 9        57.226 9  25213432.022 9 100233482.915 9     -1584.418 9        60.237 9  25213432.022 9 100233482.915 9     -1584.418 9        60.237 9
E13  28148243.349 9 147920017.176 9       326.299 9        56.288 9  28148243.349 9 147920017.176 9       326.299 9        56.288 9  28148243.515 9 110459753.737 9       243.665 9        56.148 9  28148243.515 9 110459753.737 9       243.665 9        56.148 9  28148243.515 9 113341312.531 9       250.021 9        56.148 9  28148243.515 9 113341312.531 9       250.021 9        56.148 9  28148243.515 9 111900533.134 9       246.843 9        59.158 9  28148243.515 9 111900533.134 9       246.843 9        59.158 9
E25  27079360.626 9 142303000.556 9      3130.498 9        56.721 9  27079360.626 9 142303000.556 9      3130.498 9        56.721 9  27079361.678 9 106265231.816 9      2337.710 9        56.581 9  27079361.678 9 106265231.816 9      2337.710 9        56.581 9  27079361.678 9 109037368.298 9      2398.693 9        56.581 9  27079361.678 9 109037368.298 9      2398.693 9        56.581 9  27079361.678 9 107651300.057 9      2368.202 9        59.592 9  27079361.678 9 107651300.057 9      2368.202 9        59.592 9
E31  24965825.390 9 131196297.926 9     -1538.514 9        57.423 9  24965825.390 9 131196297.926 9     -1538.514 9        57.423 9  24965826.387 9  97971265.349 9     -1148.890 9        57.283 9  24965826.387 9  97971265.349 9     -1148.890 9        57.283 9  24965826.387 9 100527037.489 9     -1178.861 9        57.283 9  24965826.387 9 100527037.489 9     -1178.861 9        57.283 9  24965826.387 9  99249151.419 9     -1163.876 9        60.294 9  24965826.387 9  99249151.419 9     -1163.876 9        60.294 9
E15  27827370.566 9 146233819.323 9     -1859.133 9        56.362 9  27827370.566 9 146233819.323 9     -1859.133 9        56.362 9  27827372.172 9 109200585.666 9     -1388.314 9        56.222 9  27827372.172 9 109200585.666 9     -1388.314 9        56.222 9  27827372.172 9 112049296.597 9     -1424.531 9        56.222 9  27827372.172 9 112049296.597 9     -1424.531 9        56.222 9  27827372.172 9 110624941.131 9     -1406.422 9        59.233 9  27827372.172 9 110624941.131 9     -1406.422 9        59.233 9
E03  26327643.854 9 138352702.259 9      2463.874 9        56.972 9  26327643.854 9 138352702.259 9      2463.874 9        56.972 9  26327644.740 9 103315333.086 9      1839.906 9        56.832 9  26327644.740 9 103315333.086 9      1839.906 9        56.832 9  26327644.740 9 106010515.688 9      1887.903 9        56.832 9  26327644.740 9 106010515.688 9      1887.903 9        56.832 9  26327644.740 9 104662924.387 9      1863.904 9        59.842 9  26327644.740 9 104662924.387 9      1863.904 9        59.842 9
E24  24085034.555 9 126567710.849 9      1245.129 9        57.796 9  24085034.555 9 126567710.849 9      1245.129 9        57.796 9  24085033.780 9  94514845.969 9       929.804 9        57.656 9  24085033.780 9  94514845.969 9       929.804 9        57.656 9  24085033.780 9  96980450.646 9       954.060 9        57.656 9  24085033.780 9  96980450.646 9       954.060 9        57.656 9  24085033.780 9  95747648.308 9       941.932 9        60.666 9  24085033.780 9  95747648.308 9       941.932 9        60.666 9
> 2023 01 08 10 00 14.0000000  0 19       0.000000000000
G08  25068284.149 9 131734722.340 9     -1485.904 9        54.232 9  25068285.143 8 102650437.060 8     -1157.848 8        49.732 8  25068284.149 9  98373331.617 9     -1109.604 9        56.332 9
G13  20027603.233 9 105245765.337 9       579.550 9        56.112 9  20027600.975 8  82009678.030 8       451.597 8        51.612 8  20027603.233 9  78592616.973 9       432.780 9        58.212 9
G24  24531973.212 9 128916389.345 9      3532.244 9        54.411 9  24531973.754 8 100454331.578 8      2752.398 8        49.911 8  24531973.212 9  96268732.303 9      2637.714 9        56.511 9
G07  24596014.663 9 129252929.437 9     -2971.954 9        54.359 9  24596012.495 8 100716559.517 8     -2315.808 8        49.859 8  24596014.663 9  96520044.710 9     -2219.316 9        56.459 9
G18  24768314.605 9 130158371.745 9     -1367.103 9        54.336 9  24768312.979 8 101422101.197 8     -1065.275 8        49.836 8  24768314.605 9  97196186.693 9     -1020.889 9        56.436 9
G20  23515353.477 9 123574016.575 9     -3648.736 9        54.726 9  23515351.851 8  96291434.830 8     -2843.171 8        50.226 8  23515353.477 9  92279298.092 9     -2724.706 9        56.826 9
G14  20962633.562 9 110159382.885 9       128.334 9        55.782 9  20962632.027 8  85838473.883 8       100.000 8        51.282 8  20962633.562 9  82261876.829 9        95.834 9        57.882 9
G23  24870597.990 9 130695874.563 9      3229.124 9        54.290 9  24870596.365 8 101840934.561 8      2516.201 8        49.790 8  24870597.990 9  97597568.667 9      2411.359 9        56.390 9
G05  21743101.377 9 114260768.932 9     -2429.256 9        55.471 9  21743099.209 8  89034356.526 8     -1892.927 8        50.971 8  21743101.377 9  85324600.176 9     -1814.055 9        57.571 9
G30  21855357.337 9 114850677.982 9     -2261.277 9        55.477 9  21855358.059 8  89494037.750 8     -1762.034 8        50.977 8  21855357.337 9  85765116.675 9     -1688.616 9        57.577 9
G15  21119891.285 9 110985777.797 9      2296.225 9        55.710 9  21119889.208 8  86482415.751 8      1789.266 8        51.210 8  21119891.285 9  82878989.913 9      1714.713 9        57.810 9
E05  23314115.389 9 122516503.286 9       360.746 9        57.976 9  23314115.389 9 122516503.286 9       360.746 9        57.976 9  23314116.330 9  91489600.303 9       269.388 9        57.836 9  23314116.330 9  91489600.303 9       269.388 9        57.836 9  23314116.330 9  93876285.529 9       276.416 9        57.836 9  23314116.330 9  93876285.529 9       276.416 9        57.836 9  23314116.330 9  92682942.916 9       272.902 9        60.847 9  23314116.330 9  92682942.916 9       272.902 9        60.847 9
E09  25213830.102 9 132499571.483 9     -2094.659 9        57.366 9  25213830.102 9 132499571.483 9     -2094.659 9        57.366 9  25213830.600 9  98944487.154 9     -1564.194 9        57.226 9  25213830.600 9  98944487.154 9     -1564.194 9        57.226 9  25213830.600 9 101525647.688 9     -1604.999 9        57.226 9  25213830.600 9 101525647.688 9     -1604.999 9        57.226 9  25213830.600 9 100235067.421 9     -1584.596 9        60.236 9  25213830.600 9 100235067.421 9     -1584.596 9        60.236 9
E13  28148181.303 9 147919691.124 9       325.804 9        56.288 9  28148181.303 9 147919691.124 9       325.804 9        56.288 9  28148181.469 9 110459510.258 9       243.295 9        56.148 9  28148181.469 9 110459510.258 9       243.295 9        56.148 9  28148181.469 9 113341062.699 9       249.642 9        56.148 9  28148181.469 9 113341062.699 9       249.642 9        56.148 9  28148181.469 9 111900286.478 9       246.469 9        59.158 9  28148181.469 9 111900286.478 9       246.469 9        59.158 9
E25  27078764.923 9 142299870.116 9      3130.380 9        56.722 9  27078764.923 9 142299870.116 9      3130.380 9        56.722 9  27078765.975 9 106262894.150 9      2337.621 9        56.582 9  27078765.975 9 106262894.150 9      2337.621 9        56.582 9  27078765.975 9 109034969.650 9      2398.603 9        56.582 9  27078765.975 9 109034969.650 9      2398.603 9        56.582 9  27078765.975 9 107648931.900 9      2368.112 9        59.592 9  27078765.975 9 107648931.900 9      2368.112 9        59.592 9
E31  24966118.195 9 131197836.626 9     -1538.888 9        57.423 9  24966118.195 9 131197836.626 9     -1538.888 9        57.423 9  24966119.191 9  97972414.379 9     -1149.170 9        57.283 9  24966119.191 9  97972414.379 9     -1149.170 9        57.283 9  24966119.191 9 100528216.493 9     -1179.148 9        57.283 9  24966119.191 9 100528216.493 9     -1179.148 9        57.283 9  24966119.191 9  99250315.436 9     -1164.159 9        60.294 9  24966119.191 9  99250315.436 9     -1164.159 9        60.294 9
E15  27827724.381 9 146235678.633 9     -1859.481 9        56.362 9  27827724.381 9 146235678.633 9     -1859.481 9        56.362 9  27827725.987 9 109201974.111 9     -1388.574 9        56.222 9  27827725.987 9 109201974.111 9     -1388.574 9        56.222 9  27827725.987 9 112050721.262 9     -1424.797 9        56.222 9  27827725.987 9 112050721.262 9     -1424.797 9        56.222 9  27827725.987 9 110626347.687 9     -1406.686 9        59.233 9  27827725.987 9 110626347.687 9     -1406.686 9        59.233 9
E03  26327175.004 9 138350238.433 9      2463.775 9        56.972 9  26327175.004 9 138350238.433 9      2463.775 9        56.972 9  26327175.890 9 103313493.215 9      1839.832 9        56.832 9  26327175.890 9 103313493.215 9      1839.832 9        56.832 9  26327175.890 9 106008627.821 9      1887.828 9        56.832 9  26327175.890 9 106008627.821 9      1887.828 9        56.832 9  26327175.890 9 104661060.518 9      1863.830 9        59.842 9  26327175.890 9 104661060.518 9      1863.830 9        59.842 9
E24  24084797.656 9 126566465.937 9      1244.696 9        57.796 9  24084797.656 9 126566465.937 9      1244.696 9        57.796 9  24084796.881 9  94513916.327 9       929.481 9        57.656 9  24084796.881 9  94513916.327 9       929.481 9        57.656 9  24084796.881 9  96979496.753 9       953.728 9        57.656 9  24084796.881 9  96979496.753 9       953.728 9        57.656 9  24084796.881 9  95746706.540 9       941.604 9        60.666 9  24084796.881 9  95746706.540 9       941.604 9        60.666 9
> 2023 01 08 10 00 15.0000000  0 19       0.000000000000
G08  25068566.962 9 131736208.532 9     -1486.482 9        54.232 9  25068567.956 8 102651595.132 8     -1158.298 8        49.732 8  25068566.962 9  98374441.436 9     -1110.035 9        56.332 9
G13  20027492.993 9 105245186.025 9       579.076 9        56.112 9  20027490.735 8  82009226.618 8       451.228 8        51.612 8  20027492.993 9  78592184.369 9       432.427 9        58.212 9
G24  24531301.058 9 128912857.150 9      3532.139 9        54.412 9  24531301.600 8 100451579.219 8      2752.316 8        49.912 8  24531301.058 9  96266094.625 9      2637.637 9        56.512 9
G07  24596580.211 9 129255901.413 9     -2972.004 9        54.358 9  24596578.043 8 100718875.342 8     -2315.847 8        49.858 8  24596580.211 9  96522264.042 9     -2219.354 9        56.458 9
G18  24768574.806 9 130159739.113 9     -1367.630 9        54.336 9  24768573.181 8 101423166.678 8     -1065.686 8        49.836 8  24768574.806 9  97197207.779 9     -1021.282 9        56.436 9
G20  23516047.822 9 123577665.386 9     -3648.884 9        54.726 9  23516046.197 8  96294278.060 8     -2843.286 8        50.226 8  23516047.822 9  92282022.854 9     -2724.816 9        56.826 9
G14  20962609.204 9 110159254.881 9       127.675 9        55.782 9  20962607.669 8  85838374.139 8        99.487 8        51.282 8  20962609.204 9  82261781.242 9        95.341 9        57.882 9
G23  24869983.537 9 130692645.591 9      3228.817 9        54.290 9  24869981.912 8 101838418.479 8      2515.961 8        49.790 8  24869983.537 9  97595157.422 9      2411.129 9        56.390 9
G05  21743563.698 9 114263198.449 9     -2429.775 9        55.470 9  21743561.531 8  89036249.656 8     -1893.331 8        50.970 8  21743563.698 9  85326414.426 9     -1814.442 9        57.570 9
G30  21855787.669 9 114852939.392 9     -2261.546 9        55.476 9  21855788.391 8  89495799.887 8     -1762.244 8        50.976 8  21855787.669 9  85766805.390 9     -1688.817 9        57.576 9
G15  21119454.369 9 110983481.786 9      2295.794 9        55.710 9  21119452.292 8  86480626.652 8      1788.931 8        51.210 8  21119454.369 9  82877275.360 9      1714.392 9        57.810 9
E05  23314046.771 9 122516142.698 9       360.429 9        57.976 9  23314046.771 9 122516142.698 9       360.429 9        57.976 9  23314047.712 9  91489331.033 9       269.152 9        57.836 9  23314047.712 9  91489331.033 9       269.152 9        57.836 9  23314047.712 9  93876009.234 9       276.173 9        57.836 9  23314047.712 9  93876009.234 9       276.173 9        57.836 9  23314047.712 9  92682670.134 9       272.662 9        60.847 9  23314047.712 9  92682670.134 9       272.662 9        60.847 9
E09  25214228.724 9 132501666.259 9     -2094.894 9        57.366 9  25214228.724 9 132501666.259 9     -2094.894 9        57.366 9  25214229.223 9  98946051.434 9     -1564.369 9        57.226 9  25214229.223 9  98946051.434 9     -1564.369 9        57.226 9  25214229.223 9 101527252.776 9     -1605.179 9        57.226 9  25214229.223 9 101527252.776 9     -1605.179 9        57.226 9  25214229.223 9 100236652.105 9     -1584.774 9        60.236 9  25214229.223 9 100236652.105 9     -1584.774 9        60.236 9
E13  28148119.352 9 147919365.567 9       325.310 9        56.288 9  28148119.352 9 147919365.567 9       325.310 9        56.288 9  28148119.518 9 110459267.147 9       242.926 9        56.148 9  28148119.518 9 110459267.147 9       242.926 9        56.148 9  28148119.518 9 113340813.246 9       249.263 9        56.148 9  28148119.518 9 113340813.246 9       249.263 9        56.148 9  28148119.518 9 111900040.197 9       246.095 9        59.158 9  28148119.518 9 111900040.197 9       246.095 9        59.158 9
E25  27078169.243 9 142296739.794 9      3130.262 9        56.722 9  27078169.243 9 142296739.794 9      3130.262 9        56.722 9  27078170.295 9 106260556.572 9      2337.533 9        56.582 9  27078170.295 9 106260556.572 9      2337.533 9        56.582 9  27078170.295 9 109032571.091 9      2398.512 9        56.582 9  27078170.295 9 109032571.091 9      2398.512 9        56.582 9  27078170.295 9 107646563.832 9      2368.023 9        59.592 9  27078170.295 9 107646563.832 9      2368.023 9        59.592 9
E31  24966411.071 9 131199375.700 9     -1539.263 9        57.423 9  24966411.071 9 131199375.700 9     -1539.263 9        57.423 9  24966412.068 9  97973563.687 9     -1149.450 9        57.283 9  24966412.068 9  97973563.687 9     -1149.450 9        57.283 9  24966412.068 9 100529395.784 9     -1179.435 9        57.283 9  24966412.068 9 100529395.784 9     -1179.435 9        57.283 9  24966412.068 9  99251479.736 9     -1164.442 9        60.293 9  24966412.068 9  99251479.736 9     -1164.442 9        60.293 9
E15  27828078.262 9 146237538.290 9     -1859.829 9        56.362 9  27828078.262 9 146237538.290 9     -1859.829 9        56.362 9  27828079.868 9 109203362.816 9     -1388.834 9        56.222 9  27828079.868 9 109203362.816 9     -1388.834 9        56.222 9  27828079.868 9 112052146.194 9     -1425.064 9        56.222 9  27828079.868 9 112052146.194 9     -1425.064 9        56.222 9  27828079.868 9 110627754.505 9     -1406.949 9        59.232 9  27828079.868 9 110627754.505 9     -1406.949 9        59.232 9
E03  26326706.172 9 138347774.704 9      2463.677 9        56.972 9  26326706.172 9 138347774.704 9      2463.677 9        56.972 9  26326707.058 9 103311653.418 9      1839.759 9        56.832 9  26326707.058 9 103311653.418 9      1839.759 9        56.832 9  26326707.058 9 106006740.029 9      1887.753 9        56.832 9  26326707.058 9 106006740.029 9      1887.753 9        56.832 9  26326707.058 9 104659196.724 9      1863.756 9        59.842 9  26326707.058 9 104659196.724 9      1863.756 9        59.842 9
E24  24084560.840 9 126565221.459 9      1244.262 9        57.796 9  24084560.840 9 126565221.459 9      1244.262 9        57.796 9  24084560.065 9  94512987.008 9       929.157 9        57.656 9  24084560.065 9  94512987.008 9       929.157 9        57.656 9  24084560.065 9  96978543.191 9       953.396 9        57.656 9  24084560.065 9  96978543.191 9       953.396 9        57.656 9  24084560.065 9  95745765.100 9       941.276 9        60.666 9  24084560.065 9  95745765.100 9       941.276 9        60.666 9
> 2023 01 08 10 00 16.0000000  0 19       0.000000000000
G08  25068849.885 9 131737695.303 9     -1487.060 9        54.232 9  25068850.879 8 102652753.655 8     -1158.748 8        49.732 8  25068849.885 9  98375551.687 9     -1110.467 9        56.332 9
G13  20027382.844 9 105244607.186 9       578.602 9        56.112 9  20027380.586 8  82008775.575 8       450.859 8        51.612 8  20027382.844 9  78591752.119 9       432.073 9        58.212 9
G24  24530628.923 9 128909325.059 9      3532.035 9        54.412 9  24530629.465 8 100448826.940 8      2752.235 8        49.912 8  24530628.923 9  96263457.025 9      2637.559 9        56.512 9
G07  24597145.769 9 129258873.440 9     -2972.054 9        54.358 9  24597143.601 8 100721191.207 8     -2315.886 8        49.858 8  24597145.769 9  96524483.413 9     -2219.391 9        56.458 9
G18  24768835.108 9 130161107.008 9     -1368.158 9        54.335 9  24768833.482 8 101424232.570 8     -1066.097 8        49.835 8  24768835.108 9  97198229.259 9     -1021.676 9        56.435 9
G20  23516742.196 9 123581314.345 9     -3649.032 9        54.726 9  23516740.570 8  96297121.405 8     -2843.402 8        50.226 8  23516742.196 9  92284747.726 9     -2724.927 9        56.826 9
G14  20962584.971 9 110159127.535 9       127.016 9        55.782 9  20962583.436 8  85838274.909 8        98.973 8        51.282 8  20962584.971 9  82261686.147 9        94.849 9        57.882 9
G23  24869369.143 9 130689416.926 9      3228.509 9        54.290 9  24869367.517 8 101835902.637 8      2515.721 8        49.790 8  24869369.143 9  97592746.406 9      2410.899 9        56.390 9
G05  21744026.119 9 114265628.484 9     -2430.294 9        55.470 9  21744023.951 8  89038143.190 8     -1893.735 8        50.970 8  21744026.119 9  85328229.063 9     -1814.830 9        57.570 9
G30  21856218.052 9 114855201.071 9     -2261.815 9        55.476 9  21856218.774 8  89497562.234 8     -1762.453 8        50.976 8  21856218.052 9  85768494.306 9     -1689.018 9        57.576 9
G15  21119017.535 9 110981186.205 9      2295.364 9        55.710 9  21119015.457 8  86478837.888 8      1788.595 8        51.210 8  21119017.535 9  82875561.127 9      1714.070 9        57.810 9
E05  23313978.214 9 122515782.427 9       360.112 9        57.976 9  23313978.214 9 122515782.427 9       360.112 9        57.976 9  23313979.155 9  91489062.000 9       268.915 9        57.836 9  23313979.155 9  91489062.000 9       268.915 9        57.836 9  23313979.155 9  93875733.183 9       275.930 9        57.836 9  23313979.155 9  93875733.183 9       275.930 9        57.836 9  23313979.155 9  92682397.591 9       272.423 9        60.847 9  23313979.155 9  92682397.591 9       272.423 9        60.847 9
E09  25214627.392 9 132503761.269 9     -2095.130 9        57.366 9  25214627.392 9 132503761.269 9     -2095.130 9        57.366 9  25214627.890 9  98947615.891 9     -1564.545 9        57.226 9  25214627.890 9  98947615.891 9     -1564.545 9        57.226 9  25214627.890 9 101528858.044 9     -1605.359 9        57.226 9  25214627.890 9 101528858.044 9     -1605.359 9        57.226 9  25214627.890 9 100238236.967 9     -1584.952 9        60.236 9  25214627.890 9 100238236.967 9     -1584.952 9        60.236 9
E13  28148057.494 9 147919040.505 9       324.815 9        56.288 9  28148057.494 9 147919040.505 9       324.815 9        56.288 9  28148057.661 9 110459024.406 9       242.557 9        56.148 9  28148057.661 9 110459024.406 9       242.557 9        56.148 9  28148057.661 9 113340564.173 9       248.884 9        56.148 9  28148057.661 9 113340564.173 9       248.884 9        56.148 9  28148057.661 9 111899794.289 9       245.720 9        59.158 9  28148057.661 9 111899794.289 9       245.720 9        59.158 9
E25  27077573.585 9 142293609.591 9      3130.143 9        56.722 9  27077573.585 9 142293609.591 9      3130.143 9        56.722 9  27077574.637 9 106258219.083 9      2337.445 9        56.582 9  27077574.637 9 106258219.083 9      2337.445 9        56.582 9  27077574.637 9 109030172.624 9      2398.421 9        56.582 9  27077574.637 9 109030172.624 9      2398.421 9        56.582 9  27077574.637 9 107644195.853 9      2367.933 9        59.592 9  27077574.637 9 107644195.853 9      2367.933 9        59.592 9
E31  24966704.018 9 131200915.150 9     -1539.637 9        57.423 9  24966704.018 9 131200915.150 9     -1539.637 9        57.423 9  24966705.015 9  97974713.276 9     -1149.729 9        57.283 9  24966705.015 9  97974713.276 9     -1149.729 9        57.283 9  24966705.015 9 100530575.362 9     -1179.722 9        57.283 9  24966705.015 9 100530575.362 9     -1179.722 9        57.283 9  24966705.015 9  99252644.319 9     -1164.726 9        60.293 9  24966705.015 9  99252644.319 9     -1164.726 9        60.293 9
E15  27828432.209 9 146239398.294 9     -1860.177 9        56.362 9  27828432.209 9 146239398.294 9     -1860.177 9        56.362 9  27828433.815 9 109204751.781 9     -1389.093 9        56.222 9  27828433.815 9 109204751.781 9     -1389.093 9        56.222 9  27828433.815 9 112053571.393 9     -1425.330 9        56.222 9  27828433.815 9 112053571.393 9     -1425.330 9        56.222 9  27828433.815 9 110629161.587 9     -1407.212 9        59.232 9  27828433.815 9 110629161.587 9     -1407.212 9        59.232 9
E03  26326237.359 9 138345311.075 9      2463.579 9        56.972 9  26326237.359 9 138345311.075 9      2463.579 9        56.972 9  26326238.245 9 103309813.695 9      1839.685 9        56.832 9  26326238.245 9 103309813.695 9      1839.685 9        56.832 9  26326238.245 9 106004852.313 9      1887.677 9        56.832 9  26326238.245 9 106004852.313 9      1887.677 9        56.832 9  26326238.245 9 104657333.004 9      1863.681 9        59.843 9  26326238.245 9 104657333.004 9      1863.681 9        59.843 9
E24  24084324.106 9 126563977.413 9      1243.829 9        57.796 9  24084324.106 9 126563977.413 9      1243.829 9        57.796 9  24084323.331 9  94512058.014 9       928.833 9        57.656 9  24084323.331 9  94512058.014 9       928.833 9        57.656 9  24084323.331 9  96977589.962 9       953.064 9        57.656 9  24084323.331 9  96977589.962 9       953.064 9        57.656 9  24084323.331 9  95744823.988 9       940.948 9        60.666 9  24084323.331 9  95744823.988 9       940.948 9        60.666 9
> 2023 01 08 10 00 17.0000000  0 19       0.000000000000
G08  25069132.918 9 131739182.651 9     -1487.638 9        54.232 9  25069133.912 8 102653912.627 8     -1159.198 8        49.732 8  25069132.918 9  98376662.369 9     -1110.898 9        56.332 9
G13  20027272.784 9 105244028.821 9       578.128 9        56.112 9  20027270.527 8  82008324.901 8       450.489 8        51.612 8  20027272.784 9  78591320.223 9       431.719 9        58.212 9
G24  24529956.809 9 128905793.072 9      3531.931 9        54.412 9  24529957.351 8 100446074.743 8      2752.154 8        49.912 8  24529956.809 9  96260819.502 9      2637.481 9        56.512 9
G07  24597711.336 9 129261845.516 9     -2972.104 9        54.358 9  24597709.168 8 100723507.111 8     -2315.925 8        49.858 8  24597711.336 9  96526702.820 9     -2219.428 9        56.458 9
G18  24769095.510 9 130162475.431 9     -1368.685 9        54.335 9  24769093.885 8 101425298.874 8     -1066.508 8        49.835 8  24769095.510 9  97199251.133 9     -1022.070 9        56.435 9
G20  23517436.598 9 123584963.452 9     -3649.180 9        54.726 9  23517434.972 8  96299964.864 8     -2843.517 8        50.226 8  23517436.598 9  92287472.708 9     -2725.037 9        56.826 9
G14  20962560.863 9 110159000.849 9       126.357 9        55.782 9  20962559.328 8  85838176.193 8        98.460 8        51.282 8  20962560.863 9  82261591.543 9        94.357 9        57.882 9
G23  24868754.807 9 130686188.570 9      3228.201 9        54.291 9  24868753.181 8 101833387.034 8      2515.481 8        49.791 8  24868754.807 9  97590335.620 9      2410.670 9        56.391 9
G05  21744488.638 9 114268059.038 9     -2430.812 9        55.470 9  21744486.470 8  89040037.128 8     -1894.140 8        50.970 8  21744488.638 9  85330044.087 9     -1815.217 9        57.570 9
G30  21856648.486 9 114857463.018 9     -2262.084 9        55.476 9  21856649.209 8  89499324.791 8     -1762.663 8        50.976 8  21856648.486 9  85770183.423 9     -1689.218 9        57.576 9
G15  21118580.782 9 110978891.055 9      2294.933 9        55.710 9  21118578.705 8  86477049.459 8      1788.260 8        51.210 8  21118580.782 9  82873847.217 9      1713.749 9        57.810 9
E05  23313909.717 9 122515422.474 9       359.795 9        57.976 9  23313909.717 9 122515422.474 9       359.795 9        57.976 9  23313910.658 9  91488793.203 9       268.678 9        57.836 9  23313910.658 9  91488793.203 9       268.678 9        57.836 9  23313910.658 9  93875457.374 9       275.687 9        57.836 9  23313910.658 9  93875457.374 9       275.687 9        57.836 9  23313910.658 9  92682125.289 9       272.183 9        60.847 9  23313910.658 9  92682125.289 9       272.183 9        60.847 9
E09  25215026.104 9 132505856.515 9     -2095.365 9        57.366 9  25215026.104 9 132505856.515 9     -2095.365 9        57.366 9  25215026.602 9  98949180.522 9     -1564.721 9        57.226 9  25215026.602 9  98949180.522 9     -1564.721 9        57.226 9  25215026.602 9 101530463.492 9     -1605.539 9        57.226 9  25215026.602 9 101530463.492 9     -1605.539 9        57.226 9  25215026.602 9 100239822.007 9     -1585.130 9        60.236 9  25215026.602 9 100239822.007 9     -1585.130 9        60.236 9
E13  28147995.731 9 147918715.937 9       324.320 9        56.288 9  28147995.731 9 147918715.937 9       324.320 9        56.288 9  28147995.897 9 110458782.033 9       242.187 9        56.148 9  28147995.897 9 110458782.033 9       242.187 9        56.148 9  28147995.897 9 113340315.478 9       248.505 9        56.148 9  28147995.897 9 113340315.478 9       248.505 9        56.148 9  28147995.897 9 111899548.756 9       245.346 9        59.158 9  28147995.897 9 111899548.756 9       245.346 9        59.158 9
E25  27076977.949 9 142290479.506 9      3130.025 9        56.722 9  27076977.949 9 142290479.506 9      3130.025 9        56.722 9  27076979.001 9 106255881.682 9      2337.356 9        56.582 9  27076979.001 9 106255881.682 9      2337.356 9        56.582 9  27076979.001 9 109027774.247 9      2398.331 9        56.582 9  27076979.001 9 109027774.247 9      2398.331 9        56.582 9  27076979.001 9 107641827.964 9      2367.843 9        59.593 9  27076979.001 9 107641827.964 9      2367.843 9        59.593 9
E31  24966997.037 9 131202454.973 9     -1540.012 9        57.423 9  24966997.037 9 131202454.973 9     -1540.012 9        57.423 9  24966998.034 9  97975863.145 9     -1150.009 9        57.283 9  24966998.034 9  97975863.145 9     -1150.009 9        57.283 9  24966998.034 9 100531755.227 9     -1180.009 9        57.283 9  24966998.034 9 100531755.227 9     -1180.009 9        57.283 9  24966998.034 9  99253809.186 9     -1165.009 9        60.293 9  24966998.034 9  99253809.186 9     -1165.009 9        60.293 9
E15  27828786.223 9 146241258.647 9     -1860.525 9        56.362 9  27828786.223 9 146241258.647 9     -1860.525 9        56.362 9  27828787.828 9 109206141.005 9     -1389.353 9        56.222 9  27828787.828 9 109206141.005 9     -1389.353 9        56.222 9  27828787.828 9 112054996.858 9     -1425.597 9        56.222 9  27828787.828 9 112054996.858 9     -1425.597 9        56.222 9  27828787.828 9 110630568.931 9     -1407.475 9        59.232 9  27828787.828 9 110630568.931 9     -1407.475 9        59.232 9
E03  26325768.564 9 138342847.543 9      2463.480 9        56.972 9  26325768.564 9 138342847.543 9      2463.480 9        56.972 9  26325769.450 9 103307974.045 9      1839.612 9        56.832 9  26325769.450 9 103307974.045 9      1839.612 9        56.832 9  26325769.450 9 106002964.672 9      1887.602 9        56.832 9  26325769.450 9 106002964.672 9      1887.602 9        56.832 9  26325769.450 9 104655469.358 9      1863.607 9        59.843 9  26325769.450 9 104655469.358 9      1863.607 9        59.843 9
E24  24084087.455 9 126562733.802 9      1243.395 9        57.796 9  24084087.455 9 126562733.802 9      1243.395 9        57.796 9  24084086.679 9  94511129.342 9       928.509 9        57.656 9  24084086.679 9  94511129.342 9       928.509 9        57.656 9  24084086.679 9  96976637.064 9       952.731 9        57.656 9  24084086.679 9  96976637.064 9       952.731 9        57.656 9  24084086.679 9  95743883.203 9       940.620 9        60.666 9  24084086.679 9  95743883.203 9       940.620 9        60.666 9
> 2023 01 08 10 00 18.0000000  0 19       0.000000000000
G08  25069416.061 9 131740670.577 9     -1488.215 9        54.232 9  25069417.054 8 102655072.050 8     -1159.648 8        49.732 8  25069416.061 9  98377773.483 9     -1111.330 9        56.332 9
G13  20027162.815 9 105243450.930 9       577.654 9        56.112 9  20027160.558 8  82007874.596 8       450.120 8        51.612 8  20027162.815 9  78590888.681 9       431.365 9        58.212 9
G24  24529284.714 9 128902261.190 9      3531.827 9        54.412 9  24529285.256 8 100443322.627 8      2752.073 8        49.912 8  24529284.714 9  96258182.057 9      2637.403 9        56.512 9
G07  24598276.913 9 129264817.642 9     -2972.154 9        54.358 9  24598274.745 8 100725823.053 8     -2315.964 8        49.858 8  24598276.913 9  96528922.265 9     -2219.465 9        56.458 9
G18  24769356.013 9 130163844.381 9     -1369.212 9        54.335 9  24769354.387 8 101426365.588 8     -1066.918 8        49.835 8  24769356.013 9  97200273.401 9     -1022.464 9        56.435 9
G20  23518131.028 9 123588612.707 9     -3649.327 9        54.725 9  23518129.402 8  96302808.439 8     -2843.632 8        50.225 8  23518131.028 9  92290197.800 9     -2725.147 9        56.825 9
G14  20962536.881 9 110158874.822 9       125.698 9        55.782 9  20962535.346 8  85838077.990 8        97.946 8        51.282 8  20962536.881 9  82261497.432 9        93.865 9        57.882 9
G23  24868140.530 9 130682960.521 9      3227.893 9        54.291 9  24868138.904 8 101830871.671 8      2515.241 8        49.791 8  24868140.530 9  97587925.064 9      2410.439 9        56.391 9
G05  21744951.256 9 114270490.111 9     -2431.331 9        55.470 9  21744949.088 8  89041931.471 8     -1894.544 8        50.970 8  21744951.256 9  85331859.499 9     -1815.604 9        57.570 9
G30  21857078.972 9 114859725.235 9     -2262.352 9        55.476 9  21857079.694 8  89501087.557 8     -1762.872 8        50.976 8  21857078.972 9  85771872.740 9     -1689.419 9        57.576 9
G15  21118144.111 9 110976596.336 9      2294.503 9        55.710 9  21118142.034 8  86475261.366 8      1787.924 8        51.210 8  21118144.111 9  82872133.627 9      1713.427 9        57.810 9
E05  23313841.280 9 122515062.837 9       359.478 9        57.976 9  23313841.280 9 122515062.837 9       359.478 9        57.976 9  23313842.222 9  91488524.643 9       268.442 9        57.836 9  23313842.222 9  91488524.643 9       268.442 9        57.836 9  23313842.222 9  93875181.808 9       275.444 9        57.836 9  23313842.222 9  93875181.808 9       275.444 9        57.836 9  23313842.222 9  92681853.226 9       271.943 9        60.847 9  23313842.222 9  92681853.226 9       271.943 9        60.847 9
E09  25215424.860 9 132507951.997 9     -2095.600 9        57.365 9  25215424.860 9 132507951.997 9     -2095.600 9        57.365 9  25215425.359 9  98950745.330 9     -1564.896 9        57.226 9  25215425.359 9  98950745.330 9     -1564.896 9        57.226 9  25215425.359 9 101532069.121 9     -1605.720 9        57.226 9  25215425.359 9 101532069.121 9     -1605.720 9        57.226 9  25215425.359 9 100241407.225 9     -1585.308 9        60.236 9  25215425.359 9 100241407.225 9     -1585.308 9        60.236 9
E13  28147934.062 9 147918391.864 9       323.826 9        56.288 9  28147934.062 9 147918391.864 9       323.826 9        56.288 9  28147934.228 9 110458540.031 9       241.818 9        56.148 9  28147934.228 9 110458540.031 9       241.818 9        56.148 9  28147934.228 9 113340067.162 9       248.126 9        56.148 9  28147934.228 9 113340067.162 9       248.126 9        56.148 9  28147934.228 9 111899303.596 9       244.972 9        59.158 9  28147934.228 9 111899303.596 9       244.972 9        59.158 9
E25  27076382.337 9 142287349.540 9      3129.906 9        56.722 9  27076382.337 9 142287349.540 9      3129.906 9        56.722 9  27076383.389 9 106253544.369 9      2337.267 9        56.582 9  27076383.389 9 106253544.369 9      2337.267 9        56.582 9  27076383.389 9 109025375.961 9      2398.240 9        56.582 9  27076383.389 9 109025375.961 9      2398.240 9        56.582 9  27076383.389 9 107639460.165 9      2367.754 9        59.593 9  27076383.389 9 107639460.165 9      2367.754 9        59.593 9
E31  24967290.127 9 131203995.172 9     -1540.386 9        57.423 9  24967290.127 9 131203995.172 9     -1540.386 9        57.423 9  24967291.124 9  97977013.293 9     -1150.289 9        57.283 9  24967291.124 9  97977013.293 9     -1150.289 9        57.283 9  24967291.124 9 100532935.378 9     -1180.296 9        57.283 9  24967291.124 9 100532935.378 9     -1180.296 9        57.283 9  24967291.124 9  99254974.335 9     -1165.292 9        60.293 9  24967291.124 9  99254974.335 9     -1165.292 9        60.293 9
E15  27829140.302 9 146243119.347 9     -1860.873 9        56.362 9  27829140.302 9 146243119.347 9     -1860.873 9        56.362 9  27829141.908 9 109207530.489 9     -1389.613 9        56.222 9  27829141.908 9 109207530.489 9     -1389.613 9        56.222 9  27829141.908 9 112056422.589 9     -1425.863 9        56.222 9  27829141.908 9 112056422.589 9     -1425.863 9        56.222 9  27829141.908 9 110631976.539 9     -1407.738 9        59.232 9  27829141.908 9 110631976.539 9     -1407.738 9        59.232 9
E03  26325299.789 9 138340384.110 9      2463.382 9        56.972 9  26325299.789 9 138340384.110 9      2463.382 9        56.972 9  26325300.675 9 103306134.468 9      1839.538 9        56.833 9  26325300.675 9 103306134.468 9      1839.538 9        56.833 9  26325300.675 9 106001077.106 9      1887.526 9        56.833 9  26325300.675 9 106001077.106 9      1887.526 9        56.833 9  26325300.675 9 104653605.787 9      1863.532 9        59.843 9  26325300.675 9 104653605.787 9      1863.532 9        59.843 9
E24  24083850.886 9 126561490.624 9      1242.962 9        57.796 9  24083850.886 9 126561490.624 9      1242.962 9        57.796 9  24083850.110 9  94510200.995 9       928.186 9        57.656 9  24083850.110 9  94510200.995 9       928.186 9        57.656 9  24083850.110 9  96975684.499 9       952.399 9        57.656 9  24083850.110 9  96975684.499 9       952.399 9        57.656 9  24083850.110 9  95742942.747 9       940.292 9        60.666 9  24083850.110 9  95742942.747 9       940.292 9        60.666 9
> 2023 01 08 10 00 19.0000000  0 19       0.000000000000
G08  25069699.314 9 131742159.080 9     -1488.793 9        54.232 9  25069700.307 8 102656231.923 8     -1160.098 8        49.732 8  25069699.314 9  98378885.028 9     -1111.761 9        56.332 9
G13  20027052.937 9 105242873.513 9       577.180 9        56.113 9  20027050.679 8  82007424.661 8       449.751 8        51.613 8  20027052.937 9  78590457.493 9       431.011 9        58.213 9
G24  24528612.639 9 128898729.412 9      3531.723 9        54.413 9  24528613.181 8 100440570.592 8      2751.992 8        49.913 8  24528612.639 9  96255544.690 9      2637.325 9        56.513 9
G07  24598842.499 9 129267789.818 9     -2972.204 9        54.358 9  24598840.331 8 100728139.034 8     -2316.003 8        49.858 8  24598842.499 9  96531141.747 9     -2219.503 9        56.458 9
G18  24769616.615 9 130165213.857 9     -1369.739 9        54.335 9  24769614.990 8 101427432.713 8     -1067.329 8        49.835 8  24769616.615 9  97201296.062 9     -1022.857 9        56.435 9
G20  23518825.486 9 123592262.109 9     -3649.475 9        54.725 9  23518823.860 8  96305652.129 8     -2843.747 8        50.225 8  23518825.486 9  92292923.003 9     -2725.257 9        56.825 9
G14  20962513.024 9 110158749.453 9       125.039 9        55.782 9  20962511.489 8  85837980.300 8        97.433 8        51.282 8  20962513.024 9  82261403.813 9        93.373 9        57.882 9
G23  24867526.311 9 130679732.780 9      3227.585 9        54.291 9  24867524.685 8 101828356.549 8      2515.001 8        49.791 8  24867526.311 9  97585514.739 9      2410.209 9        56.391 9
G05  21745413.972 9 114272921.703 9     -2431.850 9        55.470 9  21745411.805 8  89043826.217 8     -1894.948 8        50.970 8  21745413.972 9  85333675.297 9     -1815.992 9        57.570 9
G30  21857509.508 9 114861987.720 9     -2262.621 9        55.476 9  21857510.231 8  89502850.533 8     -1763.081 8        50.976 8  21857509.508 9  85773562.259 9     -1689.620 9        57.576 9
G15  21117707.523 9 110974302.047 9      2294.072 9        55.711 9  21117705.445 8  86473473.608 8      1787.589 8        51.211 8  21117707.523 9  82870420.360 9      1713.106 9        57.811 9
E05  23313772.904 9 122514703.517 9       359.161 9        57.976 9  23313772.904 9 122514703.517 9       359.161 9        57.976 9  23313773.845 9  91488256.320 9       268.205 9        57.836 9  23313773.845 9  91488256.320 9       268.205 9        57.836 9  23313773.845 9  93874906.485 9       275.202 9        57.836 9  23313773.845 9  93874906.485 9       275.202 9        57.836 9  23313773.845 9  92681581.403 9       271.703 9        60.847 9  23313773.845 9  92681581.403 9       271.703 9        60.847 9
E09  25215823.662 9 132510047.713 9     -2095.835 9        57.365 9  25215823.662 9 132510047.713 9     -2095.835 9        57.365 9  25215824.160 9  98952310.313 9     -1565.072 9        57.225 9  25215824.160 9  98952310.313 9     -1565.072 9        57.225 9  25215824.160 9 101533674.930 9     -1605.900 9        57.225 9  25215824.160 9 101533674.930 9     -1605.900 9        57.225 9  25215824.160 9 100242992.621 9     -1585.486 9        60.236 9  25215824.160 9 100242992.621 9     -1585.486 9        60.236 9
E13  28147872.487 9 147918068.285 9       323.331 9        56.288 9  28147872.487 9 147918068.285 9       323.331 9        56.288 9  28147872.653 9 110458298.397 9       241.449 9        56.148 9  28147872.653 9 110458298.397 9       241.449 9        56.148 9  28147872.653 9 113339819.225 9       247.747 9        56.148 9  28147872.653 9 113339819.225 9       247.747 9        56.148 9  28147872.653 9 111899058.811 9       244.598 9        59.158 9  28147872.653 9 111899058.811 9       244.598 9        59.158 9
E25  27075786.746 9 142284219.692 9      3129.787 9        56.723 9  27075786.746 9 142284219.692 9      3129.787 9        56.723 9  27075787.798 9 106251207.145 9      2337.179 9        56.583 9  27075787.798 9 106251207.145 9      2337.179 9        56.583 9  27075787.798 9 109022977.766 9      2398.149 9        56.583 9  27075787.798 9 109022977.766 9      2398.149 9        56.583 9  27075787.798 9 107637092.456 9      2367.664 9        59.593 9  27075787.798 9 107637092.456 9      2367.664 9        59.593 9
E31  24967583.288 9 131205535.744 9     -1540.761 9        57.423 9  24967583.288 9 131205535.744 9     -1540.761 9        57.423 9  24967584.285 9  97978163.720 9     -1150.568 9        57.283 9  24967584.285 9  97978163.720 9     -1150.568 9        57.283 9  24967584.285 9 100534115.817 9     -1180.583 9        57.283 9  24967584.285 9 100534115.817 9     -1180.583 9        57.283 9  24967584.285 9  99256139.769 9     -1165.576 9        60.293 9  24967584.285 9  99256139.769 9     -1165.576 9        60.293 9
E15  27829494.448 9 146244980.395 9     -1861.220 9        56.362 9  27829494.448 9 146244980.395 9     -1861.220 9        56.362 9  27829496.054 9 109208920.233 9     -1389.872 9        56.222 9  27829496.054 9 109208920.233 9     -1389.872 9        56.222 9  27829496.054 9 112057848.587 9     -1426.130 9        56.222 9  27829496.054 9 112057848.587 9     -1426.130 9        56.222 9  27829496.054 9 110633384.410 9     -1408.001 9        59.232 9  27829496.054 9 110633384.410 9     -1408.001 9        59.232 9
E03  26324831.032 9 138337920.776 9      2463.283 9        56.973 9  26324831.032 9 138337920.776 9      2463.283 9        56.973 9  26324831.918 9 103304294.965 9      1839.465 9        56.833 9  26324831.918 9 103304294.965 9      1839.465 9        56.833 9  26324831.918 9 105999189.616 9      1887.451 9        56.833 9  26324831.918 9 105999189.616 9      1887.451 9        56.833 9  26324831.918 9 104651742.291 9      1863.458 9        59.843 9  26324831.918 9 104651742.291 9      1863.458 9        59.843 9
E24  24083614.399 9 126560247.879 9      1242.528 9        57.796 9  24083614.399 9 126560247.879 9      1242.528 9        57.796 9  24083613.624 9  94509272.971 9       927.862 9        57.656 9  24083613.624 9  94509272.971 9       927.862 9        57.656 9  24083613.624 9  96974732.266 9       952.067 9        57.656 9  24083613.624 9  96974732.266 9       952.067 9        57.656 9  24083613.624 9  95742002.619 9       939.965 9        60.666 9  24083613.624 9  95742002.619 9       939.965 9        60.666 9
> 2023 01 08 10 00 20.0000000  0 19       0.000000000000
G08  25069982.677 9 131743648.161 9     -1489.371 9        54.231 9  25069983.670 8 102657392.246 8     -1160.548 8        49.731 8  25069982.677 9  98379997.004 9     -1112.192 9        56.331 9
G13  20026943.148 9 105242296.570 9       576.706 9        56.113 9  20026940.890 8  82006975.094 8       449.381 8        51.613 8  20026943.148 9  78590026.659 9       430.657 9        58.213 9
G24  24527940.584 9 128895197.738 9      3531.618 9        54.413 9  24527941.125 8 100437818.638 8      2751.910 8        49.913 8  24527940.584 9  96252907.401 9      2637.247 9        56.513 9
G07  24599408.095 9 129270762.043 9     -2972.253 9        54.357 9  24599405.927 8 100730455.054 8     -2316.042 8        49.857 8  24599408.095 9  96533361.266 9     -2219.540 9        56.457 9
G18  24769877.319 9 130166583.861 9     -1370.266 9        54.335 9  24769875.693 8 101428500.248 8     -1067.740 8        49.835 8  24769877.319 9  97202319.117 9     -1023.251 9        56.435 9
G20  23519519.972 9 123595911.658 9     -3649.622 9        54.725 9  23519518.347 8  96308495.934 8     -2843.862 8        50.225 8  23519519.972 9  92295648.316 9     -2725.367 9        56.825 9
G14  20962489.293 9 110158624.744 9       124.380 9        55.782 9  20962487.758 8  85837883.124 8        96.920 8        51.282 8  20962489.293 9  82261310.685 9        92.881 9        57.882 9
G23  24866912.151 9 130676505.348 9      3227.276 9        54.291 9  24866910.525 8 101825841.666 8      2514.761 8        49.791 8  24866912.151 9  97583104.643 9      2409.979 9        56.391 9
G05  21745876.787 9 114275353.813 9     -2432.368 9        55.469 9  21745874.620 8  89045721.368 8     -1895.352 8        50.969 8  21745876.787 9  85335491.483 9     -1816.379 9        57.569 9
G30  21857940.096 9 114864250.474 9     -2262.890 9        55.475 9  21857940.818 8  89504613.718 8     -1763.291 8        50.975 8  21857940.096 9  85775251.978 9     -1689.820 9        57.575 9
G15  21117271.016 9 110972008.188 9      2293.642 9        55.711 9  21117268.939 8  86471686.186 8      1787.253 8        51.211 8  21117271.016 9  82868707.413 9      1712.784 9        57.811 9
E05  23313704.588 9 122514344.514 9       358.844 9        57.976 9  23313704.588 9 122514344.514 9       358.844 9        57.976 9  23313705.529 9  91487988.234 9       267.968 9        57.836 9  23313705.529 9  91487988.234 9       267.968 9        57.836 9  23313705.529 9  93874631.405 9       274.959 9        57.836 9  23313705.529 9  93874631.405 9       274.959 9        57.836 9  23313705.529 9  92681309.819 9       271.463 9        60.847 9  23313705.529 9  92681309.819 9       271.463 9        60.847 9
E09  25216222.508 9 132512143.665 9     -2096.071 9        57.365 9  25216222.508 9 132512143.665 9     -2096.071 9        57.365 9  25216223.007 9  98953875.471 9     -1565.248 9        57.225 9  25216223.007 9  98953875.471 9     -1565.248 9        57.225 9  25216223.007 9 101535280.919 9     -1606.080 9        57.225 9  25216223.007 9 101535280.919 9     -1606.080 9        57.225 9  25216223.007 9 100244578.195 9     -1585.664 9        60.236 9  25216223.007 9 100244578.195 9     -1585.664 9        60.236 9
E13  28147811.006 9 147917745.201 9       322.837 9        56.288 9  28147811.006 9 147917745.201 9       322.837 9        56.288 9  28147811.172 9 110458057.133 9       241.079 9        56.148 9  28147811.172 9 110458057.133 9       241.079 9        56.148 9  28147811.172 9 113339571.667 9       247.368 9        56.148 9  28147811.172 9 113339571.667 9       247.368 9        56.148 9  28147811.172 9 111898814.400 9       244.224 9        59.158 9  28147811.172 9 111898814.400 9       244.224 9        59.158 9
E25  27075191.179 9 142281089.963 9      3129.669 9        56.723 9  27075191.179 9 142281089.963 9      3129.669 9        56.723 9  27075192.231 9 106248870.010 9      2337.090 9        56.583 9  27075192.231 9 106248870.010 9      2337.090 9        56.583 9  27075192.231 9 109020579.662 9      2398.058 9        56.583 9  27075192.231 9 109020579.662 9      2398.058 9        56.583 9  27075192.231 9 107634724.836 9      2367.574 9        59.593 9  27075192.231 9 107634724.836 9      2367.574 9        59.593 9
E31  24967876.521 9 131207076.691 9     -1541.135 9        57.423 9  24967876.521 9 131207076.691 9     -1541.135 9        57.423 9  24967877.517 9  97979314.427 9     -1150.848 9        57.283 9  24967877.517 9  97979314.427 9     -1150.848 9        57.283 9  24967877.517 9 100535296.543 9     -1180.870 9        57.283 9  24967877.517 9 100535296.543 9     -1180.870 9        57.283 9  24967877.517 9  99257305.485 9     -1165.859 9        60.293 9  24967877.517 9  99257305.485 9     -1165.859 9        60.293 9
E15  27829848.660 9 146246841.791 9     -1861.568 9        56.361 9  27829848.660 9 146246841.791 9     -1861.568 9        56.361 9  27829850.265 9 109210310.236 9     -1390.132 9        56.222 9  27829850.265 9 109210310.236 9     -1390.132 9        56.222 9  27829850.265 9 112059274.851 9     -1426.396 9        56.222 9  27829850.265 9 112059274.851 9     -1426.396 9        56.222 9  27829850.265 9 110634792.544 9     -1408.264 9        59.232 9  27829850.265 9 110634792.544 9     -1408.264 9        59.232 9
E03  26324362.293 9 138335457.540 9      2463.185 9        56.973 9  26324362.293 9 138335457.540 9      2463.185 9        56.973 9  26324363.179 9 103302455.536 9      1839.391 9        56.833 9  26324363.179 9 103302455.536 9      1839.391 9        56.833 9  26324363.179 9 105997302.202 9      1887.375 9        56.833 9  26324363.179 9 105997302.202 9      1887.375 9        56.833 9  26324363.179 9 104649878.869 9      1863.383 9        59.843 9  26324363.179 9 104649878.869 9      1863.383 9        59.843 9
E24  24083377.995 9 126559005.568 9      1242.095 9        57.796 9  24083377.995 9 126559005.568 9      1242.095 9        57.796 9  24083377.220 9  94508345.272 9       927.538 9        57.656 9  24083377.220 9  94508345.272 9       927.538 9        57.656 9  24083377.220 9  96973780.366 9       951.735 9        57.656 9  24083377.220 9  96973780.366 9       951.735 9        57.656 9  24083377.220 9  95741062.819 9       939.637 9        60.667 9  24083377.220 9  95741062.819 9       939.637 9        60.667 9
> 2023 01 08 10 00 21.0000000  0 19       0.000000000000
G08  25070266.149 9 131745137.820 9     -1489.948 9        54.231 9  25070267.143 8 102658553.019 8     -1160.998 8        49.731 8  25070266.149 9  98381109.411 9     -1112.624 9        56.331 9
G13  20026833.450 9 105241720.101 9       576.232 9        56.113 9  20026831.192 8  82006525.898 8       449.012 8        51.613 8  20026833.450 9  78589596.179 9       430.303 9        58.213 9
G24  24527268.548 9 128891666.168 9      3531.514 9        54.413 9  24527269.090 8 100435066.765 8      2751.829 8        49.913 8  24527268.548 9  96250270.190 9      2637.170 9        56.513 9
G07  24599973.700 9 129273734.319 9     -2972.303 9        54.357 9  24599971.532 8 100732771.113 8     -2316.080 8        49.857 8  24599973.700 9  96535580.822 9     -2219.577 9        56.457 9
G18  24770138.122 9 130167954.392 9     -1370.793 9        54.335 9  24770136.496 8 101429568.194 8     -1068.150 8        49.835 8  24770138.122 9  97203342.565 9     -1023.644 9        56.435 9
G20  23520214.487 9 123599561.355 9     -3649.770 9        54.725 9  23520212.861 8  96311339.854 8     -2843.976 8        50.225 8  23520214.487 9  92298373.739 9     -2725.477 9        56.825 9
G14  20962465.687 9 110158500.693 9       123.721 9        55.782 9  20962464.152 8  85837786.461 8        96.406 8        51.282 8  20962465.687 9  82261218.050 9        92.389 9        57.882 9
G23  24866298.050 9 130673278.224 9      3226.968 9        54.291 9  24866296.424 8 101823327.024 8      2514.521 8        49.791 8  24866298.050 9  97580694.778 9      2409.749 9        56.391 9
G05  21746339.701 9 114277786.441 9     -2432.886 9        55.469 9  21746337.534 8  89047616.922 8     -1895.755 8        50.969 8  21746339.701 9  85337308.056 9     -1816.766 9        57.569 9
G30  21858370.735 9 114866513.497 9     -2263.159 9        55.475 9  21858371.457 8  89506377.112 8     -1763.500 8        50.975 8  21858370.735 9  85776941.897 9     -1690.021 9        57.575 9
G15  21116834.591 9 110969714.761 9      2293.211 9        55.711 9  21116832.514 8  86469899.100 8      1786.917 8        51.211 8  21116834.591 9  82866994.789 9      1712.463 9        57.811 9
E05  23313636.332 9 122513985.828 9       358.527 9        57.976 9  23313636.332 9 122513985.828 9       358.527 9        57.976 9  23313637.274 9  91487720.384 9       267.731 9        57.836 9  23313637.274 9  91487720.384 9       267.731 9        57.836 9  23313637.274 9  93874356.568 9       274.716 9        57.836 9  23313637.274 9  93874356.568 9       274.716 9        57.836 9  23313637.274 9  92681038.476 9       271.224 9        60.847 9  23313637.274 9  92681038.476 9       271.224 9        60.847 9
E09  25216621.399 9 132514239.852 9     -2096.306 9        57.365 9  25216621.399 9 132514239.852 9     -2096.306 9        57.365 9  25216621.898 9  98955440.806 9     -1565.423 9        57.225 9  25216621.898 9  98955440.806 9     -1565.423 9        57.225 9  25216621.898 9 101536887.088 9     -1606.260 9        57.225 9  25216621.898 9 101536887.088 9     -1606.260 9        57.225 9  25216621.898 9 100246163.947 9     -1585.842 9        60.235 9  25216621.898 9 100246163.947 9     -1585.842 9        60.235 9
E13  28147749.620 9 147917422.611 9       322.342 9        56.288 9  28147749.620 9 147917422.611 9       322.342 9        56.288 9  28147749.786 9 110457816.238 9       240.710 9        56.148 9  28147749.786 9 110457816.238 9       240.710 9        56.148 9  28147749.786 9 113339324.488 9       246.990 9        56.148 9  28147749.786 9 113339324.488 9       246.990 9        56.148 9  28147749.786 9 111898570.363 9       243.850 9        59.158 9  28147749.786 9 111898570.363 9       243.850 9        59.158 9
E25  27074595.634 9 142277960.352 9      3129.550 9        56.723 9  27074595.634 9 142277960.352 9      3129.550 9        56.723 9  27074596.686 9 106246532.963 9      2337.002 9        56.583 9  27074596.686 9 106246532.963 9      2337.002 9        56.583 9  27074596.686 9 109018181.649 9      2397.967 9        56.583 9  27074596.686 9 109018181.649 9      2397.967 9        56.583 9  27074596.686 9 107632357.306 9      2367.484 9        59.593 9  27074596.686 9 107632357.306 9      2367.484 9        59.593 9
E31  24968169.824 9 131208618.013 9     -1541.510 9        57.422 9  24968169.824 9 131208618.013 9     -1541.510 9        57.422 9  24968170.821 9  97980465.414 9     -1151.127 9        57.283 9  24968170.821 9  97980465.414 9     -1151.127 9        57.283 9  24968170.821 9 100536477.555 9     -1181.157 9        57.283 9  24968170.821 9 100536477.555 9     -1181.157 9        57.283 9  24968170.821 9  99258471.485 9     -1166.142 9        60.293 9  24968170.821 9  99258471.485 9     -1166.142 9        60.293 9
E15  27830202.938 9 146248703.534 9     -1861.915 9        56.361 9  27830202.938 9 146248703.534 9     -1861.915 9        56.361 9  27830204.543 9 109211700.499 9     -1390.391 9        56.221 9  27830204.543 9 109211700.499 9     -1390.391 9        56.221 9  27830204.543 9 112060701.382 9     -1426.662 9        56.221 9  27830204.543 9 112060701.382 9     -1426.662 9        56.221 9  27830204.543 9 110636200.940 9     -1408.527 9        59.232 9  27830204.543 9 110636200.940 9     -1408.527 9        59.232 9
E03  26323893.574 9 138332994.402 9      2463.086 9        56.973 9  26323893.574 9 138332994.402 9      2463.086 9        56.973 9  26323894.460 9 103300616.180 9      1839.318 9        56.833 9  26323894.460 9 103300616.180 9      1839.318 9        56.833 9  26323894.460 9 105995414.863 9      1887.300 9        56.833 9  26323894.460 9 105995414.863 9      1887.300 9        56.833 9  26323894.460 9 104648015.521 9      1863.309 9        59.843 9  26323894.460 9 104648015.521 9      1863.309 9        59.843 9
E24  24083141.674 9 126557763.690 9      1241.661 9        57.796 9  24083141.674 9 126557763.690 9      1241.661 9        57.796 9  24083140.899 9  94507417.895 9       927.214 9        57.656 9  24083140.899 9  94507417.895 9       927.214 9        57.656 9  24083140.899 9  96972828.797 9       951.403 9        57.656 9  24083140.899 9  96972828.797 9       951.403 9        57.656 9  24083140.899 9  95740123.346 9       939.309 9        60.667 9  24083140.899 9  95740123.346 9       939.309 9        60.667 9
> 2023 01 08 10 00 22.0000000  0 19       0.000000000000
G08  25070549.732 9 131746628.056 9     -1490.525 9        54.231 9  25070550.725 8 102659714.242 8     -1161.448 8        49.731 8  25070549.732 9  98382222.250 9     -1113.055 9        56.331 9
G13  20026723.841 9 105241144.106 9       575.758 9        56.113 9  20026721.583 8  82006077.070 8       448.643 8        51.613 8  20026723.841 9  78589166.053 9       429.949 9        58.213 9
G24  24526596.533 9 128888134.702 9      3531.410 9        54.413 9  24526597.075 8 100432314.974 8      2751.748 8        49.913 8  24526596.533 9  96247633.057 9      2637.092 9        56.513 9
G07  24600539.315 9 129276706.644 9     -2972.353 9        54.357 9  24600537.147 8 100735087.211 8     -2316.119 8        49.857 8  24600539.315 9  96537800.416 9     -2219.614 9        56.457 9
G18  24770399.025 9 130169325.450 9     -1371.320 9        54.335 9  24770397.400 8 101430636.551 8     -1068.561 8        49.835 8  24770399.025 9  97204366.407 9     -1024.038 9        56.435 9
G20  23520909.029 9 123603211.199 9     -3649.917 9        54.724 9  23520907.403 8  96314183.888 8     -2844.091 8        50.224 8  23520909.029 9  92301099.272 9     -2725.587 9        56.824 9
G14  20962442.206 9 110158377.302 9       123.062 9        55.782 9  20962440.671 8  85837690.312 8        95.893 8        51.282 8  20962442.206 9  82261125.907 9        91.897 9        57.882 9
G23  24865684.007 9 130670051.408 9      3226.660 9        54.292 9  24865682.382 8 101820812.622 8      2514.280 8        49.792 8  24865684.007 9  97578285.143 9      2409.519 9        56.392 9
G05  21746802.713 9 114280219.587 9     -2433.404 9        55.469 9  21746800.546 8  89049512.880 8     -1896.159 8        50.969 8  21746802.713 9  85339125.016 9     -1817.153 9        57.569 9
G30  21858801.425 9 114868776.788 9     -2263.427 9        55.475 9  21858802.147 8  89508140.716 8     -1763.709 8        50.975 8  21858801.425 9  85778632.017 9     -1690.222 9        57.575 9
G15  21116398.248 9 110967421.764 9      2292.780 9        55.711 9  21116396.171 8  86468112.349 8      1786.582 8        51.211 8  21116398.248 9  82865282.486 9      1712.141 9        57.811 9
E05  23313568.137 9 122513627.459 9       358.210 9        57.976 9  23313568.137 9 122513627.459 9       358.210 9        57.976 9  23313569.078 9  91487452.771 9       267.495 9        57.837 9  23313569.078 9  91487452.771 9       267.495 9        57.837 9  23313569.078 9  93874081.973 9       274.473 9        57.837 9  23313569.078 9  93874081.973 9       274.473 9        57.837 9  23313569.078 9  92680767.372 9       270.984 9        60.847 9  23313569.078 9  92680767.372 9       270.984 9        60.847 9
E09  25217020.335 9 132516336.274 9     -2096.541 9        57.365 9  25217020.335 9 132516336.274 9     -2096.541 9        57.365 9  25217020.834 9  98957006.316 9     -1565.599 9        57.225 9  25217020.834 9  98957006.316 9     -1565.599 9        57.225 9  25217020.834 9 101538493.437 9     -1606.440 9        57.225 9  25217020.834 9 101538493.437 9     -1606.440 9        57.225 9  25217020.834 9 100247749.876 9     -1586.020 9        60.235 9  25217020.834 9 100247749.876 9     -1586.020 9        60.235 9
E13  28147688.327 9 147917100.516 9       321.848 9        56.288 9  28147688.327 9 147917100.516 9       321.848 9        56.288 9  28147688.493 9 110457575.713 9       240.341 9        56.148 9  28147688.493 9 110457575.713 9       240.341 9        56.148 9  28147688.493 9 113339077.688 9       246.611 9        56.148 9  28147688.493 9 113339077.688 9       246.611 9        56.148 9  28147688.493 9 111898326.700 9       243.476 9        59.158 9  28147688.493 9 111898326.700 9       243.476 9        59.158 9
E25  27074000.111 9 142274830.861 9      3129.431 9        56.723 9  27074000.111 9 142274830.861 9      3129.431 9        56.723 9  27074001.163 9 106244196.005 9      2336.913 9        56.583 9  27074001.163 9 106244196.005 9      2336.913 9        56.583 9  27074001.163 9 109015783.727 9      2397.876 9        56.583 9  27074001.163 9 109015783.727 9      2397.876 9        56.583 9  27074001.163 9 107629989.866 9      2367.394 9        59.594 9  27074001.163 9 107629989.866 9      2367.394 9        59.594 9
E31  24968463.199 9 131210159.708 9     -1541.884 9        57.422 9  24968463.199 9 131210159.708 9     -1541.884 9        57.422 9  24968464.196 9  97981616.680 9     -1151.407 9        57.282 9  24968464.196 9  97981616.680 9     -1151.407 9        57.282 9  24968464.196 9 100537658.855 9     -1181.443 9        57.282 9  24968464.196 9 100537658.855 9     -1181.443 9        57.282 9  24968464.196 9  99259637.768 9     -1166.425 9        60.293 9  24968464.196 9  99259637.768 9     -1166.425 9        60.293 9
E15  27830557.282 9 146250565.625 9     -1862.263 9        56.361 9  27830557.282 9 146250565.625 9     -1862.263 9        56.361 9  27830558.887 9 109213091.021 9     -1390.651 9        56.221 9  27830558.887 9 109213091.021 9     -1390.651 9        56.221 9  27830558.887 9 112062128.178 9     -1426.928 9        56.221 9  27830558.887 9 112062128.178 9     -1426.928 9        56.221 9  27830558.887 9 110637609.600 9     -1408.790 9        59.232 9  27830558.887 9 110637609.600 9     -1408.790 9        59.232 9
E03  26323424.873 9 138330531.364 9      2462.988 9        56.973 9  26323424.873 9 138330531.364 9      2462.988 9        56.973 9  26323425.759 9 103298776.897 9      1839.244 9        56.833 9  26323425.759 9 103298776.897 9      1839.244 9        56.833 9  26323425.759 9 105993527.599 9      1887.224 9        56.833 9  26323425.759 9 105993527.599 9      1887.224 9        56.833 9  26323425.759 9 104646152.248 9      1863.234 9        59.843 9  26323425.759 9 104646152.248 9      1863.234 9        59.843 9
E24  24082905.435 9 126556522.246 9      1241.228 9        57.796 9  24082905.435 9 126556522.246 9      1241.228 9        57.796 9  24082904.660 9  94506490.843 9       926.891 9        57.656 9  24082904.660 9  94506490.843 9       926.891 9        57.656 9  24082904.660 9  96971877.561 9       951.070 9        57.656 9  24082904.660 9  96971877.561 9       951.070 9        57.656 9  24082904.660 9  95739184.202 9       938.981 9        60.667 9  24082904.660 9  95739184.202 9       938.981 9        60.667 9
> 2023 01 08 10 00 23.0000000  0 19       0.000000000000
G08  25070833.424 9 131748118.870 9     -1491.103 9        54.231 9  25070834.417 8 102660875.915 8     -1161.898 8        49.731 8  25070833.424 9  98383335.520 9     -1113.486 9        56.331 9
G13  20026614.323 9 105240568.585 9       575.284 9        56.113 9  20026612.065 8  82005628.613 8       448.273 8        51.613 8  20026614.323 9  78588736.281 9       429.595 9        58.213 9
G24  24525924.537 9 128884603.342 9      3531.305 9        54.414 9  24525925.079 8 100429563.264 8      2751.666 8        49.914 8  24525924.537 9  96244996.002 9      2637.014 9        56.514 9
G07  24601104.939 9 129279679.019 9     -2972.403 9        54.357 9  24601102.771 8 100737403.347 8     -2316.158 8        49.857 8  24601104.939 9  96540020.047 9     -2219.651 9        56.457 9
G18  24770660.029 9 130170697.034 9     -1371.847 9        54.335 9  24770658.404 8 101431705.318 8     -1068.971 8        49.835 8  24770660.029 9  97205390.642 9     -1024.431 9        56.435 9
G20  23521603.599 9 123606861.190 9     -3650.064 9        54.724 9  23521601.973 8  96317028.037 8     -2844.206 8        50.224 8  23521603.599 9  92303824.915 9     -2725.697 9        56.824 9
G14  20962418.851 9 110158254.569 9       122.403 9        55.782 9  20962417.316 8  85837594.676 8        95.379 8        51.282 8  20962418.851 9  82261034.256 9        91.405 9        57.882 9
G23  24865070.023 9 130666824.901 9      3226.351 9        54.292 9  24865068.398 8 101818298.461 8      2514.040 8        49.792 8  24865070.023 9  97575875.738 9      2409.288 9        56.392 9
G05  21747265.824 9 114282653.252 9     -2433.923 9        55.469 9  21747263.657 8  89051409.242 8     -1896.563 8        50.969 8  21747265.824 9  85340942.363 9     -1817.540 9        57.569 9
G30  21859232.166 9 114871040.348 9     -2263.696 9        55.475 9  21859232.889 8  89509904.529 8     -1763.919 8        50.975 8  21859232.166 9  85780322.338 9     -1690.422 9        57.575 9
G15  21115961.988 9 110965129.199 9      2292.349 9        55.711 9  21115959.911 8  86466325.935 8      1786.246 8        51.211 8  21115961.988 9  82863570.505 9      1711.819 9        57.811 9
E05  23313500.002 9 122513269.408 9       357.893 9        57.976 9  23313500.002 9 122513269.408 9       357.893 9        57.976 9  23313500.943 9  91487185.394 9       267.258 9        57.837 9  23313500.943 9  91487185.394 9       267.258 9        57.837 9  23313500.943 9  93873807.622 9       274.230 9        57.837 9  23313500.943 9  93873807.622 9       274.230 9        57.837 9  23313500.943 9  92680496.508 9       270.744 9        60.847 9  23313500.943 9  92680496.508 9       270.744 9        60.847 9
E09  25217419.316 9 132518432.931 9     -2096.776 9        57.365 9  25217419.316 9 132518432.931 9     -2096.776 9        57.365 9  25217419.814 9  98958572.001 9     -1565.774 9        57.225 9  25217419.814 9  98958572.001 9     -1565.774 9        57.225 9  25217419.814 9 101540099.967 9     -1606.621 9        57.225 9  25217419.814 9 101540099.967 9     -1606.621 9        57.225 9  25217419.814 9 100249335.984 9     -1586.197 9        60.235 9  25217419.814 9 100249335.984 9     -1586.197 9        60.235 9
E13  28147627.128 9 147916778.916 9       321.353 9        56.288 9  28147627.128 9 147916778.916 9       321.353 9        56.288 9  28147627.294 9 110457335.556 9       239.971 9        56.148 9  28147627.294 9 110457335.556 9       239.971 9        56.148 9  28147627.294 9 113338831.267 9       246.232 9        56.148 9  28147627.294 9 113338831.267 9       246.232 9        56.148 9  28147627.294 9 111898083.412 9       243.102 9        59.158 9  28147627.294 9 111898083.412 9       243.102 9        59.158 9
E25  27073404.611 9 142271701.488 9      3129.312 9        56.723 9  27073404.611 9 142271701.488 9      3129.312 9        56.723 9  27073405.663 9 106241859.136 9      2336.824 9        56.583 9  27073405.663 9 106241859.136 9      2336.824 9        56.583 9  27073405.663 9 109013385.896 9      2397.785 9        56.583 9  27073405.663 9 109013385.896 9      2397.785 9        56.583 9  27073405.663 9 107627622.516 9      2367.305 9        59.594 9  27073405.663 9 107627622.516 9      2367.305 9        59.594 9
E31  24968756.646 9 131211701.778 9     -1542.258 9        57.422 9  24968756.646 9 131211701.778 9     -1542.258 9        57.422 9  24968757.642 9  97982768.226 9     -1151.686 9        57.282 9  24968757.642 9  97982768.226 9     -1151.686 9        57.282 9  24968757.642 9 100538840.441 9     -1181.730 9        57.282 9  24968757.642 9 100538840.441 9     -1181.730 9        57.282 9  24968757.642 9  99260804.334 9     -1166.708 9        60.293 9  24968757.642 9  99260804.334 9     -1166.708 9        60.293 9
E15  27830911.692 9 146252428.063 9     -1862.610 9        56.361 9  27830911.692 9 146252428.063 9     -1862.610 9        56.361 9  27830913.298 9 109214481.803 9     -1390.910 9        56.221 9  27830913.298 9 109214481.803 9     -1390.910 9        56.221 9  27830913.298 9 112063555.241 9     -1427.195 9        56.221 9  27830913.298 9 112063555.241 9     -1427.195 9        56.221 9  27830913.298 9 110639018.522 9     -1409.052 9        59.232 9  27830913.298 9 110639018.522 9     -1409.052 9        59.232 9
E03  26322956.191 9 138328068.423 9      2462.889 9        56.973 9  26322956.191 9 138328068.423 9      2462.889 9        56.973 9  26322957.077 9 103296937.689 9      1839.170 9        56.833 9  26322957.077 9 103296937.689 9      1839.170 9        56.833 9  26322957.077 9 105991640.411 9      1887.149 9        56.833 9  26322957.077 9 105991640.411 9      1887.149 9        56.833 9  26322957.077 9 104644289.050 9      1863.160 9        59.844 9  26322957.077 9 104644289.050 9      1863.160 9        59.844 9
E24  24082669.278 9 126555281.236 9      1240.794 9        57.796 9  24082669.278 9 126555281.236 9      1240.794 9        57.796 9  24082668.503 9  94505564.114 9       926.567 9        57.656 9  24082668.503 9  94505564.114 9       926.567 9        57.656 9  24082668.503 9  96970926.657 9       950.738 9        57.656 9  24082668.503 9  96970926.657 9       950.738 9        57.656 9  24082668.503 9  95738245.386 9       938.653 9        60.667 9  24082668.503 9  95738245.386 9       938.653 9        60.667 9
> 2023 01 08 10 00 24.0000000  0 19       0.000000000000
G08  25071117.226 9 131749610.261 9     -1491.680 9        54.231 9  25071118.220 8 102662038.037 8     -1162.348 8        49.731 8  25071117.226 9  98384449.221 9     -1113.917 9        56.331 9
G13  20026504.896 9 105239993.538 9       574.810 9        56.113 9  20026502.638 8  82005180.524 8       447.904 8        51.613 8  20026504.896 9  78588306.863 9       429.241 9        58.213 9
G24  24525252.561 9 128881072.085 9      3531.201 9        54.414 9  24525253.103 8 100426811.636 8      2751.585 8        49.914 8  24525252.561 9  96242359.025 9      2636.936 9        56.514 9
G07  24601670.572 9 129282651.444 9     -2972.452 9        54.357 9  24601668.405 8 100739719.522 8     -2316.197 8        49.857 8  24601670.572 9  96542239.715 9     -2219.688 9        56.457 9
G18  24770921.133 9 130172069.145 9     -1372.373 9        54.335 9  24770919.508 8 101432774.495 8     -1069.382 8        49.835 8  24770921.133 9  97206415.271 9     -1024.824 9        56.435 9
G20  23522298.197 9 123610511.328 9     -3650.211 9        54.724 9  23522296.572 8  96319872.300 8     -2844.320 8        50.224 8  23522298.197 9  92306550.667 9     -2725.807 9        56.824 9
G14  20962395.621 9 110158132.495 9       121.744 9        55.782 9  20962394.086 8  85837499.553 8        94.866 8        51.282 8  20962395.621 9  82260943.097 9        90.913 9        57.882 9
G23  24864456.098 9 130663598.703 9      3226.042 9        54.292 9  24864454.473 8 101815784.540 8      2513.799 8        49.792 8  24864456.098 9  97573466.564 9      2409.058 9        56.392 9
G05  21747729.034 9 114285087.434 9     -2434.441 9        55.469 9  21747726.866 8  89053306.008 8     -1896.967 8        50.969 8  21747729.034 9  85342760.097 9     -1817.926 9        57.569 9
G30  21859662.958 9 114873304.177 9     -2263.964 9        55.475 9  21859663.681 8  89511668.551 8     -1764.128 8        50.975 8  21859662.958 9  85782012.859 9     -1690.623 9        57.575 9
G15  21115525.809 9 110962837.064 9      2291.918 9        55.712 9  21115523.732 8  86464539.855 8      1785.910 8        51.212 8  21115525.809 9  82861858.846 9      1711.497 9        57.812 9
E05  23313431.928 9 122512911.673 9       357.576 9        57.976 9  23313431.928 9 122512911.673 9       357.576 9        57.976 9  23313432.869 9  91486918.255 9       267.021 9        57.837 9  23313432.869 9  91486918.255 9       267.021 9        57.837 9  23313432.869 9  93873533.514 9       273.987 9        57.837 9  23313432.869 9  93873533.514 9       273.987 9        57.837 9  23313432.869 9  92680225.884 9       270.504 9        60.847 9  23313432.869 9  92680225.884 9       270.504 9        60.847 9
E09  25217818.341 9 132520529.823 9     -2097.011 9        57.365 9  25217818.341 9 132520529.823 9     -2097.011 9        57.365 9  25217818.840 9  98960137.862 9     -1565.950 9        57.225 9  25217818.840 9  98960137.862 9     -1565.950 9        57.225 9  25217818.840 9 101541706.676 9     -1606.801 9        57.225 9  25217818.840 9 101541706.676 9     -1606.801 9        57.225 9  25217818.840 9 100250922.269 9     -1586.375 9        60.235 9  25217818.840 9 100250922.269 9     -1586.375 9        60.235 9
E13  28147566.024 9 147916457.810 9       320.858 9        56.288 9  28147566.024 9 147916457.810 9       320.858 9        56.288 9  28147566.190 9 110457095.770 9       239.602 9        56.148 9  28147566.190 9 110457095.770 9       239.602 9        56.148 9  28147566.190 9 113338585.224 9       245.853 9        56.148 9  28147566.190 9 113338585.224 9       245.853 9        56.148 9  28147566.190 9 111897840.497 9       242.727 9        59.158 9  28147566.190 9 111897840.497 9       242.727 9        59.158 9
E25  27072809.134 9 142268572.234 9      3129.194 9        56.723 9  27072809.134 9 142268572.234 9      3129.194 9        56.723 9  27072810.186 9 106239522.355 9      2336.735 9        56.584 9  27072810.186 9 106239522.355 9      2336.735 9        56.584 9  27072810.186 9 109010988.155 9      2397.694 9        56.584 9  27072810.186 9 109010988.155 9      2397.694 9        56.584 9  27072810.186 9 107625255.255 9      2367.215 9        59.594 9  27072810.186 9 107625255.255 9      2367.215 9        59.594 9
E31  24969050.163 9 131213244.223 9     -1542.632 9        57.422 9  24969050.163 9 131213244.223 9     -1542.632 9        57.422 9  24969051.160 9  97983920.051 9     -1151.966 9        57.282 9  24969051.160 9  97983920.051 9     -1151.966 9        57.282 9  24969051.160 9 100540022.314 9     -1182.017 9        57.282 9  24969051.160 9 100540022.314 9     -1182.017 9        57.282 9  24969051.160 9  99261971.182 9     -1166.991 9        60.293 9  24969051.160 9  99261971.182 9     -1166.991 9        60.293 9
E15  27831266.168 9 146254290.848 9     -1862.957 9        56.361 9  27831266.168 9 146254290.848 9     -1862.957 9        56.361 9  27831267.774 9 109215872.844 9     -1391.169 9        56.221 9  27831267.774 9 109215872.844 9     -1391.169 9        56.221 9  27831267.774 9 112064982.570 9     -1427.461 9        56.221 9  27831267.774 9 112064982.570 9     -1427.461 9        56.221 9  27831267.774 9 110640427.707 9     -1409.315 9        59.231 9  27831267.774 9 110640427.707 9     -1409.315 9        59.231 9
E03  26322487.528 9 138325605.582 9      2462.790 9        56.973 9  26322487.528 9 138325605.582 9      2462.790 9        56.973 9  26322488.414 9 103295098.554 9      1839.097 9        56.834 9  26322488.414 9 103295098.554 9      1839.097 9        56.834 9  26322488.414 9 105989753.299 9      1887.073 9        56.834 9  26322488.414 9 105989753.299 9      1887.073 9        56.834 9  26322488.414 9 104642425.926 9      1863.085 9        59.844 9  26322488.414 9 104642425.926 9      1863.085 9        59.844 9
E24  24082433.204 9 126554040.659 9      1240.360 9        57.796 9  24082433.204 9 126554040.659 9      1240.360 9        57.796 9  24082432.429 9  94504637.710 9       926.243 9        57.657 9  24082432.429 9  94504637.710 9       926.243 9        57.657 9  24082432.429 9  96969976.085 9       950.406 9        57.657 9  24082432.429 9  96969976.085 9       950.406 9        57.657 9  24082432.429 9  95737306.897 9       938.325 9        60.667 9  24082432.429 9  95737306.897 9       938.325 9        60.667 9
> 2023 01 08 10 00 25.0000000  0 19       0.000000000000
G08  25071401.138 9 131751102.229 9     -1492.257 9        54.231 9  25071402.132 8 102663200.610 8     -1162.798 8        49.731 8  25071401.138 9  98385563.353 9     -1114.348 9        56.331 9
G13  20026395.558 9 105239418.965 9       574.336 9        56.113 9  20026393.300 8  82004732.805 8       447.534 8        51.613 8  20026395.558 9  78587877.799 9       428.887 9        58.213 9
G24  24524580.605 9 128877540.933 9      3531.096 9        54.414 9  24524581.147 8 100424060.089 8      2751.504 8        49.914 8  24524580.605 9  96239722.125 9      2636.858 9        56.514 9
G07  24602236.215 9 129285623.918 9     -2972.502 9        54.356 9  24602234.048 8 100742035.736 8     -2316.235 8        49.856 8  24602236.215 9  96544459.419 9     -2219.726 9        56.456 9
G18  24771182.338 9 130173441.783 9     -1372.900 9        54.335 9  24771180.712 8 101433844.083 8     -1069.792 8        49.835 8  24771182.338 9  97207440.292 9     -1025.217 9        56.435 9
G20  23522992.823 9 123614161.614 9     -3650.358 9        54.724 9  23522991.198 8  96322716.678 8     -2844.435 8        50.224 8  23522992.823 9  92309276.530 9     -2725.917 9        56.824 9
G14  20962372.517 9 110158011.080 9       121.086 9        55.782 9  20962370.981 8  85837404.944 8        94.352 8        51.282 8  20962372.517 9  82260852.430 9        90.421 9        57.882 9
G23  24863842.232 9 130660372.813 9      3225.734 9        54.292 9  24863840.606 8 101813270.860 8      2513.559 8        49.792 8  24863842.232 9  97571057.620 9      2408.827 9        56.392 9
G05  21748192.342 9 114287522.135 9     -2434.958 9        55.469 9  21748190.175 8  89055203.177 8     -1897.370 8        50.969 8  21748192.342 9  85344578.218 9     -1818.313 9        57.569 9
G30  21860093.802 9 114875568.274 9     -2264.233 9        55.475 9  21860094.524 8  89513432.782 8     -1764.337 8        50.975 8  21860093.802 9  85783703.581 9     -1690.823 9        57.575 9
G15  21115089.712 9 110960545.360 9      2291.487 9        55.712 9  21115087.635 8  86462754.112 8      1785.574 8        51.212 8  21115089.712 9  82860147.509 9      1711.175 9        57.812 9
E05  23313363.913 9 122512554.256 9       357.259 9        57.976 9  23313363.913 9 122512554.256 9       357.259 9        57.976 9  23313364.855 9  91486651.352 9       266.784 9        57.837 9  23313364.855 9  91486651.352 9       266.784 9        57.837 9  23313364.855 9  93873259.649 9       273.744 9        57.837 9  23313364.855 9  93873259.649 9       273.744 9        57.837 9  23313364.855 9  92679955.500 9       270.264 9        60.847 9  23313364.855 9  92679955.500 9       270.264 9        60.847 9
E09  25218217.411 9 132522626.951 9     -2097.246 9        57.365 9  25218217.411 9 132522626.951 9     -2097.246 9        57.365 9  25218217.910 9  98961703.899 9     -1566.126 9        57.225 9  25218217.910 9  98961703.899 9     -1566.126 9        57.225 9  25218217.910 9 101543313.566 9     -1606.981 9        57.225 9  25218217.910 9 101543313.566 9     -1606.981 9        57.225 9  25218217.910 9 100252508.733 9     -1586.553 9        60.235 9  25218217.910 9 100252508.733 9     -1586.553 9        60.235 9
E13  28147505.014 9 147916137.199 9       320.364 9        56.288 9  28147505.014 9 147916137.199 9       320.364 9        56.288 9  28147505.180 9 110456856.352 9       239.233 9        56.148 9  28147505.180 9 110456856.352 9       239.233 9        56.148 9  28147505.180 9 113338339.561 9       245.474 9        56.148 9  28147505.180 9 113338339.561 9       245.474 9        56.148 9  28147505.180 9 111897597.957 9       242.353 9        59.158 9  28147505.180 9 111897597.957 9       242.353 9        59.158 9
E25  27072213.679 9 142265443.098 9      3129.075 9        56.724 9  27072213.679 9 142265443.098 9      3129.075 9        56.724 9  27072214.732 9 106237185.663 9      2336.647 9        56.584 9  27072214.732 9 106237185.663 9      2336.647 9        56.584 9  27072214.732 9 109008590.506 9      2397.603 9        56.584 9  27072214.732 9 109008590.506 9      2397.603 9        56.584 9  27072214.732 9 107622888.085 9      2367.125 9        59.594 9  27072214.732 9 107622888.085 9      2367.125 9        59.594 9
E31  24969343.751 9 131214787.041 9     -1543.006 9        57.422 9  24969343.751 9 131214787.041 9     -1543.006 9        57.422 9  24969344.748 9  97985072.156 9     -1152.245 9        57.282 9  24969344.748 9  97985072.156 9     -1152.245 9        57.282 9  24969344.748 9 100541204.473 9     -1182.304 9        57.282 9  24969344.748 9 100541204.473 9     -1182.304 9        57.282 9  24969344.748 9  99263138.315 9     -1167.274 9        60.292 9  24969344.748 9  99263138.315 9     -1167.274 9        60.292 9
E15  27831620.710 9 146256153.981 9     -1863.304 9        56.361 9  27831620.710 9 146256153.981 9     -1863.304 9        56.361 9  27831622.316 9 109217264.144 9     -1391.429 9        56.221 9  27831622.316 9 109217264.144 9     -1391.429 9        56.221 9  27831622.316 9 112066410.165 9     -1427.727 9        56.221 9  27831622.316 9 112066410.165 9     -1427.727 9        56.221 9  27831622.316 9 110641837.155 9     -1409.578 9        59.231 9  27831622.316 9 110641837.155 9     -1409.578 9        59.231 9
E03  26322018.884 9 138323142.839 9      2462.692 9        56.974 9  26322018.884 9 138323142.839 9      2462.692 9        56.974 9  26322019.770 9 103293259.493 9      1839.023 9        56.834 9  26322019.770 9 103293259.493 9      1839.023 9        56.834 9  26322019.770 9 105987866.262 9      1886.997 9        56.834 9  26322019.770 9 105987866.262 9      1886.997 9        56.834 9  26322019.770 9 104640562.877 9      1863.010 9        59.844 9  26322019.770 9 104640562.877 9      1863.010 9        59.844 9
E24  24082197.213 9 126552800.516 9      1239.927 9        57.797 9  24082197.213 9 126552800.516 9      1239.927 9        57.797 9  24082196.438 9  94503711.629 9       925.919 9        57.657 9  24082196.438 9  94503711.629 9       925.919 9        57.657 9  24082196.438 9  96969025.845 9       950.074 9        57.657 9  24082196.438 9  96969025.845 9       950.074 9        57.657 9  24082196.438 9  95736368.737 9       937.997 9        60.667 9  24082196.438 9  95736368.737 9       937.997 9        60.667 9
> 2023 01 08 10 00 26.0000000  0 19       0.000000000000
G08  25071685.160 9 131752594.774 9     -1492.835 9        54.231 9  25071686.154 8 102664363.632 8     -1163.248 8        49.731 8  25071685.160 9  98386677.916 9     -1114.779 9        56.331 9
G13  20026286.311 9 105238844.867 9       573.861 9        56.113 9  20026284.053 8  82004285.456 8       447.165 8        51.613 8  20026286.311 9  78587449.089 9       428.533 9        58.213 9
G24  24523908.669 9 128874009.885 9      3530.992 9        54.414 9  24523909.211 8 100421308.623 8      2751.422 8        49.914 8  24523908.669 9  96237085.304 9      2636.780 9        56.514 9
G07  24602801.868 9 129288596.442 9     -2972.552 9        54.356 9  24602799.700 8 100744351.988 8     -2316.274 8        49.856 8  24602801.868 9  96546679.161 9     -2219.763 9        56.456 9
G18  24771443.642 9 130174814.947 9     -1373.426 9        54.335 9  24771442.016 8 101434914.081 8     -1070.202 8        49.835 8  24771443.642 9  97208465.707 9     -1025.611 9        56.435 9
G20  23523687.477 9 123617812.046 9     -3650.505 9        54.723 9  23523685.852 8  96325561.171 8     -2844.549 8        50.223 8  23523687.477 9  92312002.502 9     -2726.026 9        56.823 9
G14  20962349.537 9 110157890.324 9       120.427 9        55.782 9  20962348.002 8  85837310.849 8        93.839 8        51.282 8  20962349.537 9  82260762.255 9        89.929 9        57.882 9
G23  24863228.424 9 130657147.232 9      3225.425 9        54.293 9  24863226.798 8 101810757.420 8      2513.318 8        49.793 8  24863228.424 9  97568648.907 9      2408.596 9        56.393 9
G05  21748655.749 9 114289957.353 9     -2435.476 9        55.468 9  21748653.581 8  89057100.750 8     -1897.774 8        50.968 8  21748655.749 9  85346396.725 9     -1818.700 9        57.568 9
G30  21860524.696 9 114877832.639 9     -2264.501 9        55.474 9  21860525.418 8  89515197.223 8     -1764.546 8        50.974 8  21860524.696 9  85785394.503 9     -1691.024 9        57.574 9
G15  21114653.698 9 110958254.088 9      2291.056 9        55.712 9  21114651.620 8  86460968.705 8      1785.238 8        51.212 8  21114653.698 9  82858436.494 9      1710.853 9        57.812 9
E05  23313295.959 9 122512197.156 9       356.942 9        57.976 9  23313295.959 9 122512197.156 9       356.942 9        57.976 9  23313296.901 9  91486384.687 9       266.547 9        57.837 9  23313296.901 9  91486384.687 9       266.547 9        57.837 9  23313296.901 9  93872986.026 9       273.501 9        57.837 9  23313296.901 9  93872986.026 9       273.501 9        57.837 9  23313296.901 9  92679685.356 9       270.024 9        60.847 9  23313296.901 9  92679685.356 9       270.024 9        60.847 9
E09  25218616.526 9 132524724.313 9     -2097.481 9        57.364 9  25218616.526 9 132524724.313 9     -2097.481 9        57.364 9  25218617.024 9  98963270.111 9     -1566.301 9        57.224 9  25218617.024 9  98963270.111 9     -1566.301 9        57.224 9  25218617.024 9 101544920.636 9     -1607.161 9        57.224 9  25218617.024 9 101544920.636 9     -1607.161 9        57.224 9  25218617.024 9 100254095.374 9     -1586.731 9        60.235 9  25218617.024 9 100254095.374 9     -1586.731 9        60.235 9
E13  28147444.097 9 147915817.082 9       319.869 9        56.288 9  28147444.097 9 147915817.082 9       319.869 9        56.288 9  28147444.264 9 110456617.304 9       238.863 9        56.148 9  28147444.264 9 110456617.304 9       238.863 9        56.148 9  28147444.264 9 113338094.277 9       245.095 9        56.148 9  28147444.264 9 113338094.277 9       245.095 9        56.148 9  28147444.264 9 111897355.791 9       241.979 9        59.158 9  28147444.264 9 111897355.791 9       241.979 9        59.158 9
E25  27071618.248 9 142262314.082 9      3128.956 9        56.724 9  27071618.248 9 142262314.082 9      3128.956 9        56.724 9  27071619.300 9 106234849.060 9      2336.558 9        56.584 9  27071619.300 9 106234849.060 9      2336.558 9        56.584 9  27071619.300 9 109006192.949 9      2397.512 9        56.584 9  27071619.300 9 109006192.949 9      2397.512 9        56.584 9  27071619.300 9 107620521.004 9      2367.035 9        59.594 9  27071619.300 9 107620521.004 9      2367.035 9        59.594 9
E31  24969637.411 9 131216330.233 9     -1543.380 9        57.422 9  24969637.411 9 131216330.233 9     -1543.380 9        57.422 9  24969638.408 9  97986224.540 9     -1152.524 9        57.282 9  24969638.408 9  97986224.540 9     -1152.524 9        57.282 9  24969638.408 9 100542386.919 9     -1182.590 9        57.282 9  24969638.408 9 100542386.919 9     -1182.590 9        57.282 9  24969638.408 9  99264305.730 9     -1167.557 9        60.292 9  24969638.408 9  99264305.730 9     -1167.557 9        60.292 9
E15  27831975.319 9 146258017.461 9     -1863.652 9        56.361 9  27831975.319 9 146258017.461 9     -1863.652 9        56.361 9  27831976.925 9 109218655.704 9     -1391.688 9        56.221 9  27831976.925 9 109218655.704 9     -1391.688 9        56.221 9  27831976.925 9 112067838.026 9     -1427.993 9        56.221 9  27831976.925 9 112067838.026 9     -1427.993 9        56.221 9  27831976.925 9 110643246.865 9     -1409.840 9        59.231 9  27831976.925 9 110643246.865 9     -1409.840 9        59.231 9
E03  26321550.258 9 138320680.195 9      2462.593 9        56.974 9  26321550.258 9 138320680.195 9      2462.593 9        56.974 9  26321551.144 9 103291420.505 9      1838.949 9        56.834 9  26321551.144 9 103291420.505 9      1838.949 9        56.834 9  26321551.144 9 105985979.301 9      1886.922 9        56.834 9  26321551.144 9 105985979.301 9      1886.922 9        56.834 9  26321551.144 9 104638699.903 9      1862.935 9        59.844 9  26321551.144 9 104638699.903 9      1862.935 9        59.844 9
E24  24081961.304 9 126551560.806 9      1239.493 9        57.797 9  24081961.304 9 126551560.806 9      1239.493 9        57.797 9  24081960.529 9  94502785.871 9       925.595 9        57.657 9  24081960.529 9  94502785.871 9       925.595 9        57.657 9  24081960.529 9  96968075.938 9       949.741 9        57.657 9  24081960.529 9  96968075.938 9       949.741 9        57.657 9  24081960.529 9  95735430.905 9       937.668 9        60.667 9  24081960.529 9  95735430.905 9       937.668 9        60.667 9
> 2023 01 08 10 00 27.0000000  0 19       0.000000000000
G08  25071969.292 9 131754087.897 9     -1493.412 9        54.231 9  25071970.286 8 102665527.105 8     -1163.698 8        49.731 8  25071969.292 9  98387792.910 9     -1115.210 9        56.331 9
G13  20026177.154 9 105238271.242 9       573.387 9        56.113 9  20026174.896 8  82003838.476 8       446.795 8        51.613 8  20026177.154 9  78587020.733 9       428.179 9        58.213 9
G24  24523236.753 9 128870478.942 9      3530.887 9        54.415 9  24523237.295 8 100418557.239 8      2751.341 8        49.915 8  24523236.753 9  96234448.561 9      2636.702 9        56.515 9
G07  24603367.530 9 129291569.016 9     -2972.601 9        54.356 9  24603365.362 8 100746668.280 8     -2316.313 8        49.856 8  24603367.530 9  96548898.940 9     -2219.800 9        56.456 9
G18  24771705.047 9 130176188.638 9     -1373.953 9        54.334 9  24771703.421 8 101435984.490 8     -1070.613 8        49.834 8  24771705.047 9  97209491.515 9     -1026.004 9        56.434 9
G20  23524382.159 9 123621462.624 9     -3650.651 9        54.723 9  23524380.534 8  96328405.778 8     -2844.663 8        50.223 8  23524382.159 9  92314728.583 9     -2726.136 9        56.823 9
G14  20962326.684 9 110157770.227 9       119.768 9        55.782 9  20962325.148 8  85837217.266 8        93.326 8        51.282 8  20962326.684 9  82260672.572 9        89.437 9        57.882 9
G23  24862614.675 9 130653921.960 9      3225.116 9        54.293 9  24862613.050 8 101808244.221 8      2513.077 8        49.793 8  24862614.675 9  97566240.425 9      2408.366 9        56.393 9
G05  21749119.254 9 114292393.090 9     -2435.994 9        55.468 9  21749117.086 8  89058998.727 8     -1898.177 8        50.968 8  21749119.254 9  85348215.619 9     -1819.086 9        57.568 9
G30  21860955.641 9 114880097.273 9     -2264.769 9        55.474 9  21860956.364 8  89516961.872 8     -1764.755 8        50.974 8  21860955.641 9  85787085.626 9     -1691.224 9        57.574 9
G15  21114217.765 9 110955963.246 9      2290.624 9        55.712 9  21114215.688 8  86459183.634 8      1784.902 8        51.212 8  21114217.765 9  82856725.801 9      1710.531 9        57.812 9
E05  23313228.066 9 122511840.373 9       356.624 9        57.977 9  23313228.066 9 122511840.373 9       356.624 9        57.977 9  23313229.007 9  91486118.258 9       266.310 9        57.837 9  23313229.007 9  91486118.258 9       266.310 9        57.837 9  23313229.007 9  93872712.647 9       273.258 9        57.837 9  23313229.007 9  93872712.647 9       273.258 9        57.837 9  23313229.007 9  92679415.452 9       269.784 9        60.847 9  23313229.007 9  92679415.452 9       269.784 9        60.847 9
E09  25219015.686 9 132526821.911 9     -2097.717 9        57.364 9  25219015.686 9 132526821.911 9     -2097.717 9        57.364 9  25219016.184 9  98964836.499 9     -1566.477 9        57.224 9  25219016.184 9  98964836.499 9     -1566.477 9        57.224 9  25219016.184 9 101546527.886 9     -1607.341 9        57.224 9  25219016.184 9 101546527.886 9     -1607.341 9        57.224 9  25219016.184 9 100255682.193 9     -1586.909 9        60.235 9  25219016.184 9 100255682.193 9     -1586.909 9        60.235 9
E13  28147383.275 9 147915497.460 9       319.375 9        56.288 9  28147383.275 9 147915497.460 9       319.375 9        56.288 9  28147383.442 9 110456378.625 9       238.494 9        56.148 9  28147383.442 9 110456378.625 9       238.494 9        56.148 9  28147383.442 9 113337849.372 9       244.716 9        56.148 9  28147383.442 9 113337849.372 9       244.716 9        56.148 9  28147383.442 9 111897113.999 9       241.605 9        59.158 9  28147383.442 9 111897113.999 9       241.605 9        59.158 9
E25  27071022.838 9 142259185.185 9      3128.837 9        56.724 9  27071022.838 9 142259185.185 9      3128.837 9        56.724 9  27071023.890 9 106232512.546 9      2336.469 9        56.584 9  27071023.890 9 106232512.546 9      2336.469 9        56.584 9  27071023.890 9 109003795.482 9      2397.420 9        56.584 9  27071023.890 9 109003795.482 9      2397.420 9        56.584 9  27071023.890 9 107618154.014 9      2366.945 9        59.594 9  27071023.890 9 107618154.014 9      2366.945 9        59.594 9
E31  24969931.142 9 131217873.800 9     -1543.754 9        57.422 9  24969931.142 9 131217873.800 9     -1543.754 9        57.422 9  24969932.139 9  97987377.203 9     -1152.804 9        57.282 9  24969932.139 9  97987377.203 9     -1152.804 9        57.282 9  24969932.139 9 100543569.652 9     -1182.877 9        57.282 9  24969932.139 9 100543569.652 9     -1182.877 9        57.282 9  24969932.139 9  99265473.427 9     -1167.840 9        60.292 9  24969932.139 9  99265473.427 9     -1167.840 9        60.292 9
E15  27832329.993 9 146259881.288 9     -1863.999 9        56.361 9  27832329.993 9 146259881.288 9     -1863.999 9        56.361 9  27832331.599 9 109220047.523 9     -1391.947 9        56.221 9  27832331.599 9 109220047.523 9     -1391.947 9        56.221 9  27832331.599 9 112069266.154 9     -1428.259 9        56.221 9  27832331.599 9 112069266.154 9     -1428.259 9        56.221 9  27832331.599 9 110644656.838 9     -1410.103 9        59.231 9  27832331.599 9 110644656.838 9     -1410.103 9        59.231 9
E03  26321081.651 9 138318217.649 9      2462.494 9        56.974 9  26321081.651 9 138318217.649 9      2462.494 9        56.974 9  26321082.537 9 103289581.591 9      1838.875 9        56.834 9  26321082.537 9 103289581.591 9      1838.875 9        56.834 9  26321082.537 9 105984092.416 9      1886.846 9        56.834 9  26321082.537 9 105984092.416 9      1886.846 9        56.834 9  26321082.537 9 104636837.003 9      1862.861 9        59.844 9  26321082.537 9 104636837.003 9      1862.861 9        59.844 9
E24  24081725.478 9 126550321.530 9      1239.059 9        57.797 9  24081725.478 9 126550321.530 9      1239.059 9        57.797 9  24081724.703 9  94501860.438 9       925.272 9        57.657 9  24081724.703 9  94501860.438 9       925.272 9        57.657 9  24081724.703 9  96967126.363 9       949.409 9        57.657 9  24081724.703 9  96967126.363 9       949.409 9        57.657 9  24081724.703 9  95734493.400 9       937.340 9        60.667 9  24081724.703 9  95734493.400 9       937.340 9        60.667 9
> 2023 01 08 10 00 28.0000000  0 19       0.000000000000
G08  25072253.534 9 131755581.597 9     -1493.989 9        54.231 9  25072254.527 8 102666691.026 8     -1164.147 8        49.731 8  25072253.534 9  98388908.335 9     -1115.641 9        56.331 9
G13  20026068.087 9 105237698.092 9       572.913 9        56.113 9  20026065.829 8  82003391.865 8       446.426 8        51.613 8  20026068.087 9  78586592.731 9       427.824 9        58.213 9
G24  24522564.857 9 128866948.104 9      3530.783 9        54.415 9  24522565.399 8 100415805.936 8      2751.259 8        49.915 8  24522564.857 9  96231811.896 9      2636.623 9        56.515 9
G07  24603933.201 9 129294541.639 9     -2972.651 9        54.356 9  24603931.034 8 100748984.609 8     -2316.351 8        49.856 8  24603933.201 9  96551118.757 9     -2219.837 9        56.456 9
G18  24771966.552 9 130177562.855 9     -1374.479 9        54.334 9  24771964.926 8 101437055.308 8     -1071.023 8        49.834 8  24771966.552 9  97210517.717 9     -1026.397 9        56.434 9
G20  23525076.869 9 123625113.349 9     -3650.798 9        54.723 9  23525075.244 8  96331250.499 8     -2844.777 8        50.223 8  23525076.869 9  92317454.774 9     -2726.245 9        56.823 9
G14  20962303.955 9 110157650.789 9       119.109 9        55.782 9  20962302.420 8  85837124.198 8        92.812 8        51.282 8  20962303.955 9  82260583.381 9        88.945 9        57.882 9
G23  24862000.985 9 130650696.997 9      3224.807 9        54.293 9  24861999.360 8 101805731.263 8      2512.836 8        49.793 8  24862000.985 9  97563832.173 9      2408.135 9        56.393 9
G05  21749582.858 9 114294829.344 9     -2436.512 9        55.468 9  21749580.690 8  89060897.106 8     -1898.581 8        50.968 8  21749582.858 9  85350034.899 9     -1819.473 9        57.568 9
G30  21861386.638 9 114882362.175 9     -2265.038 9        55.474 9  21861387.361 8  89518726.731 8     -1764.965 8        50.974 8  21861386.638 9  85788776.949 9     -1691.424 9        57.574 9
G15  21113781.914 9 110953672.836 9      2290.193 9        55.712 9  21113779.837 8  86457398.899 8      1784.566 8        51.212 8  21113781.914 9  82855015.430 9      1710.209 9        57.812 9
E05  23313160.233 9 122511483.907 9       356.307 9        57.977 9  23313160.233 9 122511483.907 9       356.307 9        57.977 9  23313161.174 9  91485852.066 9       266.074 9        57.837 9  23313161.174 9  91485852.066 9       266.074 9        57.837 9  23313161.174 9  93872439.511 9       273.015 9        57.837 9  23313161.174 9  93872439.511 9       273.015 9        57.837 9  23313161.174 9  92679145.788 9       269.544 9        60.847 9  23313161.174 9  92679145.788 9       269.544 9        60.847 9
E09  25219414.890 9 132528919.743 9     -2097.952 9        57.364 9  25219414.890 9 132528919.743 9     -2097.952 9        57.364 9  25219415.388 9  98966403.063 9     -1566.652 9        57.224 9  25219415.388 9  98966403.063 9     -1566.652 9        57.224 9  25219415.388 9 101548135.317 9     -1607.521 9        57.224 9  25219415.388 9 101548135.317 9     -1607.521 9        57.224 9  25219415.388 9 100257269.190 9     -1587.087 9        60.235 9  25219415.388 9 100257269.190 9     -1587.087 9        60.235 9
E13  28147322.548 9 147915178.332 9       318.880 9        56.288 9  28147322.548 9 147915178.332 9       318.880 9        56.288 9  28147322.714 9 110456140.316 9       238.125 9        56.148 9  28147322.714 9 110456140.316 9       238.125 9        56.148 9  28147322.714 9 113337604.846 9       244.337 9        56.148 9  28147322.714 9 113337604.846 9       244.337 9        56.148 9  28147322.714 9 111896872.581 9       241.231 9        59.159 9  28147322.714 9 111896872.581 9       241.231 9        59.159 9
E25  27070427.451 9 142256056.407 9      3128.718 9        56.724 9  27070427.451 9 142256056.407 9      3128.718 9        56.724 9  27070428.504 9 106230176.121 9      2336.380 9        56.584 9  27070428.504 9 106230176.121 9      2336.380 9        56.584 9  27070428.504 9 109001398.106 9      2397.329 9        56.584 9  27070428.504 9 109001398.106 9      2397.329 9        56.584 9  27070428.504 9 107615787.113 9      2366.855 9        59.595 9  27070428.504 9 107615787.113 9      2366.855 9        59.595 9
E31  24970224.944 9 131219417.740 9     -1544.128 9        57.422 9  24970224.944 9 131219417.740 9     -1544.128 9        57.422 9  24970225.941 9  97988530.146 9     -1153.083 9        57.282 9  24970225.941 9  97988530.146 9     -1153.083 9        57.282 9  24970225.941 9 100544752.671 9     -1183.163 9        57.282 9  24970225.941 9 100544752.671 9     -1183.163 9        57.282 9  24970225.941 9  99266641.408 9     -1168.123 9        60.292 9  24970225.941 9  99266641.408 9     -1168.123 9        60.292 9
E15  27832684.734 9 146261745.462 9     -1864.346 9        56.361 9  27832684.734 9 146261745.462 9     -1864.346 9        56.361 9  27832686.340 9 109221439.601 9     -1392.206 9        56.221 9  27832686.340 9 109221439.601 9     -1392.206 9        56.221 9  27832686.340 9 112070694.547 9     -1428.525 9        56.221 9  27832686.340 9 112070694.547 9     -1428.525 9        56.221 9  27832686.340 9 110646067.074 9     -1410.365 9        59.231 9  27832686.340 9 110646067.074 9     -1410.365 9        59.231 9
E03  26320613.063 9 138315755.203 9      2462.395 9        56.974 9  26320613.063 9 138315755.203 9      2462.395 9        56.974 9  26320613.949 9 103287742.751 9      1838.802 9        56.834 9  26320613.949 9 103287742.751 9      1838.802 9        56.834 9  26320613.949 9 105982205.606 9      1886.770 9        56.834 9  26320613.949 9 105982205.606 9      1886.770 9        56.834 9  26320613.949 9 104634974.179 9      1862.786 9        59.844 9  26320613.949 9 104634974.179 9      1862.786 9        59.844 9
E24  24081489.734 9 126549082.688 9      1238.626 9        57.797 9  24081489.734 9 126549082.688 9      1238.626 9        57.797 9  24081488.959 9  94500935.329 9       924.948 9        57.657 9  24081488.959 9  94500935.329 9       924.948 9        57.657 9  24081488.959 9  96966177.120 9       949.077 9        57.657 9  24081488.959 9  96966177.120 9       949.077 9        57.657 9  24081488.959 9  95733556.224 9       937.012 9        60.667 9  24081488.959 9  95733556.224 9       937.012 9        60.667 9
> 2023 01 08 10 00 29.0000000  0 19       0.000000000000
G08  25072537.885 9 131757075.873 9     -1494.566 9        54.231 9  25072538.879 8 102667855.398 8     -1164.597 8        49.731 8  25072537.885 9  98390024.191 9     -1116.072 9        56.331 9
G13  20025959.110 9 105237125.417 9       572.438 9        56.113 9  20025956.852 8  82002945.625 8       446.056 8        51.613 8  20025959.110 9  78586165.084 9       427.470 9        58.213 9
G24  24521892.981 9 128863417.370 9      3530.678 9        54.415 9  24521893.523 8 100413054.715 8      2751.178 8        49.915 8  24521892.981 9  96229175.309 9      2636.545 9        56.515 9
G07  24604498.882 9 129297514.312 9     -2972.700 9        54.356 9  24604496.715 8 100751300.978 8     -2316.390 8        49.856 8  24604498.882 9  96553338.610 9     -2219.874 9        56.456 9
G18  24772228.157 9 130178937.599 9     -1375.006 9        54.334 9  24772226.531 8 101438126.537 8     -1071.433 8        49.834 8  24772228.157 9  97211544.311 9     -1026.790 9        56.434 9
G20  23525771.607 9 123628764.221 9     -3650.944 9        54.723 9  23525769.981 8  96334095.334 8     -2844.892 8        50.223 8  23525771.607 9  92320181.074 9     -2726.354 9        56.823 9
G14  20962281.352 9 110157532.009 9       118.450 9        55.782 9  20962279.817 8  85837031.642 8        92.299 8        51.282 8  20962281.352 9  82260494.682 9        88.453 9        57.882 9
G23  24861387.354 9 130647472.343 9      3224.498 9        54.293 9  24861385.728 8 101803218.546 8      2512.595 8        49.793 8  24861387.354 9  97561424.152 9      2407.904 9        56.393 9
G05  21750046.560 9 114297266.115 9     -2437.029 9        55.468 9  21750044.392 8  89062795.889 8     -1898.984 8        50.968 8  21750046.560 9  85351854.567 9     -1819.859 9        57.568 9
G30  21861817.686 9 114884627.345 9     -2265.306 9        55.474 9  21861818.408 8  89520491.799 8     -1765.174 8        50.974 8  21861817.686 9  85790468.472 9     -1691.625 9        57.574 9
G15  21113346.146 9 110951382.858 9      2289.761 9        55.712 9  21113344.069 8  86455614.500 8      1784.230 8        51.212 8  21113346.146 9  82853305.381 9      1709.887 9        57.812 9
E05  23313092.460 9 122511127.758 9       355.990 9        57.977 9  23313092.460 9 122511127.758 9       355.990 9        57.977 9  23313093.401 9  91485586.111 9       265.837 9        57.837 9  23313093.401 9  91485586.111 9       265.837 9        57.837 9  23313093.401 9  93872166.618 9       272.771 9        57.837 9  23313093.401 9  93872166.618 9       272.771 9        57.837 9  23313093.401 9  92678876.364 9       269.304 9        60.847 9  23313093.401 9  92678876.364 9       269.304 9        60.847 9
E09  25219814.139 9 132531017.811 9     -2098.187 9        57.364 9  25219814.139 9 132531017.811 9     -2098.187 9        57.364 9  25219814.637 9  98967969.802 9     -1566.828 9        57.224 9  25219814.637 9  98967969.802 9     -1566.828 9        57.224 9  25219814.637 9 101549742.927 9     -1607.701 9        57.224 9  25219814.637 9 101549742.927 9     -1607.701 9        57.224 9  25219814.637 9 100258856.364 9     -1587.265 9        60.234 9  25219814.637 9 100258856.364 9     -1587.265 9        60.234 9
E13  28147261.914 9 147914859.700 9       318.385 9        56.288 9  28147261.914 9 147914859.700 9       318.385 9        56.288 9  28147262.080 9 110455902.376 9       237.755 9        56.148 9  28147262.080 9 110455902.376 9       237.755 9        56.148 9  28147262.080 9 113337360.698 9       243.958 9        56.148 9  28147262.080 9 113337360.698 9       243.958 9        56.148 9  28147262.080 9 111896631.537 9       240.856 9        59.159 9  28147262.080 9 111896631.537 9       240.856 9        59.159 9
E25  27069832.087 9 142252927.748 9      3128.599 9        56.724 9  27069832.087 9 142252927.748 9      3128.599 9        56.724 9  27069833.139 9 106227839.784 9      2336.291 9        56.585 9  27069833.139 9 106227839.784 9      2336.291 9        56.585 9  27069833.139 9 108999000.822 9      2397.238 9        56.585 9  27069833.139 9 108999000.822 9      2397.238 9        56.585 9  27069833.139 9 107613420.303 9      2366.764 9        59.595 9  27069833.139 9 107613420.303 9      2366.764 9        59.595 9
E31  24970518.817 9 131220962.054 9     -1544.502 9        57.422 9  24970518.817 9 131220962.054 9     -1544.502 9        57.422 9  24970519.814 9  97989683.367 9     -1153.362 9        57.282 9  24970519.814 9  97989683.367 9     -1153.362 9        57.282 9  24970519.814 9 100545935.977 9     -1183.450 9        57.282 9  24970519.814 9 100545935.977 9     -1183.450 9        57.282 9  24970519.814 9  99267809.672 9     -1168.406 9        60.292 9  24970519.814 9  99267809.672 9     -1168.406 9        60.292 9
E15  27833039.540 9 146263609.982 9     -1864.693 9        56.360 9  27833039.540 9 146263609.982 9     -1864.693 9        56.360 9  27833041.146 9 109222831.938 9     -1392.465 9        56.221 9  27833041.146 9 109222831.938 9     -1392.465 9        56.221 9  27833041.146 9 112072123.206 9     -1428.791 9        56.221 9  27833041.146 9 112072123.206 9     -1428.791 9        56.221 9  27833041.146 9 110647477.572 9     -1410.628 9        59.231 9  27833041.146 9 110647477.572 9     -1410.628 9        59.231 9
E03  26320144.494 9 138313292.855 9      2462.296 9        56.974 9  26320144.494 9 138313292.855 9      2462.296 9        56.974 9  26320145.380 9 103285903.985 9      1838.728 9        56.834 9  26320145.380 9 103285903.985 9      1838.728 9        56.834 9  26320145.380 9 105980318.872 9      1886.695 9        56.834 9  26320145.380 9 105980318.872 9      1886.695 9        56.834 9  26320145.380 9 104633111.429 9      1862.711 9        59.845 9  26320145.380 9 104633111.429 9      1862.711 9        59.845 9
E24  24081254.073 9 126547844.279 9      1238.192 9        57.797 9  24081254.073 9 126547844.279 9      1238.192 9        57.797 9  24081253.297 9  94500010.543 9       924.624 9        57.657 9  24081253.297 9  94500010.543 9       924.624 9        57.657 9  24081253.297 9  96965228.209 9       948.745 9        57.657 9  24081253.297 9  96965228.209 9       948.745 9        57.657 9  24081253.297 9  95732619.376 9       936.684 9        60.667 9  24081253.297 9  95732619.376 9       936.684 9        60.667 9
> 2023 01 08 10 00 30.0000000  0 19       0.000000000000
G08  25072822.346 9 131758570.727 9     -1495.143 9        54.230 9  25072823.340 8 102669020.219 8     -1165.047 8        49.730 8  25072822.346 9  98391140.478 9     -1116.503 9        56.330 9
G13  20025850.224 9 105236553.215 9       571.964 9        56.113 9  20025847.966 8  82002499.753 8       445.686 8        51.613 8  20025850.224 9  78585737.791 9       427.116 9        58.213 9
G24  24521221.124 9 128859886.741 9      3530.573 9        54.415 9  24521221.666 8 100410303.575 8      2751.096 8        49.915 8  24521221.124 9  96226538.800 9      2636.467 9        56.515 9
G07  24605064.572 9 129300487.034 9     -2972.750 9        54.355 9  24605062.405 8 100753617.385 8     -2316.429 8        49.855 8  24605064.572 9  96555558.500 9     -2219.911 9        56.455 9
G18  24772489.862 9 130180312.869 9     -1375.532 9        54.334 9  24772488.236 8 101439198.176 8     -1071.843 8        49.834 8  24772489.862 9  97212571.298 9     -1027.183 9        56.434 9
G20  23526466.373 9 123632415.239 9     -3651.091 9        54.722 9  23526464.747 8  96336940.283 8     -2845.006 8        50.222 8  23526466.373 9  92322907.484 9     -2726.464 9        56.822 9
G14  20962258.875 9 110157413.888 9       117.791 9        55.782 9  20962257.339 8  85836939.600 8        91.785 8        51.282 8  20962258.875 9  82260406.475 9        87.961 9        57.882 9
G23  24860773.782 9 130644247.998 9      3224.188 9        54.293 9  24860772.156 8 101800706.069 8      2512.355 8        49.793 8  24860773.782 9  97559016.362 9      2407.673 9        56.393 9
G05  21750510.361 9 114299703.404 9     -2437.547 9        55.468 9  21750508.193 8  89064695.076 8     -1899.387 8        50.968 8  21750510.361 9  85353674.620 9     -1820.246 9        57.568 9
G30  21862248.784 9 114886892.784 9     -2265.574 9        55.474 9  21862249.507 8  89522257.076 8     -1765.383 8        50.974 8  21862248.784 9  85792160.196 9     -1691.825 9        57.574 9
G15  21112910.460 9 110949093.311 9      2289.330 9        55.713 9  21112908.382 8  86453830.437 8      1783.894 8        51.213 8  21112910.460 9  82851595.654 9      1709.565 9        57.813 9
E05  23313024.747 9 122510771.927 9       355.673 9        57.977 9  23313024.747 9 122510771.927 9       355.673 9        57.977 9  23313025.689 9  91485320.393 9       265.600 9        57.837 9  23313025.689 9  91485320.393 9       265.600 9        57.837 9  23313025.689 9  93871893.968 9       272.528 9        57.837 9  23313025.689 9  93871893.968 9       272.528 9        57.837 9  23313025.689 9  92678607.180 9       269.064 9        60.847 9  23313025.689 9  92678607.180 9       269.064 9        60.847 9
E09  25220213.433 9 132533116.114 9     -2098.422 9        57.364 9  25220213.433 9 132533116.114 9     -2098.422 9        57.364 9  25220213.931 9  98969536.716 9     -1567.003 9        57.224 9  25220213.931 9  98969536.716 9     -1567.003 9        57.224 9  25220213.931 9 101551350.717 9     -1607.882 9        57.224 9  25220213.931 9 101551350.717 9     -1607.882 9        57.224 9  25220213.931 9 100260443.717 9     -1587.442 9        60.234 9  25220213.931 9 100260443.717 9     -1587.442 9        60.234 9
E13  28147201.374 9 147914541.562 9       317.891 9        56.288 9  28147201.374 9 147914541.562 9       317.891 9        56.288 9  28147201.540 9 110455664.805 9       237.386 9        56.148 9  28147201.540 9 110455664.805 9       237.386 9        56.148 9  28147201.540 9 113337116.930 9       243.579 9        56.148 9  28147201.540 9 113337116.930 9       243.579 9        56.148 9  28147201.540 9 111896390.868 9       240.482 9        59.159 9  28147201.540 9 111896390.868 9       240.482 9        59.159 9
E25  27069236.746 9 142249799.208 9      3128.479 9        56.725 9  27069236.746 9 142249799.208 9      3128.479 9        56.725 9  27069237.798 9 106225503.537 9      2336.202 9        56.585 9  27069237.798 9 106225503.537 9      2336.202 9        56.585 9  27069237.798 9 108996603.629 9      2397.147 9        56.585 9  27069237.798 9 108996603.629 9      2397.147 9        56.585 9  27069237.798 9 107611053.583 9      2366.674 9        59.595 9  27069237.798 9 107611053.583 9      2366.674 9        59.595 9
E31  24970812.762 9 131222506.743 9     -1544.876 9        57.422 9  24970812.762 9 131222506.743 9     -1544.876 9        57.422 9  24970813.759 9  97990836.868 9     -1153.641 9        57.282 9  24970813.759 9  97990836.868 9     -1153.641 9        57.282 9  24970813.759 9 100547119.569 9     -1183.736 9        57.282 9  24970813.759 9 100547119.569 9     -1183.736 9        57.282 9  24970813.759 9  99268978.219 9     -1168.689 9        60.292 9  24970813.759 9  99268978.219 9     -1168.689 9        60.292 9
E15  27833394.413 9 146265474.850 9     -1865.040 9        56.360 9  27833394.413 9 146265474.850 9     -1865.040 9        56.360 9  27833396.019 9 109224224.534 9     -1392.724 9        56.220 9  27833396.019 9 109224224.534 9     -1392.724 9        56.220 9  27833396.019 9 112073552.130 9     -1429.056 9        56.220 9  27833396.019 9 112073552.130 9     -1429.056 9        56.220 9  27833396.019 9 110648888.332 9     -1410.890 9        59.231 9  27833396.019 9 110648888.332 9     -1410.890 9        59.231 9
E03  26319675.944 9 138310830.606 9      2462.197 9        56.974 9  26319675.944 9 138310830.606 9      2462.197 9        56.974 9  26319676.830 9 103284065.293 9      1838.654 9        56.834 9  26319676.830 9 103284065.293 9      1838.654 9        56.834 9  26319676.830 9 105978432.214 9      1886.619 9        56.834 9  26319676.830 9 105978432.214 9      1886.619 9        56.834 9  26319676.830 9 104631248.753 9      1862.636 9        59.845 9  26319676.830 9 104631248.753 9      1862.636 9        59.845 9
E24  24081018.494 9 126546606.304 9      1237.758 9        57.797 9  24081018.494 9 126546606.304 9      1237.758 9        57.797 9  24081017.719 9  94499086.081 9       924.300 9        57.657 9  24081017.719 9  94499086.081 9       924.300 9        57.657 9  24081017.719 9  96964279.631 9       948.412 9        57.657 9  24081017.719 9  96964279.631 9       948.412 9        57.657 9  24081017.719 9  95731682.856 9       936.356 9        60.667 9  24081017.719 9  95731682.856 9       936.356 9        60.667 9
> 2023 01 08 10 00 31.0000000  0 19       0.000000000000
G08  25073106.917 9 131760066.158 9     -1495.720 9        54.230 9  25073107.911 8 102670185.490 8     -1165.496 8        49.730 8  25073106.917 9  98392257.196 9     -1116.934 9        56.330 9
G13  20025741.428 9 105235981.488 9       571.490 9        56.113 9  20025739.170 8  82002054.252 8       445.317 8        51.613 8  20025741.428 9  78585310.852 9       426.762 9        58.213 9
G24  24520549.288 9 128856356.216 9      3530.469 9        54.415 9  24520549.830 8 100407552.517 8      2751.015 8        49.915 8  24520549.288 9  96223902.369 9      2636.389 9        56.515 9
G07  24605630.272 9 129303459.806 9     -2972.799 9        54.355 9  24605628.105 8 100755933.830 8     -2316.467 8        49.855 8  24605630.272 9  96557778.427 9     -2219.948 9        56.455 9
G18  24772751.667 9 130181688.665 9     -1376.058 9        54.334 9  24772750.041 8 101440270.225 8     -1072.253 8        49.834 8  24772751.667 9  97213598.678 9     -1027.576 9        56.434 9
G20  23527161.166 9 123636066.404 9     -3651.237 9        54.722 9  23527159.541 8  96339785.346 8     -2845.120 8        50.222 8  23527161.166 9  92325634.003 9     -2726.573 9        56.822 9
G14  20962236.523 9 110157296.427 9       117.132 9        55.782 9  20962234.987 8  85836848.072 8        91.272 8        51.282 8  20962236.523 9  82260318.760 9        87.469 9        57.882 9
G23  24860160.268 9 130641023.963 9      3223.879 9        54.294 9  24860158.642 8 101798193.834 8      2512.113 8        49.794 8  24860160.268 9  97556608.803 9      2407.442 9        56.394 9
G05  21750974.260 9 114302141.211 9     -2438.064 9        55.467 9  21750972.092 8  89066594.665 8     -1899.790 8        50.967 8  21750974.260 9  85355495.060 9     -1820.632 9        57.567 9
G30  21862679.934 9 114889158.491 9     -2265.842 9        55.474 9  21862680.656 8  89524022.562 8     -1765.592 8        50.974 8  21862679.934 9  85793852.120 9     -1692.025 9        57.574 9
G15  21112474.856 9 110946804.195 9      2288.898 9        55.713 9  21112472.778 8  86452046.711 8      1783.557 8        51.213 8  21112474.856 9  82849886.249 9      1709.242 9        57.813 9
E05  23312957.095 9 122510416.413 9       355.355 9        57.977 9  23312957.095 9 122510416.413 9       355.355 9        57.977 9  23312958.037 9  91485054.911 9       265.363 9        57.837 9  23312958.037 9  91485054.911 9       265.363 9        57.837 9  23312958.037 9  93871621.561 9       272.285 9        57.837 9  23312958.037 9  93871621.561 9       272.285 9        57.837 9  23312958.037 9  92678338.236 9       268.824 9        60.847 9  23312958.037 9  92678338.236 9       268.824 9        60.847 9
E09  25220612.771 9 132535214.652 9     -2098.657 9        57.364 9  25220612.771 9 132535214.652 9     -2098.657 9        57.364 9  25220613.270 9  98971103.806 9     -1567.179 9        57.224 9  25220613.270 9  98971103.806 9     -1567.179 9        57.224 9  25220613.270 9 101552958.688 9     -1608.062 9        57.224 9  25220613.270 9 101552958.688 9     -1608.062 9        57.224 9  25220613.270 9 100262031.247 9     -1587.620 9        60.234 9  25220613.270 9 100262031.247 9     -1587.620 9        60.234 9
E13  28147140.928 9 147914223.918 9       317.396 9        56.288 9  28147140.928 9 147914223.918 9       317.396 9        56.288 9  28147141.095 9 110455427.604 9       237.017 9        56.148 9  28147141.095 9 110455427.604 9       237.017 9        56.148 9  28147141.095 9 113336873.541 9       243.200 9        56.148 9  28147141.095 9 113336873.541 9       243.200 9        56.148 9  28147141.095 9 111896150.572 9       240.108 9        59.159 9  28147141.095 9 111896150.572 9       240.108 9        59.159 9
E25  27068641.427 9 142246670.787 9      3128.360 9        56.725 9  27068641.427 9 142246670.787 9      3128.360 9        56.725 9  27068642.479 9 106223167.378 9      2336.113 9        56.585 9  27068642.479 9 106223167.378 9      2336.113 9        56.585 9  27068642.479 9 108994206.528 9      2397.055 9        56.585 9  27068642.479 9 108994206.528 9      2397.055 9        56.585 9  27068642.479 9 107608686.953 9      2366.584 9        59.595 9  27068642.479 9 107608686.953 9      2366.584 9        59.595 9
E31  24971106.777 9 131224051.805 9     -1545.250 9        57.421 9  24971106.777 9 131224051.805 9     -1545.250 9        57.421 9  24971107.774 9  97991990.648 9     -1153.920 9        57.282 9  24971107.774 9  97991990.648 9     -1153.920 9        57.282 9  24971107.774 9 100548303.448 9     -1184.023 9        57.282 9  24971107.774 9 100548303.448 9     -1184.023 9        57.282 9  24971107.774 9  99270147.048 9     -1168.972 9        60.292 9  24971107.774 9  99270147.048 9     -1168.972 9        60.292 9
E15  27833749.351 9 146267340.065 9     -1865.386 9        56.360 9  27833749.351 9 146267340.065 9     -1865.386 9        56.360 9  27833750.957 9 109225617.389 9     -1392.983 9        56.220 9  27833750.957 9 109225617.389 9     -1392.983 9        56.220 9  27833750.957 9 112074981.321 9     -1429.322 9        56.220 9  27833750.957 9 112074981.321 9     -1429.322 9        56.220 9  27833750.957 9 110650299.355 9     -1411.153 9        59.231 9  27833750.957 9 110650299.355 9     -1411.153 9        59.231 9
E03  26319207.412 9 138308368.456 9      2462.099 9        56.974 9  26319207.412 9 138308368.456 9      2462.099 9        56.974 9  26319208.298 9 103282226.675 9      1838.580 9        56.835 9  26319208.298 9 103282226.675 9      1838.580 9        56.835 9  26319208.298 9 105976545.631 9      1886.543 9        56.835 9  26319208.298 9 105976545.631 9      1886.543 9        56.835 9  26319208.298 9 104629386.153 9      1862.562 9        59.845 9  26319208.298 9 104629386.153 9      1862.562 9        59.845 9
E24  24080782.998 9 126545368.763 9      1237.325 9        57.797 9  24080782.998 9 126545368.763 9      1237.325 9        57.797 9  24080782.222 9  94498161.943 9       923.976 9        57.657 9  24080782.222 9  94498161.943 9       923.976 9        57.657 9  24080782.222 9  96963331.385 9       948.080 9        57.657 9  24080782.222 9  96963331.385 9       948.080 9        57.657 9  24080782.222 9  95730746.664 9       936.028 9        60.667 9  24080782.222 9  95730746.664 9       936.028 9        60.667 9
> 2023 01 08 10 00 32.0000000  0 19       0.000000000000
G08  25073391.598 9 131761562.166 9     -1496.297 9        54.230 9  25073392.592 8 102671351.210 8     -1165.946 8        49.730 8  25073391.598 9  98393374.345 9     -1117.365 9        56.330 9
G13  20025632.722 9 105235410.236 9       571.015 9        56.113 9  20025630.464 8  82001609.120 8       444.947 8        51.613 8  20025632.722 9  78584884.267 9       426.408 9        58.213 9
G24  24519877.471 9 128852825.797 9      3530.364 9        54.416 9  24519878.013 8 100404801.541 8      2750.933 8        49.916 8  24519877.471 9  96221266.017 9      2636.311 9        56.516 9
G07  24606195.981 9 129306432.628 9     -2972.849 9        54.355 9  24606193.814 8 100758250.315 8     -2316.506 8        49.855 8  24606195.981 9  96559998.391 9     -2219.985 9        56.455 9
G18  24773013.573 9 130183064.987 9     -1376.584 9        54.334 9  24773011.947 8 101441342.684 8     -1072.663 8        49.834 8  24773013.573 9  97214626.451 9     -1027.969 9        56.434 9
G20  23527855.988 9 123639717.714 9     -3651.383 9        54.722 9  23527854.362 8  96342630.523 8     -2845.233 8        50.222 8  23527855.988 9  92328360.631 9     -2726.682 9        56.822 9
G14  20962214.296 9 110157179.624 9       116.473 9        55.782 9  20962212.760 8  85836757.056 8        90.759 8        51.282 8  20962214.296 9  82260231.537 9        86.977 9        57.882 9
G23  24859546.813 9 130637800.237 9      3223.569 9        54.294 9  24859545.188 8 101795681.840 8      2511.872 8        49.794 8  24859546.813 9  97554201.476 9      2407.211 9        56.394 9
G05  21751438.257 9 114304579.535 9     -2438.581 9        55.467 9  21751436.090 8  89068494.658 8     -1900.193 8        50.967 8  21751438.257 9  85357315.886 9     -1821.019 9        57.567 9
G30  21863111.135 9 114891424.466 9     -2266.111 9        55.473 9  21863111.857 8  89525788.257 8     -1765.800 8        50.973 8  21863111.135 9  85795544.244 9     -1692.225 9        57.573 9
G15  21112039.333 9 110944515.511 9      2288.467 9        55.713 9  21112037.256 8  86450263.321 8      1783.221 8        51.213 8  21112039.333 9  82848177.167 9      1708.920 9        57.813 9
E05  23312889.504 9 122510061.216 9       355.038 9        57.977 9  23312889.504 9 122510061.216 9       355.038 9        57.977 9  23312890.445 9  91484789.667 9       265.126 9        57.837 9  23312890.445 9  91484789.667 9       265.126 9        57.837 9  23312890.445 9  93871349.398 9       272.042 9        57.837 9  23312890.445 9  93871349.398 9       272.042 9        57.837 9  23312890.445 9  92678069.532 9       268.584 9        60.847 9  23312890.445 9  92678069.532 9       268.584 9        60.847 9
E09  25221012.154 9 132537313.425 9     -2098.892 9        57.364 9  25221012.154 9 132537313.425 9     -2098.892 9        57.364 9  25221012.653 9  98972671.072 9     -1567.354 9        57.224 9  25221012.653 9  98972671.072 9     -1567.354 9        57.224 9  25221012.653 9 101554566.839 9     -1608.242 9        57.224 9  25221012.653 9 101554566.839 9     -1608.242 9        57.224 9  25221012.653 9 100263618.955 9     -1587.798 9        60.234 9  25221012.653 9 100263618.955 9     -1587.798 9        60.234 9
E13  28147080.577 9 147913906.769 9       316.901 9        56.288 9  28147080.577 9 147913906.769 9       316.901 9        56.288 9  28147080.743 9 110455190.772 9       236.647 9        56.148 9  28147080.743 9 110455190.772 9       236.647 9        56.148 9  28147080.743 9 113336630.531 9       242.821 9        56.148 9  28147080.743 9 113336630.531 9       242.821 9        56.148 9  28147080.743 9 111895910.651 9       239.734 9        59.159 9  28147080.743 9 111895910.651 9       239.734 9        59.159 9
E25  27068046.131 9 142243542.485 9      3128.241 9        56.725 9  27068046.131 9 142243542.485 9      3128.241 9        56.725 9  27068047.183 9 106220831.309 9      2336.024 9        56.585 9  27068047.183 9 106220831.309 9      2336.024 9        56.585 9  27068047.183 9 108991809.517 9      2396.964 9        56.585 9  27068047.183 9 108991809.517 9      2396.964 9        56.585 9  27068047.183 9 107606320.413 9      2366.494 9        59.595 9  27068047.183 9 107606320.413 9      2366.494 9        59.595 9
E31  24971400.864 9 131225597.240 9     -1545.624 9        57.421 9  24971400.864 9 131225597.240 9     -1545.624 9        57.421 9  24971401.861 9  97993144.708 9     -1154.200 9        57.281 9  24971401.861 9  97993144.708 9     -1154.200 9        57.281 9  24971401.861 9 100549487.613 9     -1184.309 9        57.281 9  24971401.861 9 100549487.613 9     -1184.309 9        57.281 9  24971401.861 9  99271316.160 9     -1169.254 9        60.292 9  24971401.861 9  99271316.160 9     -1169.254 9        60.292 9
E15  27834104.356 9 146269205.627 9     -1865.733 9        56.360 9  27834104.356 9 146269205.627 9     -1865.733 9        56.360 9  27834105.962 9 109227010.503 9     -1393.242 9        56.220 9  27834105.962 9 109227010.503 9     -1393.242 9        56.220 9  27834105.962 9 112076410.777 9     -1429.588 9        56.220 9  27834105.962 9 112076410.777 9     -1429.588 9        56.220 9  27834105.962 9 110651710.640 9     -1411.415 9        59.231 9  27834105.962 9 110651710.640 9     -1411.415 9        59.231 9
E03  26318738.900 9 138305906.406 9      2462.000 9        56.975 9  26318738.900 9 138305906.406 9      2462.000 9        56.975 9  26318739.786 9 103280388.130 9      1838.506 9        56.835 9  26318739.786 9 103280388.130 9      1838.506 9        56.835 9  26318739.786 9 105974659.125 9      1886.467 9        56.835 9  26318739.786 9 105974659.125 9      1886.467 9        56.835 9  26318739.786 9 104627523.627 9      1862.487 9        59.845 9  26318739.786 9 104627523.627 9      1862.487 9        59.845 9
E24  24080547.584 9 126544131.656 9      1236.891 9        57.797 9  24080547.584 9 126544131.656 9      1236.891 9        57.797 9  24080546.809 9  94497238.129 9       923.652 9        57.657 9  24080546.809 9  94497238.129 9       923.652 9        57.657 9  24080546.809 9  96962383.472 9       947.748 9        57.657 9  24080546.809 9  96962383.472 9       947.748 9        57.657 9  24080546.809 9  95729810.801 9       935.700 9        60.668 9  24080546.809 9  95729810.801 9       935.700 9        60.668 9
> 2023 01 08 10 00 33.0000000  0 19       0.000000000000
G08  25073676.389 9 131763058.751 9     -1496.874 9        54.230 9  25073677.382 8 102672517.380 8     -1166.395 8        49.730 8  25073676.389 9  98394491.924 9     -1117.795 9        56.330 9
G13  20025524.107 9 105234839.457 9       570.541 9        56.113 9  20025521.849 8  82001164.357 8       444.577 8        51.613 8  20025524.107 9  78584458.036 9       426.053 9        58.213 9
G24  24519205.675 9 128849295.482 9      3530.259 9        54.416 9  24519206.217 8 100402050.646 8      2750.851 8        49.916 8  24519205.675 9  96218629.743 9      2636.232 9        56.516 9
G07  24606761.700 9 129309405.498 9     -2972.898 9        54.355 9  24606759.532 8 100760566.837 8     -2316.544 8        49.855 8  24606761.700 9  96562218.392 9     -2220.021 9        56.455 9
G18  24773275.578 9 130184441.835 9     -1377.110 9        54.334 9  24773273.952 8 101442415.552 8     -1073.073 8        49.834 8  24773275.578 9  97215654.617 9     -1028.361 9        56.434 9
G20  23528550.837 9 123643369.171 9     -3651.529 9        54.722 9  23528549.211 8  96345475.814 8     -2845.347 8        50.222 8  23528550.837 9  92331087.368 9     -2726.791 9        56.822 9
G14  20962192.194 9 110157063.480 9       115.815 9        55.782 9  20962190.659 8  85836666.554 8        90.245 8        51.282 8  20962192.194 9  82260144.806 9        86.485 9        57.882 9
G23  24858933.418 9 130634576.821 9      3223.260 9        54.294 9  24858931.792 8 101793170.086 8      2511.631 8        49.794 8  24858933.418 9  97551794.379 9      2406.980 9        56.394 9
G05  21751902.353 9 114307018.376 9     -2439.099 9        55.467 9  21751900.186 8  89070395.053 8     -1900.596 8        50.967 8  21751902.353 9  85359137.099 9     -1821.405 9        57.567 9
G30  21863542.386 9 114893690.709 9     -2266.379 9        55.473 9  21863543.109 8  89527554.160 8     -1766.009 8        50.973 8  21863542.386 9  85797236.568 9     -1692.426 9        57.573 9
G15  21111603.893 9 110942227.259 9      2288.035 9        55.713 9  21111601.816 8  86448480.267 8      1782.884 8        51.213 8  21111603.893 9  82846468.407 9      1708.598 9        57.813 9
E05  23312821.972 9 122509706.337 9       354.721 9        57.977 9  23312821.972 9 122509706.337 9       354.721 9        57.977 9  23312822.914 9  91484524.660 9       264.889 9        57.837 9  23312822.914 9  91484524.660 9       264.889 9        57.837 9  23312822.914 9  93871077.477 9       271.799 9        57.837 9  23312822.914 9  93871077.477 9       271.799 9        57.837 9  23312822.914 9  92677801.068 9       268.344 9        60.847 9  23312822.914 9  92677801.068 9       268.344 9        60.847 9
E09  25221411.582 9 132539412.433 9     -2099.127 9        57.363 9  25221411.582 9 132539412.433 9     -2099.127 9        57.363 9  25221412.081 9  98974238.513 9     -1567.530 9        57.224 9  25221412.081 9  98974238.513 9     -1567.530 9        57.224 9  25221412.081 9 101556175.170 9     -1608.422 9        57.224 9  25221412.081 9 101556175.170 9     -1608.422 9        57.224 9  25221412.081 9 100265206.841 9     -1587.976 9        60.234 9  25221412.081 9 100265206.841 9     -1587.976 9        60.234 9
E13  28147020.320 9 147913590.115 9       316.407 9        56.288 9  28147020.320 9 147913590.115 9       316.407 9        56.288 9  28147020.486 9 110454954.309 9       236.278 9        56.148 9  28147020.486 9 110454954.309 9       236.278 9        56.148 9  28147020.486 9 113336387.900 9       242.442 9        56.148 9  28147020.486 9 113336387.900 9       242.442 9        56.148 9  28147020.486 9 111895671.105 9       239.360 9        59.159 9  28147020.486 9 111895671.105 9       239.360 9        59.159 9
E25  27067450.858 9 142240414.303 9      3128.122 9        56.725 9  27067450.858 9 142240414.303 9      3128.122 9        56.725 9  27067451.910 9 106218495.329 9      2335.935 9        56.585 9  27067451.910 9 106218495.329 9      2335.935 9        56.585 9  27067451.910 9 108989412.598 9      2396.872 9        56.585 9  27067451.910 9 108989412.598 9      2396.872 9        56.585 9  27067451.910 9 107603953.964 9      2366.404 9        59.596 9  27067451.910 9 107603953.964 9      2366.404 9        59.596 9
E31  24971695.022 9 131227143.050 9     -1545.997 9        57.421 9  24971695.022 9 131227143.050 9     -1545.997 9        57.421 9  24971696.019 9  97994299.046 9     -1154.479 9        57.281 9  24971696.019 9  97994299.046 9     -1154.479 9        57.281 9  24971696.019 9 100550672.065 9     -1184.595 9        57.281 9  24971696.019 9 100550672.065 9     -1184.595 9        57.281 9  24971696.019 9  99272485.555 9     -1169.537 9        60.292 9  24971696.019 9  99272485.555 9     -1169.537 9        60.292 9
E15  27834459.427 9 146271071.535 9     -1866.080 9        56.360 9  27834459.427 9 146271071.535 9     -1866.080 9        56.360 9  27834461.032 9 109228403.876 9     -1393.501 9        56.220 9  27834461.032 9 109228403.876 9     -1393.501 9        56.220 9  27834461.032 9 112077840.499 9     -1429.853 9        56.220 9  27834461.032 9 112077840.499 9     -1429.853 9        56.220 9  27834461.032 9 110653122.188 9     -1411.677 9        59.230 9  27834461.032 9 110653122.188 9     -1411.677 9        59.230 9
E03  26318270.406 9 138303444.454 9      2461.900 9        56.975 9  26318270.406 9 138303444.454 9      2461.900 9        56.975 9  26318271.292 9 103278549.659 9      1838.432 9        56.835 9  26318271.292 9 103278549.659 9      1838.432 9        56.835 9  26318271.292 9 105972772.694 9      1886.391 9        56.835 9  26318271.292 9 105972772.694 9      1886.391 9        56.835 9  26318271.292 9 104625661.177 9      1862.412 9        59.845 9  26318271.292 9 104625661.177 9      1862.412 9        59.845 9
E24  24080312.253 9 126542894.982 9      1236.457 9        57.797 9  24080312.253 9 126542894.982 9      1236.457 9        57.797 9  24080311.477 9  94496314.639 9       923.328 9        57.657 9  24080311.477 9  94496314.639 9       923.328 9        57.657 9  24080311.477 9  96961435.891 9       947.415 9        57.657 9  24080311.477 9  96961435.891 9       947.415 9        57.657 9  24080311.477 9  95728875.265 9       935.372 9        60.668 9  24080311.477 9  95728875.265 9       935.372 9        60.668 9
> 2023 01 08 10 00 34.0000000  0 19       0.000000000000
G08  25073961.289 9 131764555.912 9     -1497.450 9        54.230 9  25073962.283 8 102673684.000 8     -1166.845 8        49.730 8  25073961.289 9  98395609.934 9     -1118.226 9        56.330 9
G13  20025415.581 9 105234269.153 9       570.066 9        56.113 9  20025413.324 8  82000719.965 8       444.208 8        51.613 8  20025415.581 9  78584032.160 9       425.699 9        58.213 9
G24  24518533.898 9 128845765.271 9      3530.154 9        54.416 9  24518534.440 8 100399299.833 8      2750.770 8        49.916 8  24518533.898 9  96215993.547 9      2636.154 9        56.516 9
G07  24607327.428 9 129312378.419 9     -2972.948 9        54.355 9  24607325.260 8 100762883.399 8     -2316.583 8        49.855 8  24607327.428 9  96564438.430 9     -2220.058 9        56.455 9
G18  24773537.684 9 130185819.209 9     -1377.636 9        54.334 9  24773536.058 8 101443488.831 8     -1073.482 8        49.834 8  24773537.684 9  97216683.176 9     -1028.754 9        56.434 9
G20  23529245.714 9 123647020.773 9     -3651.675 9        54.721 9  23529244.088 8  96348321.218 8     -2845.461 8        50.221 8  23529245.714 9  92333814.214 9     -2726.900 9        56.821 9
G14  20962170.218 9 110156947.995 9       115.156 9        55.782 9  20962168.683 8  85836576.566 8        89.732 8        51.282 8  20962170.218 9  82260058.567 9        85.993 9        57.882 9
G23  24858320.081 9 130631353.714 9      3222.950 9        54.294 9  24858318.455 8 101790658.575 8      2511.390 8        49.794 8  24858320.081 9  97549387.514 9      2406.748 9        56.394 9
G05  21752366.548 9 114309457.734 9     -2439.616 9        55.467 9  21752364.380 8  89072295.852 8     -1900.999 8        50.967 8  21752366.548 9  85360958.698 9     -1821.791 9        57.567 9
G30  21863973.689 9 114895957.220 9     -2266.647 9        55.473 9  21863974.412 8  89529320.273 8     -1766.218 8        50.973 8  21863973.689 9  85798929.093 9     -1692.626 9        57.573 9
G15  21111168.536 9 110939939.438 9      2287.603 9        55.713 9  21111166.458 8  86446697.550 8      1782.548 8        51.213 8  21111168.536 9  82844759.970 9      1708.275 9        57.813 9
E05  23312754.501 9 122509351.775 9       354.403 9        57.977 9  23312754.501 9 122509351.775 9       354.403 9        57.977 9  23312755.443 9  91484259.890 9       264.652 9        57.837 9  23312755.443 9  91484259.890 9       264.652 9        57.837 9  23312755.443 9  93870805.800 9       271.556 9        57.837 9  23312755.443 9  93870805.800 9       271.556 9        57.837 9  23312755.443 9  92677532.845 9       268.104 9        60.847 9  23312755.443 9  92677532.845 9       268.104 9        60.847 9
E09  25221811.055 9 132541511.676 9     -2099.362 9        57.363 9  25221811.055 9 132541511.676 9     -2099.362 9        57.363 9  25221811.553 9  98975806.129 9     -1567.705 9        57.223 9  25221811.553 9  98975806.129 9     -1567.705 9        57.223 9  25221811.553 9 101557783.681 9     -1608.602 9        57.223 9  25221811.553 9 101557783.681 9     -1608.602 9        57.223 9  25221811.553 9 100266794.905 9     -1588.154 9        60.234 9  25221811.553 9 100266794.905 9     -1588.154 9        60.234 9
E13  28146960.157 9 147913273.956 9       315.912 9        56.288 9  28146960.157 9 147913273.956 9       315.912 9        56.288 9  28146960.323 9 110454718.216 9       235.908 9        56.148 9  28146960.323 9 110454718.216 9       235.908 9        56.148 9  28146960.323 9 113336145.648 9       242.062 9        56.148 9  28146960.323 9 113336145.648 9       242.062 9        56.148 9  28146960.323 9 111895431.932 9       238.985 9        59.159 9  28146960.323 9 111895431.932 9       238.985 9        59.159 9
E25  27066855.608 9 142237286.240 9      3128.002 9        56.725 9  27066855.608 9 142237286.240 9      3128.002 9        56.725 9  27066856.660 9 106216159.438 9      2335.846 9        56.586 9  27066856.660 9 106216159.438 9      2335.846 9        56.586 9  27066856.660 9 108987015.771 9      2396.781 9        56.586 9  27066856.660 9 108987015.771 9      2396.781 9        56.586 9  27066856.660 9 107601587.604 9      2366.313 9        59.596 9  27066856.660 9 107601587.604 9      2366.313 9        59.596 9
E31  24971989.251 9 131228689.233 9     -1546.371 9        57.421 9  24971989.251 9 131228689.233 9     -1546.371 9        57.421 9  24971990.247 9  97995453.663 9     -1154.758 9        57.281 9  24971990.247 9  97995453.663 9     -1154.758 9        57.281 9  24971990.247 9 100551856.802 9     -1184.882 9        57.281 9  24971990.247 9 100551856.802 9     -1184.882 9        57.281 9  24971990.247 9  99273655.233 9     -1169.820 9        60.292 9  24971990.247 9  99273655.233 9     -1169.820 9        60.292 9
E15  27834814.563 9 146272937.790 9     -1866.427 9        56.360 9  27834814.563 9 146272937.790 9     -1866.427 9        56.360 9  27834816.169 9 109229797.508 9     -1393.760 9        56.220 9  27834816.169 9 109229797.508 9     -1393.760 9        56.220 9  27834816.169 9 112079270.487 9     -1430.119 9        56.220 9  27834816.169 9 112079270.487 9     -1430.119 9        56.220 9  27834816.169 9 110654533.997 9     -1411.940 9        59.230 9  27834816.169 9 110654533.997 9     -1411.940 9        59.230 9
E03  26317801.931 9 138300982.601 9      2461.801 9        56.975 9  26317801.931 9 138300982.601 9      2461.801 9        56.975 9  26317802.817 9 103276711.263 9      1838.358 9        56.835 9  26317802.817 9 103276711.263 9      1838.358 9        56.835 9  26317802.817 9 105970886.339 9      1886.315 9        56.835 9  26317802.817 9 105970886.339 9      1886.315 9        56.835 9  26317802.817 9 104623798.801 9      1862.337 9        59.845 9  26317802.817 9 104623798.801 9      1862.337 9        59.845 9
E24  24080077.004 9 126541658.742 9      1236.023 9        57.797 9  24080077.004 9 126541658.742 9      1236.023 9        57.797 9  24080076.229 9  94495391.473 9       923.004 9        57.657 9  24080076.229 9  94495391.473 9       923.004 9        57.657 9  24080076.229 9  96960488.642 9       947.083 9        57.657 9  24080076.229 9  96960488.642 9       947.083 9        57.657 9  24080076.229 9  95727940.058 9       935.044 9        60.668 9  24080076.229 9  95727940.058 9       935.044 9        60.668 9
> 2023 01 08 10 00 35.0000000  0 19       0.000000000000
G08  25074246.299 9 131766053.650 9     -1498.027 9        54.230 9  25074247.293 8 102674851.068 8     -1167.294 8        49.730 8  25074246.299 9  98396728.375 9     -1118.657 9        56.330 9
G13  20025307.147 9 105233699.324 9       569.592 9        56.113 9  20025304.889 8  82000275.942 8       443.838 8        51.613 8  20025307.147 9  78583606.638 9       425.345 9        58.213 9
G24  24517862.141 9 128842235.166 9      3530.049 9        54.416 9  24517862.683 8 100396549.102 8      2750.688 8        49.916 8  24517862.141 9  96213357.429 9      2636.076 9        56.516 9
G07  24607893.165 9 129315351.388 9     -2972.997 9        54.354 9  24607890.997 8 100765199.998 8     -2316.621 8        49.854 8  24607893.165 9  96566658.504 9     -2220.095 9        56.454 9
G18  24773799.889 9 130187197.109 9     -1378.162 9        54.334 9  24773798.264 8 101444562.519 8     -1073.892 8        49.834 8  24773799.889 9  97217712.127 9     -1029.147 9        56.434 9
G20  23529940.618 9 123650672.522 9     -3651.821 9        54.721 9  23529938.992 8  96351166.737 8     -2845.574 8        50.221 8  23529940.618 9  92336541.169 9     -2727.009 9        56.821 9
G14  20962148.367 9 110156833.168 9       114.497 9        55.782 9  20962146.832 8  85836487.091 8        89.218 8        51.282 8  20962148.367 9  82259972.821 9        85.501 9        57.882 9
G23  24857706.803 9 130628130.917 9      3222.640 9        54.294 9  24857705.177 8 101788147.304 8      2511.148 8        49.794 8  24857706.803 9  97546980.879 9      2406.517 9        56.394 9
G05  21752830.841 9 114311897.609 9     -2440.133 9        55.467 9  21752828.673 8  89074197.054 8     -1901.402 8        50.967 8  21752830.841 9  85362780.682 9     -1822.177 9        57.567 9
G30  21864405.043 9 114898223.999 9     -2266.915 9        55.473 9  21864405.765 8  89531086.594 8     -1766.427 8        50.973 8  21864405.043 9  85800621.818 9     -1692.826 9        57.573 9
G15  21110733.260 9 110937652.049 9      2287.171 9        55.714 9  21110731.183 8  86444915.169 8      1782.211 8        51.214 8  21110733.260 9  82843051.855 9      1707.953 9        57.814 9
E05  23312687.091 9 122508997.531 9       354.086 9        57.977 9  23312687.091 9 122508997.531 9       354.086 9        57.977 9  23312688.032 9  91483995.356 9       264.415 9        57.837 9  23312688.032 9  91483995.356 9       264.415 9        57.837 9  23312688.032 9  93870534.366 9       271.312 9        57.837 9  23312688.032 9  93870534.366 9       271.312 9        57.837 9  23312688.032 9  92677264.861 9       267.864 9        60.847 9  23312688.032 9  92677264.861 9       267.864 9        60.847 9
E09  25222210.572 9 132543611.154 9     -2099.597 9        57.363 9  25222210.572 9 132543611.154 9     -2099.597 9        57.363 9  25222211.071 9  98977373.921 9     -1567.881 9        57.223 9  25222211.071 9  98977373.921 9     -1567.881 9        57.223 9  25222211.071 9 101559392.371 9     -1608.782 9        57.223 9  25222211.071 9 101559392.371 9     -1608.782 9        57.223 9  25222211.071 9 100268383.146 9     -1588.331 9        60.234 9  25222211.071 9 100268383.146 9     -1588.331 9        60.234 9
E13  28146900.088 9 147912958.291 9       315.417 9        56.288 9  28146900.088 9 147912958.291 9       315.417 9        56.288 9  28146900.254 9 110454482.492 9       235.539 9        56.148 9  28146900.254 9 110454482.492 9       235.539 9        56.148 9  28146900.254 9 113335903.775 9       241.683 9        56.148 9  28146900.254 9 113335903.775 9       241.683 9        56.148 9  28146900.254 9 111895193.134 9       238.611 9        59.159 9  28146900.254 9 111895193.134 9       238.611 9        59.159 9
E25  27066260.380 9 142234158.297 9      3127.883 9        56.726 9  27066260.380 9 142234158.297 9      3127.883 9        56.726 9  27066261.432 9 106213823.636 9      2335.757 9        56.586 9  27066261.432 9 106213823.636 9      2335.757 9        56.586 9  27066261.432 9 108984619.035 9      2396.689 9        56.586 9  27066261.432 9 108984619.035 9      2396.689 9        56.586 9  27066261.432 9 107599221.336 9      2366.223 9        59.596 9  27066261.432 9 107599221.336 9      2366.223 9        59.596 9
E31  24972283.551 9 131230235.790 9     -1546.745 9        57.421 9  24972283.551 9 131230235.790 9     -1546.745 9        57.421 9  24972284.547 9  97996608.560 9     -1155.037 9        57.281 9  24972284.547 9  97996608.560 9     -1155.037 9        57.281 9  24972284.547 9 100553041.826 9     -1185.168 9        57.281 9  24972284.547 9 100553041.826 9     -1185.168 9        57.281 9  24972284.547 9  99274825.193 9     -1170.102 9        60.291 9  24972284.547 9  99274825.193 9     -1170.102 9        60.291 9
E15  27835169.766 9 146274804.392 9     -1866.773 9        56.360 9  27835169.766 9 146274804.392 9     -1866.773 9        56.360 9  27835171.371 9 109231191.399 9     -1394.019 9        56.220 9  27835171.371 9 109231191.399 9     -1394.019 9        56.220 9  27835171.371 9 112080700.740 9     -1430.385 9        56.220 9  27835171.371 9 112080700.740 9     -1430.385 9        56.220 9  27835171.371 9 110655946.069 9     -1412.202 9        59.230 9  27835171.371 9 110655946.069 9     -1412.202 9        59.230 9
E03  26317333.475 9 138298520.847 9      2461.702 9        56.975 9  26317333.475 9 138298520.847 9      2461.702 9        56.975 9  26317334.360 9 103274872.940 9      1838.284 9        56.835 9  26317334.360 9 103274872.940 9      1838.284 9        56.835 9  26317334.360 9 105969000.060 9      1886.239 9        56.835 9  26317334.360 9 105969000.060 9      1886.239 9        56.835 9  26317334.360 9 104621936.500 9      1862.262 9        59.846 9  26317334.360 9 104621936.500 9      1862.262 9        59.846 9
E24  24079841.838 9 126540422.936 9      1235.589 9        57.797 9  24079841.838 9 126540422.936 9      1235.589 9        57.797 9  24079841.063 9  94494468.631 9       922.680 9        57.658 9  24079841.063 9  94494468.631 9       922.680 9        57.658 9  24079841.063 9  96959541.726 9       946.750 9        57.658 9  24079841.063 9  96959541.726 9       946.750 9        57.658 9  24079841.063 9  95727005.178 9       934.715 9        60.668 9  24079841.063 9  95727005.178 9       934.715 9        60.668 9
> 2023 01 08 10 00 36.0000000  0 19       0.000000000000
G08  25074531.419 9 131767551.965 9     -1498.604 9        54.230 9  25074532.413 8 102676018.586 8     -1167.743 8        49.730 8  25074531.419 9  98397847.247 9     -1119.087 9        56.330 9
G13  20025198.802 9 105233129.969 9       569.117 9        56.113 9  20025196.544 8  81999832.289 8       443.468 8        51.613 8  20025198.802 9  78583181.471 9       424.990 9        58.213 9
G24  24517190.405 9 128838705.166 9      3529.945 9        54.417 9  24517190.946 8 100393798.452 8      2750.606 8        49.917 8  24517190.405 9  96210721.390 9      2635.998 9        56.517 9
G07  24608458.912 9 129318324.407 9     -2973.046 9        54.354 9  24608456.744 8 100767516.636 8     -2316.660 8        49.854 8  24608458.912 9  96568878.616 9     -2220.132 9        56.454 9
G18  24774062.195 9 130188575.535 9     -1378.687 9        54.334 9  24774060.569 8 101445636.617 8     -1074.302 8        49.834 8  24774062.195 9  97218741.471 9     -1029.539 9        56.434 9
G20  23530635.550 9 123654324.416 9     -3651.966 9        54.721 9  23530633.925 8  96354012.368 8     -2845.688 8        50.221 8  23530635.550 9  92339268.233 9     -2727.118 9        56.821 9
G14  20962126.642 9 110156719.001 9       113.838 9        55.782 9  20962125.107 8  85836398.129 8        88.705 8        51.282 8  20962126.642 9  82259887.566 9        85.009 9        57.882 9
G23  24857093.584 9 130624908.430 9      3222.330 9        54.295 9  24857091.958 8 101785636.275 8      2510.907 8        49.795 8  24857093.584 9  97544574.477 9      2406.286 9        56.395 9
G05  21753295.232 9 114314338.002 9     -2440.650 9        55.466 9  21753293.064 8  89076098.658 8     -1901.805 8        50.966 8  21753295.232 9  85364603.053 9     -1822.563 9        57.566 9
G30  21864836.448 9 114900491.046 9     -2267.183 9        55.473 9  21864837.170 8  89532853.125 8     -1766.636 8        50.973 8  21864836.448 9  85802314.743 9     -1693.026 9        57.573 9
G15  21110298.067 9 110935365.093 9      2286.739 9        55.714 9  21110295.989 8  86443133.125 8      1781.875 8        51.214 8  21110298.067 9  82841344.063 9      1707.630 9        57.814 9
E05  23312619.741 9 122508643.604 9       353.768 9        57.977 9  23312619.741 9 122508643.604 9       353.768 9        57.977 9  23312620.682 9  91483731.060 9       264.178 9        57.837 9  23312620.682 9  91483731.060 9       264.178 9        57.837 9  23312620.682 9  93870263.175 9       271.069 9        57.837 9  23312620.682 9  93870263.175 9       271.069 9        57.837 9  23312620.682 9  92676997.118 9       267.623 9        60.847 9  23312620.682 9  92676997.118 9       267.623 9        60.847 9
E09  25222610.135 9 132545710.867 9     -2099.832 9        57.363 9  25222610.135 9 132545710.867 9     -2099.832 9        57.363 9  25222610.633 9  98978941.889 9     -1568.056 9        57.223 9  25222610.633 9  98978941.889 9     -1568.056 9        57.223 9  25222610.633 9 101561001.242 9     -1608.962 9        57.223 9  25222610.633 9 101561001.242 9     -1608.962 9        57.223 9  25222610.633 9 100269971.566 9     -1588.509 9        60.233 9  25222610.633 9 100269971.566 9     -1588.509 9        60.233 9
E13  28146840.113 9 147912643.121 9       314.923 9        56.288 9  28146840.113 9 147912643.121 9       314.923 9        56.288 9  28146840.279 9 110454247.138 9       235.170 9        56.148 9  28146840.279 9 110454247.138 9       235.170 9        56.148 9  28146840.279 9 113335662.281 9       241.304 9        56.148 9  28146840.279 9 113335662.281 9       241.304 9        56.148 9  28146840.279 9 111894954.709 9       238.237 9        59.159 9  28146840.279 9 111894954.709 9       238.237 9        59.159 9
E25  27065665.175 9 142231030.473 9      3127.763 9        56.726 9  27065665.175 9 142231030.473 9      3127.763 9        56.726 9  27065666.227 9 106211487.923 9      2335.667 9        56.586 9  27065666.227 9 106211487.923 9      2335.667 9        56.586 9  27065666.227 9 108982222.391 9      2396.598 9        56.586 9  27065666.227 9 108982222.391 9      2396.598 9        56.586 9  27065666.227 9 107596855.157 9      2366.133 9        59.596 9  27065666.227 9 107596855.157 9      2366.133 9        59.596 9
E31  24972577.922 9 131231782.721 9     -1547.118 9        57.421 9  24972577.922 9 131231782.721 9     -1547.118 9        57.421 9  24972578.918 9  97997763.735 9     -1155.316 9        57.281 9  24972578.918 9  97997763.735 9     -1155.316 9        57.281 9  24972578.918 9 100554227.137 9     -1185.454 9        57.281 9  24972578.918 9 100554227.137 9     -1185.454 9        57.281 9  24972578.918 9  99275995.436 9     -1170.385 9        60.291 9  24972578.918 9  99275995.436 9     -1170.385 9        60.291 9
E15  27835525.034 9 146276671.340 9     -1867.120 9        56.360 9  27835525.034 9 146276671.340 9     -1867.120 9        56.360 9  27835526.640 9 109232585.548 9     -1394.278 9        56.220 9  27835526.640 9 109232585.548 9     -1394.278 9        56.220 9  27835526.640 9 112082131.258 9     -1430.650 9        56.220 9  27835526.640 9 112082131.258 9     -1430.650 9        56.220 9  27835526.640 9 110657358.403 9     -1412.464 9        59.230 9  27835526.640 9 110657358.403 9     -1412.464 9        59.230 9
E03  26316865.037 9 138296059.192 9      2461.603 9        56.975 9  26316865.037 9 138296059.192 9      2461.603 9        56.975 9  26316865.923 9 103273034.692 9      1838.210 9        56.835 9  26316865.923 9 103273034.692 9      1838.210 9        56.835 9  26316865.923 9 105967113.857 9      1886.164 9        56.835 9  26316865.923 9 105967113.857 9      1886.164 9        56.835 9  26316865.923 9 104620074.274 9      1862.187 9        59.846 9  26316865.923 9 104620074.274 9      1862.187 9        59.846 9
E24  24079606.754 9 126539187.564 9      1235.156 9        57.797 9  24079606.754 9 126539187.564 9      1235.156 9        57.797 9  24079605.979 9  94493546.113 9       922.356 9        57.658 9  24079605.979 9  94493546.113 9       922.356 9        57.658 9  24079605.979 9  96958595.142 9       946.418 9        57.658 9  24079605.979 9  96958595.142 9       946.418 9        57.658 9  24079605.979 9  95726070.627 9       934.387 9        60.668 9  24079605.979 9  95726070.627 9       934.387 9        60.668 9
> 2023 01 08 10 00 37.0000000  0 19       0.000000000000
G08  25074816.649 9 131769050.857 9     -1499.181 9        54.230 9  25074817.642 8 102677186.554 8     -1168.193 8        49.730 8  25074816.649 9  98398966.549 9     -1119.518 9        56.330 9
G13  20025090.548 9 105232561.089 9       568.643 9        56.113 9  20025088.290 8  81999389.006 8       443.098 8        51.613 8  20025090.548 9  78582756.657 9       424.636 9        58.213 9
G24  24516518.688 9 128835175.270 9      3529.840 9        54.417 9  24516519.230 8 100391047.884 8      2750.524 8        49.917 8  24516518.688 9  96208085.429 9      2635.919 9        56.517 9
G07  24609024.668 9 129321297.476 9     -2973.096 9        54.354 9  24609022.500 8 100769833.313 8     -2316.698 8        49.854 8  24609024.668 9  96571098.764 9     -2220.169 9        56.454 9
G18  24774324.601 9 130189954.487 9     -1379.213 9        54.334 9  24774322.975 8 101446711.125 8     -1074.712 8        49.834 8  24774324.601 9  97219771.208 9     -1029.932 9        56.434 9
G20  23531330.511 9 123657976.456 9     -3652.112 9        54.721 9  23531328.885 8  96356858.114 8     -2845.801 8        50.221 8  23531330.511 9  92341995.405 9     -2727.226 9        56.821 9
G14  20962105.042 9 110156605.492 9       113.179 9        55.782 9  20962103.507 8  85836309.681 8        88.192 8        51.282 8  20962105.042 9  82259802.803 9        84.517 9        57.882 9
G23  24856480.424 9 130621686.252 9      3222.020 9        54.295 9  24856478.798 8 101783125.488 8      2510.665 8        49.795 8  24856480.424 9  97542168.305 9      2406.054 9        56.395 9
G05  21753759.721 9 114316778.911 9     -2441.166 9        55.466 9  21753757.554 8  89078000.665 8     -1902.208 8        50.966 8  21753759.721 9  85366425.810 9     -1822.949 9        57.566 9
G30  21865267.903 9 114902758.362 9     -2267.451 9        55.473 9  21865268.626 8  89534619.864 8     -1766.845 8        50.973 8  21865267.903 9  85804007.867 9     -1693.226 9        57.573 9
G15  21109862.956 9 110933078.568 9      2286.307 9        55.714 9  21109860.878 8  86441351.417 8      1781.538 8        51.214 8  21109862.956 9  82839636.593 9      1707.307 9        57.814 9
E05  23312552.451 9 122508289.994 9       353.451 9        57.977 9  23312552.451 9 122508289.994 9       353.451 9        57.977 9  23312553.393 9  91483467.001 9       263.941 9        57.837 9  23312553.393 9  91483467.001 9       263.941 9        57.837 9  23312553.393 9  93869992.227 9       270.826 9        57.837 9  23312553.393 9  93869992.227 9       270.826 9        57.837 9  23312553.393 9  92676729.614 9       267.383 9        60.847 9  23312553.393 9  92676729.614 9       267.383 9        60.847 9
E09  25223009.741 9 132547810.815 9     -2100.067 9        57.363 9  25223009.741 9 132547810.815 9     -2100.067 9        57.363 9  25223010.240 9  98980510.032 9     -1568.232 9        57.223 9  25223010.240 9  98980510.032 9     -1568.232 9        57.223 9  25223010.240 9 101562610.294 9     -1609.142 9        57.223 9  25223010.240 9 101562610.294 9     -1609.142 9        57.223 9  25223010.240 9 100271560.163 9     -1588.687 9        60.233 9  25223010.240 9 100271560.163 9     -1588.687 9        60.233 9
E13  28146780.232 9 147912328.445 9       314.428 9        56.288 9  28146780.232 9 147912328.445 9       314.428 9        56.288 9  28146780.398 9 110454012.153 9       234.800 9        56.148 9  28146780.398 9 110454012.153 9       234.800 9        56.148 9  28146780.398 9 113335421.166 9       240.925 9        56.148 9  28146780.398 9 113335421.166 9       240.925 9        56.148 9  28146780.398 9 111894716.660 9       237.863 9        59.159 9  28146780.398 9 111894716.660 9       237.863 9        59.159 9
E25  27065069.992 9 142227902.768 9      3127.644 9        56.726 9  27065069.992 9 142227902.768 9      3127.644 9        56.726 9  27065071.044 9 106209152.300 9      2335.578 9        56.586 9  27065071.044 9 106209152.300 9      2335.578 9        56.586 9  27065071.044 9 108979825.838 9      2396.506 9        56.586 9  27065071.044 9 108979825.838 9      2396.506 9        56.586 9  27065071.044 9 107594489.069 9      2366.042 9        59.596 9  27065071.044 9 107594489.069 9      2366.042 9        59.596 9
E31  24972872.364 9 131233330.025 9     -1547.492 9        57.421 9  24972872.364 9 131233330.025 9     -1547.492 9        57.421 9  24972873.361 9  97998919.189 9     -1155.594 9        57.281 9  24972873.361 9  97998919.189 9     -1155.594 9        57.281 9  24972873.361 9 100555412.733 9     -1185.740 9        57.281 9  24972873.361 9 100555412.733 9     -1185.740 9        57.281 9  24972873.361 9  99277165.961 9     -1170.667 9        60.291 9  24972873.361 9  99277165.961 9     -1170.667 9        60.291 9
E15  27835880.368 9 146278538.634 9     -1867.466 9        56.360 9  27835880.368 9 146278538.634 9     -1867.466 9        56.360 9  27835881.974 9 109233979.957 9     -1394.536 9        56.220 9  27835881.974 9 109233979.957 9     -1394.536 9        56.220 9  27835881.974 9 112083562.043 9     -1430.916 9        56.220 9  27835881.974 9 112083562.043 9     -1430.916 9        56.220 9  27835881.974 9 110658771.000 9     -1412.726 9        59.230 9  27835881.974 9 110658771.000 9     -1412.726 9        59.230 9
E03  26316396.619 9 138293597.637 9      2461.504 9        56.975 9  26316396.619 9 138293597.637 9      2461.504 9        56.975 9  26316397.505 9 103271196.517 9      1838.136 9        56.836 9  26316397.505 9 103271196.517 9      1838.136 9        56.836 9  26316397.505 9 105965227.730 9      1886.088 9        56.836 9  26316397.505 9 105965227.730 9      1886.088 9        56.836 9  26316397.505 9 104618212.124 9      1862.112 9        59.846 9  26316397.505 9 104618212.124 9      1862.112 9        59.846 9
E24  24079371.753 9 126537952.625 9      1234.722 9        57.798 9  24079371.753 9 126537952.625 9      1234.722 9        57.798 9  24079370.978 9  94492623.918 9       922.032 9        57.658 9  24079370.978 9  94492623.918 9       922.032 9        57.658 9  24079370.978 9  96957648.890 9       946.086 9        57.658 9  24079370.978 9  96957648.890 9       946.086 9        57.658 9  24079370.978 9  95725136.404 9       934.059 9        60.668 9  24079370.978 9  95725136.404 9       934.059 9        60.668 9
> 2023 01 08 10 00 38.0000000  0 19       0.000000000000
G08  25075101.988 9 131770550.325 9     -1499.757 9        54.230 9  25075102.981 8 102678354.971 8     -1168.642 8        49.730 8  25075101.988 9  98400086.282 9     -1119.948 9        56.330 9
G13  20024982.384 9 105231992.683 9       568.168 9        56.113 9  20024980.126 8  81998946.092 8       442.729 8        51.613 8  20024982.384 9  78582332.199 9       424.281 9        58.213 9
G24  24515846.991 9 128831645.479 9      3529.735 9        54.417 9  24515847.533 8 100388297.398 8      2750.443 8        49.917 8  24515846.991 9  96205449.546 9      2635.841 9        56.517 9
G07  24609590.433 9 129324270.593 9     -2973.145 9        54.354 9  24609588.266 8 100772150.028 8     -2316.736 8        49.854 8  24609590.433 9  96573318.949 9     -2220.206 9        56.454 9
G18  24774587.106 9 130191333.964 9     -1379.739 9        54.333 9  24774585.481 8 101447786.042 8     -1075.121 8        49.833 8  24774587.106 9  97220801.337 9     -1030.324 9        56.433 9
G20  23532025.498 9 123661628.641 9     -3652.257 9        54.720 9  23532023.873 8  96359703.972 8     -2845.915 8        50.220 8  23532025.498 9  92344722.686 9     -2727.335 9        56.820 9
G14  20962083.568 9 110156492.642 9       112.520 9        55.782 9  20962082.032 8  85836221.746 8        87.678 8        51.282 8  20962083.568 9  82259718.532 9        84.025 9        57.882 9
G23  24855867.323 9 130618464.385 9      3221.710 9        54.295 9  24855865.697 8 101780614.942 8      2510.424 8        49.795 8  24855867.323 9  97539762.365 9      2405.823 9        56.395 9
G05  21754224.309 9 114319220.337 9     -2441.683 9        55.466 9  21754222.142 8  89079903.075 8     -1902.610 8        50.966 8  21754224.309 9  85368248.953 9     -1823.335 9        57.566 9
G30  21865699.410 9 114905025.945 9     -2267.718 9        55.472 9  21865700.133 8  89536386.812 8     -1767.053 8        50.972 8  21865699.410 9  85805701.192 9     -1693.426 9        57.572 9
G15  21109427.927 9 110930792.475 9      2285.875 9        55.714 9  21109425.849 8  86439570.046 8      1781.201 8        51.214 8  21109427.927 9  82837929.446 9      1706.985 9        57.814 9
E05  23312485.222 9 122507936.702 9       353.133 9        57.977 9  23312485.222 9 122507936.702 9       353.133 9        57.977 9  23312486.163 9  91483203.179 9       263.703 9        57.837 9  23312486.163 9  91483203.179 9       263.703 9        57.837 9  23312486.163 9  93869721.523 9       270.583 9        57.837 9  23312486.163 9  93869721.523 9       270.583 9        57.837 9  23312486.163 9  92676462.351 9       267.143 9        60.847 9  23312486.163 9  92676462.351 9       267.143 9        60.847 9
E09  25223409.393 9 132549910.998 9     -2100.302 9        57.363 9  25223409.393 9 132549910.998 9     -2100.302 9        57.363 9  25223409.891 9  98982078.350 9     -1568.407 9        57.223 9  25223409.891 9  98982078.350 9     -1568.407 9        57.223 9  25223409.891 9 101564219.525 9     -1609.322 9        57.223 9  25223409.891 9 101564219.525 9     -1609.322 9        57.223 9  25223409.891 9 100273148.937 9     -1588.865 9        60.233 9  25223409.891 9 100273148.937 9     -1588.865 9        60.233 9
E13  28146720.445 9 147912014.265 9       313.933 9        56.288 9  28146720.445 9 147912014.265 9       313.933 9        56.288 9  28146720.612 9 110453777.538 9       234.431 9        56.148 9  28146720.612 9 110453777.538 9       234.431 9        56.148 9  28146720.612 9 113335180.430 9       240.546 9        56.148 9  28146720.612 9 113335180.430 9       240.546 9        56.148 9  28146720.612 9 111894478.984 9       237.488 9        59.159 9  28146720.612 9 111894478.984 9       237.488 9        59.159 9
E25  27064474.833 9 142224775.184 9      3127.524 9        56.726 9  27064474.833 9 142224775.184 9      3127.524 9        56.726 9  27064475.885 9 106206816.766 9      2335.489 9        56.586 9  27064475.885 9 106206816.766 9      2335.489 9        56.586 9  27064475.885 9 108977429.377 9      2396.415 9        56.586 9  27064475.885 9 108977429.377 9      2396.415 9        56.586 9  27064475.885 9 107592123.071 9      2365.952 9        59.597 9  27064475.885 9 107592123.071 9      2365.952 9        59.597 9
E31  24973166.877 9 131234877.702 9     -1547.865 9        57.421 9  24973166.877 9 131234877.702 9     -1547.865 9        57.421 9  24973167.874 9  98000074.923 9     -1155.873 9        57.281 9  24973167.874 9  98000074.923 9     -1155.873 9        57.281 9  24973167.874 9 100556598.616 9     -1186.027 9        57.281 9  24973167.874 9 100556598.616 9     -1186.027 9        57.281 9  24973167.874 9  99278336.769 9     -1170.950 9        60.291 9  24973167.874 9  99278336.769 9     -1170.950 9        60.291 9
E15  27836235.769 9 146280406.275 9     -1867.812 9        56.359 9  27836235.769 9 146280406.275 9     -1867.812 9        56.359 9  27836237.374 9 109235374.624 9     -1394.795 9        56.220 9  27836237.374 9 109235374.624 9     -1394.795 9        56.220 9  27836237.374 9 112084993.092 9     -1431.181 9        56.220 9  27836237.374 9 112084993.092 9     -1431.181 9        56.220 9  27836237.374 9 110660183.858 9     -1412.988 9        59.230 9  27836237.374 9 110660183.858 9     -1412.988 9        59.230 9
E03  26315928.219 9 138291136.180 9      2461.405 9        56.976 9  26315928.219 9 138291136.180 9      2461.405 9        56.976 9  26315929.105 9 103269358.416 9      1838.062 9        56.836 9  26315929.105 9 103269358.416 9      1838.062 9        56.836 9  26315929.105 9 105963341.679 9      1886.011 9        56.836 9  26315929.105 9 105963341.679 9      1886.011 9        56.836 9  26315929.105 9 104616350.048 9      1862.037 9        59.846 9  26315929.105 9 104616350.048 9      1862.037 9        59.846 9
E24  24079136.835 9 126536718.121 9      1234.288 9        57.798 9  24079136.835 9 126536718.121 9      1234.288 9        57.798 9  24079136.060 9  94491702.048 9       921.709 9        57.658 9  24079136.060 9  94491702.048 9       921.709 9        57.658 9  24079136.060 9  96956702.971 9       945.753 9        57.658 9  24079136.060 9  96956702.971 9       945.753 9        57.658 9  24079136.060 9  95724202.510 9       933.731 9        60.668 9  24079136.060 9  95724202.510 9       933.731 9        60.668 9
> 2023 01 08 10 00 39.0000000  0 19       0.000000000000
G08  25075387.437 9 131772050.370 9     -1500.334 9        54.230 9  25075388.430 8 102679523.837 8     -1169.091 8        49.730 8  25075387.437 9  98401206.445 9     -1120.379 9        56.330 9
G13  20024874.310 9 105231424.752 9       567.694 9        56.113 9  20024872.052 8  81998503.549 8       442.359 8        51.613 8  20024874.310 9  78581908.094 9       423.927 9        58.213 9
G24  24515175.314 9 128828115.794 9      3529.630 9        54.417 9  24515175.856 8 100385546.993 8      2750.361 8        49.917 8  24515175.314 9  96202813.742 9      2635.762 9        56.517 9
G07  24610156.208 9 129327243.760 9     -2973.194 9        54.354 9  24610154.040 8 100774466.781 8     -2316.775 8        49.854 8  24610156.208 9  96575539.171 9     -2220.242 9        56.454 9
G18  24774849.712 9 130192713.966 9     -1380.264 9        54.333 9  24774848.087 8 101448861.369 8     -1075.531 8        49.833 8  24774849.712 9  97221831.858 9     -1030.717 9        56.433 9
G20  23532720.514 9 123665280.971 9     -3652.403 9        54.720 9  23532718.888 8  96362549.944 8     -2846.028 8        50.220 8  23532720.514 9  92347450.076 9     -2727.443 9        56.820 9
G14  20962062.218 9 110156380.451 9       111.862 9        55.782 9  20962060.683 8  85836134.325 8        87.165 8        51.282 8  20962062.218 9  82259634.753 9        83.533 9        57.882 9
G23  24855254.281 9 130615242.828 9      3221.400 9        54.295 9  24855252.656 8 101778104.638 8      2510.182 8        49.795 8  24855254.281 9  97537356.657 9      2405.591 9        56.395 9
G05  21754688.996 9 114321662.279 9     -2442.200 9        55.466 9  21754686.828 8  89081805.887 8     -1903.013 8        50.966 8  21754688.996 9  85370072.481 9     -1823.721 9        57.566 9
G30  21866130.968 9 114907293.795 9     -2267.986 9        55.472 9  21866131.690 8  89538153.968 8     -1767.262 8        50.972 8  21866130.968 9  85807394.717 9     -1693.626 9        57.572 9
G15  21108992.980 9 110928506.815 9      2285.443 9        55.714 9  21108990.903 8  86437789.012 8      1780.865 8        51.214 8  21108992.980 9  82836222.621 9      1706.662 9        57.814 9
E05  23312418.053 9 122507583.728 9       352.816 9        57.977 9  23312418.053 9 122507583.728 9       352.816 9        57.977 9  23312418.994 9  91482939.594 9       263.466 9        57.837 9  23312418.994 9  91482939.594 9       263.466 9        57.837 9  23312418.994 9  93869451.062 9       270.339 9        57.837 9  23312418.994 9  93869451.062 9       270.339 9        57.837 9  23312418.994 9  92676195.328 9       266.903 9        60.847 9  23312418.994 9  92676195.328 9       266.903 9        60.847 9
E09  25223809.089 9 132552011.416 9     -2100.537 9        57.363 9  25223809.089 9 132552011.416 9     -2100.537 9        57.363 9  25223809.587 9  98983646.844 9     -1568.583 9        57.223 9  25223809.587 9  98983646.844 9     -1568.583 9        57.223 9  25223809.587 9 101565828.936 9     -1609.502 9        57.223 9  25223809.587 9 101565828.936 9     -1609.502 9        57.223 9  25223809.587 9 100274737.890 9     -1589.042 9        60.233 9  25223809.587 9 100274737.890 9     -1589.042 9        60.233 9
E13  28146660.753 9 147911700.579 9       313.439 9        56.288 9  28146660.753 9 147911700.579 9       313.439 9        56.288 9  28146660.919 9 110453543.292 9       234.061 9        56.148 9  28146660.919 9 110453543.292 9       234.061 9        56.148 9  28146660.919 9 113334940.073 9       240.167 9        56.148 9  28146660.919 9 113334940.073 9       240.167 9        56.148 9  28146660.919 9 111894241.682 9       237.114 9        59.159 9  28146660.919 9 111894241.682 9       237.114 9        59.159 9
E25  27063879.696 9 142221647.718 9      3127.405 9        56.726 9  27063879.696 9 142221647.718 9      3127.405 9        56.726 9  27063880.748 9 106204481.321 9      2335.399 9        56.586 9  27063880.748 9 106204481.321 9      2335.399 9        56.586 9  27063880.748 9 108975033.007 9      2396.323 9        56.586 9  27063880.748 9 108975033.007 9      2396.323 9        56.586 9  27063880.748 9 107589757.164 9      2365.861 9        59.597 9  27063880.748 9 107589757.164 9      2365.861 9        59.597 9
E31  24973461.461 9 131236425.753 9     -1548.239 9        57.421 9  24973461.461 9 131236425.753 9     -1548.239 9        57.421 9  24973462.458 9  98001230.935 9     -1156.152 9        57.281 9  24973462.458 9  98001230.935 9     -1156.152 9        57.281 9  24973462.458 9 100557784.785 9     -1186.313 9        57.281 9  24973462.458 9 100557784.785 9     -1186.313 9        57.281 9  24973462.458 9  99279507.860 9     -1171.232 9        60.291 9  24973462.458 9  99279507.860 9     -1171.232 9        60.291 9
E15  27836591.235 9 146282274.262 9     -1868.159 9        56.359 9  27836591.235 9 146282274.262 9     -1868.159 9        56.359 9  27836592.840 9 109236769.549 9     -1395.054 9        56.219 9  27836592.840 9 109236769.549 9     -1395.054 9        56.219 9  27836592.840 9 112086424.407 9     -1431.446 9        56.219 9  27836592.840 9 112086424.407 9     -1431.446 9        56.219 9  27836592.840 9 110661596.978 9     -1413.250 9        59.230 9  27836592.840 9 110661596.978 9     -1413.250 9        59.230 9
E03  26315459.839 9 138288674.823 9      2461.306 9        56.976 9  26315459.839 9 138288674.823 9      2461.306 9        56.976 9  26315460.724 9 103267520.390 9      1837.988 9        56.836 9  26315460.724 9 103267520.390 9      1837.988 9        56.836 9  26315460.724 9 105961455.705 9      1885.935 9        56.836 9  26315460.724 9 105961455.705 9      1885.935 9        56.836 9  26315460.724 9 104614488.047 9      1861.962 9        59.846 9  26315460.724 9 104614488.047 9      1861.962 9        59.846 9
E24  24078901.999 9 126535484.050 9      1233.854 9        57.798 9  24078901.999 9 126535484.050 9      1233.854 9        57.798 9  24078901.224 9  94490780.502 9       921.385 9        57.658 9  24078901.224 9  94490780.502 9       921.385 9        57.658 9  24078901.224 9  96955757.385 9       945.421 9        57.658 9  24078901.224 9  96955757.385 9       945.421 9        57.658 9  24078901.224 9  95723268.943 9       933.403 9        60.668 9  24078901.224 9  95723268.943 9       933.403 9        60.668 9
> 2023 01 08 10 00 40.0000000  0 19       0.000000000000
G08  25075672.996 9 131773550.991 9     -1500.910 9        54.229 9  25075673.989 8 102680693.152 8     -1169.540 8        49.729 8  25075672.996 9  98402327.038 9     -1120.809 9        56.329 9
G13  20024766.327 9 105230857.296 9       567.219 9        56.114 9  20024764.069 8  81998061.375 8       441.989 8        51.614 8  20024766.327 9  78581484.344 9       423.573 9        58.214 9
G24  24514503.657 9 128824586.213 9      3529.525 9        54.418 9  24514504.199 8 100382796.671 8      2750.279 8        49.918 8  24514503.657 9  96200178.016 9      2635.684 9        56.518 9
G07  24610721.992 9 129330216.976 9     -2973.244 9        54.353 9  24610719.825 8 100776783.573 8     -2316.813 8        49.853 8  24610721.992 9  96577759.430 9     -2220.279 9        56.453 9
G18  24775112.418 9 130194094.495 9     -1380.790 9        54.333 9  24775110.792 8 101449937.105 8     -1075.940 8        49.833 8  24775112.418 9  97222862.772 9     -1031.109 9        56.433 9
G20  23533415.557 9 123668933.447 9     -3652.548 9        54.720 9  23533413.931 8  96365396.029 8     -2846.141 8        50.220 8  23533415.557 9  92350177.574 9     -2727.552 9        56.820 9
G14  20962040.994 9 110156268.919 9       111.203 9        55.782 9  20962039.459 8  85836047.416 8        86.652 8        51.282 8  20962040.994 9  82259551.466 9        83.041 9        57.882 9
G23  24854641.298 9 130612021.581 9      3221.090 9        54.296 9  24854639.673 8 101775594.575 8      2509.940 8        49.796 8  24854641.298 9  97534951.181 9      2405.359 9        56.396 9
G05  21755153.780 9 114324104.738 9     -2442.716 9        55.466 9  21755151.612 8  89083709.102 8     -1903.415 8        50.966 8  21755153.780 9  85371896.395 9     -1824.106 9        57.566 9
G30  21866562.576 9 114909561.914 9     -2268.254 9        55.472 9  21866563.299 8  89539921.333 8     -1767.471 8        50.972 8  21866562.576 9  85809088.442 9     -1693.826 9        57.572 9
G15  21108558.115 9 110926221.586 9      2285.011 9        55.714 9  21108556.038 8  86436008.315 8      1780.528 8        51.214 8  21108558.115 9  82834516.120 9      1706.339 9        57.814 9
E05  23312350.945 9 122507231.071 9       352.498 9        57.977 9  23312350.945 9 122507231.071 9       352.498 9        57.977 9  23312351.886 9  91482676.247 9       263.229 9        57.837 9  23312351.886 9  91482676.247 9       263.229 9        57.837 9  23312351.886 9  93869180.844 9       270.096 9        57.837 9  23312351.886 9  93869180.844 9       270.096 9        57.837 9  23312351.886 9  92675928.545 9       266.663 9        60.847 9  23312351.886 9  92675928.545 9       266.663 9        60.847 9
E09  25224208.830 9 132554112.069 9     -2100.772 9        57.362 9  25224208.830 9 132554112.069 9     -2100.772 9        57.362 9  25224209.328 9  98985215.513 9     -1568.758 9        57.223 9  25224209.328 9  98985215.513 9     -1568.758 9        57.223 9  25224209.328 9 101567438.527 9     -1609.682 9        57.223 9  25224209.328 9 101567438.527 9     -1609.682 9        57.223 9  25224209.328 9 100276327.020 9     -1589.220 9        60.233 9  25224209.328 9 100276327.020 9     -1589.220 9        60.233 9
E13  28146601.155 9 147911387.387 9       312.944 9        56.288 9  28146601.155 9 147911387.387 9       312.944 9        56.288 9  28146601.321 9 110453309.415 9       233.692 9        56.148 9  28146601.321 9 110453309.415 9       233.692 9        56.148 9  28146601.321 9 113334700.096 9       239.788 9        56.148 9  28146601.321 9 113334700.096 9       239.788 9        56.148 9  28146601.321 9 111894004.755 9       236.740 9        59.159 9  28146601.321 9 111894004.755 9       236.740 9        59.159 9
E25  27063284.582 9 142218520.373 9      3127.285 9        56.727 9  27063284.582 9 142218520.373 9      3127.285 9        56.727 9  27063285.634 9 106202145.965 9      2335.310 9        56.587 9  27063285.634 9 106202145.965 9      2335.310 9        56.587 9  27063285.634 9 108972636.729 9      2396.231 9        56.587 9  27063285.634 9 108972636.729 9      2396.231 9        56.587 9  27063285.634 9 107587391.347 9      2365.771 9        59.597 9  27063285.634 9 107587391.347 9      2365.771 9        59.597 9
E31  24973756.117 9 131237974.177 9     -1548.612 9        57.420 9  24973756.117 9 131237974.177 9     -1548.612 9        57.420 9  24973757.114 9  98002387.225 9     -1156.431 9        57.281 9  24973757.114 9  98002387.225 9     -1156.431 9        57.281 9  24973757.114 9 100558971.240 9     -1186.599 9        57.281 9  24973757.114 9 100558971.240 9     -1186.599 9        57.281 9  24973757.114 9  99280679.233 9     -1171.515 9        60.291 9  24973757.114 9  99280679.233 9     -1171.515 9        60.291 9
E15  27836946.767 9 146284142.596 9     -1868.505 9        56.359 9  27836946.767 9 146284142.596 9     -1868.505 9        56.359 9  27836948.373 9 109238164.733 9     -1395.312 9        56.219 9  27836948.373 9 109238164.733 9     -1395.312 9        56.219 9  27836948.373 9 112087855.987 9     -1431.712 9        56.219 9  27836948.373 9 112087855.987 9     -1431.712 9        56.219 9  27836948.373 9 110663010.360 9     -1413.512 9        59.230 9  27836948.373 9 110663010.360 9     -1413.512 9        59.230 9
E03  26314991.477 9 138286213.565 9      2461.206 9        56.976 9  26314991.477 9 138286213.565 9      2461.206 9        56.976 9  26314992.363 9 103265682.438 9      1837.914 9        56.836 9  26314992.363 9 103265682.438 9      1837.914 9        56.836 9  26314992.363 9 105959569.806 9      1885.859 9        56.836 9  26314992.363 9 105959569.806 9      1885.859 9        56.836 9  26314992.363 9 104612626.122 9      1861.887 9        59.846 9  26314992.363 9 104612626.122 9      1861.887 9        59.846 9
E24  24078667.246 9 126534250.413 9      1233.420 9        57.798 9  24078667.246 9 126534250.413 9      1233.420 9        57.798 9  24078666.471 9  94489859.280 9       921.060 9        57.658 9  24078666.471 9  94489859.280 9       921.060 9        57.658 9  24078666.471 9  96954812.130 9       945.088 9        57.658 9  24078666.471 9  96954812.130 9       945.088 9        57.658 9  24078666.471 9  95722335.705 9       933.074 9        60.668 9  24078666.471 9  95722335.705 9       933.074 9        60.668 9
> 2023 01 08 10 00 41.0000000  0 19       0.000000000000
G08  25075958.664 9 131775052.188 9     -1501.486 9        54.229 9  25075959.658 8 102681862.916 8     -1169.989 8        49.729 8  25075958.664 9  98403448.063 9     -1121.240 9        56.329 9
G13  20024658.434 9 105230290.314 9       566.744 9        56.114 9  20024656.176 8  81997619.571 8       441.619 8        51.614 8  20024658.434 9  78581060.949 9       423.218 9        58.214 9
G24  24513832.020 9 128821056.738 9      3529.419 9        54.418 9  24513832.562 8 100380046.430 8      2750.197 8        49.918 8  24513832.020 9  96197542.369 9      2635.605 9        56.518 9
G07  24611287.786 9 129333190.241 9     -2973.293 9        54.353 9  24611285.618 8 100779100.403 8     -2316.851 8        49.853 8  24611287.786 9  96579979.726 9     -2220.316 9        56.453 9
G18  24775375.224 9 130195475.548 9     -1381.315 9        54.333 9  24775373.598 8 101451013.251 8     -1076.349 8        49.833 8  24775375.224 9  97223894.078 9     -1031.502 9        56.433 9
G20  23534110.627 9 123672586.069 9     -3652.693 9        54.720 9  23534109.002 8  96368242.228 8     -2846.254 8        50.220 8  23534110.627 9  92352905.181 9     -2727.660 9        56.820 9
G14  20962019.896 9 110156158.046 9       110.544 9        55.782 9  20962018.361 8  85835961.022 8        86.138 8        51.282 8  20962019.896 9  82259468.671 9        82.549 9        57.882 9
G23  24854028.374 9 130608800.645 9      3220.780 9        54.296 9  24854026.749 8 101773084.755 8      2509.698 8        49.796 8  24854028.374 9  97532545.936 9      2405.128 9        56.396 9
G05  21755618.663 9 114326547.714 9     -2443.233 9        55.466 9  21755616.495 8  89085612.720 8     -1903.818 8        50.966 8  21755618.663 9  85373720.696 9     -1824.492 9        57.566 9
G30  21866994.236 9 114911830.300 9     -2268.522 9        55.472 9  21866994.958 8  89541688.907 8     -1767.679 8        50.972 8  21866994.236 9  85810782.367 9     -1694.026 9        57.572 9
G15  21108123.333 9 110923936.790 9      2284.578 9        55.715 9  21108121.256 8  86434227.954 8      1780.191 8        51.215 8  21108123.333 9  82832809.941 9      1706.016 9        57.815 9
E05  23312283.897 9 122506878.731 9       352.181 9        57.977 9  23312283.897 9 122506878.731 9       352.181 9        57.977 9  23312284.838 9  91482413.136 9       262.992 9        57.837 9  23312284.838 9  91482413.136 9       262.992 9        57.837 9  23312284.838 9  93868910.870 9       269.853 9        57.837 9  23312284.838 9  93868910.870 9       269.853 9        57.837 9  23312284.838 9  92675662.003 9       266.422 9        60.847 9  23312284.838 9  92675662.003 9       266.422 9        60.847 9
E09  25224608.616 9 132556212.956 9     -2101.007 9        57.362 9  25224608.616 9 132556212.956 9     -2101.007 9        57.362 9  25224609.114 9  98986784.358 9     -1568.933 9        57.222 9  25224609.114 9  98986784.358 9     -1568.933 9        57.222 9  25224609.114 9 101569048.298 9     -1609.862 9        57.222 9  25224609.114 9 101569048.298 9     -1609.862 9        57.222 9  25224609.114 9 100277916.328 9     -1589.398 9        60.233 9  25224609.114 9 100277916.328 9     -1589.398 9        60.233 9
E13  28146541.650 9 147911074.691 9       312.449 9        56.288 9  28146541.650 9 147911074.691 9       312.449 9        56.288 9  28146541.817 9 110453075.908 9       233.322 9        56.148 9  28146541.817 9 110453075.908 9       233.322 9        56.148 9  28146541.817 9 113334460.497 9       239.409 9        56.148 9  28146541.817 9 113334460.497 9       239.409 9        56.148 9  28146541.817 9 111893768.202 9       236.366 9        59.159 9  28146541.817 9 111893768.202 9       236.366 9        59.159 9
E25  27062689.490 9 142215393.147 9      3127.165 9        56.727 9  27062689.490 9 142215393.147 9      3127.165 9        56.727 9  27062690.542 9 106199810.699 9      2335.221 9        56.587 9  27062690.542 9 106199810.699 9      2335.221 9        56.587 9  27062690.542 9 108970240.543 9      2396.139 9        56.587 9  27062690.542 9 108970240.543 9      2396.139 9        56.587 9  27062690.542 9 107585025.621 9      2365.680 9        59.597 9  27062690.542 9 107585025.621 9      2365.680 9        59.597 9
E31  24974050.843 9 131239522.975 9     -1548.985 9        57.420 9  24974050.843 9 131239522.975 9     -1548.985 9        57.420 9  24974051.840 9  98003543.795 9     -1156.710 9        57.281 9  24974051.840 9  98003543.795 9     -1156.710 9        57.281 9  24974051.840 9 100560157.981 9     -1186.885 9        57.281 9  24974051.840 9 100560157.981 9     -1186.885 9        57.281 9  24974051.840 9  99281850.888 9     -1171.797 9        60.291 9  24974051.840 9  99281850.888 9     -1171.797 9        60.291 9
E15  27837302.365 9 146286011.276 9     -1868.851 9        56.359 9  27837302.365 9 146286011.276 9     -1868.851 9        56.359 9  27837303.970 9 109239560.176 9     -1395.571 9        56.219 9  27837303.970 9 109239560.176 9     -1395.571 9        56.219 9  27837303.970 9 112089287.833 9     -1431.977 9        56.219 9  27837303.970 9 112089287.833 9     -1431.977 9        56.219 9  27837303.970 9 110664424.005 9     -1413.774 9        59.230 9  27837303.970 9 110664424.005 9     -1413.774 9        59.230 9
E03  26314523.134 9 138283752.407 9      2461.107 9        56.976 9  26314523.134 9 138283752.407 9      2461.107 9        56.976 9  26314524.020 9 103263844.560 9      1837.840 9        56.836 9  26314524.020 9 103263844.560 9      1837.840 9        56.836 9  26314524.020 9 105957683.983 9      1885.783 9        56.836 9  26314524.020 9 105957683.983 9      1885.783 9        56.836 9  26314524.020 9 104610764.271 9      1861.811 9        59.846 9  26314524.020 9 104610764.271 9      1861.811 9        59.846 9
E24  24078432.575 9 126533017.210 9      1232.986 9        57.798 9  24078432.575 9 126533017.210 9      1232.986 9        57.798 9  24078431.800 9  94488938.381 9       920.736 9        57.658 9  24078431.800 9  94488938.381 9       920.736 9        57.658 9  24078431.800 9  96953867.209 9       944.756 9        57.658 9  24078431.800 9  96953867.209 9       944.756 9        57.658 9  24078431.800 9  95721402.795 9       932.746 9        60.668 9  24078431.800 9  95721402.795 9       932.746 9        60.668 9
> 2023 01 08 10 00 42.0000000  0 19       0.000000000000
G08  25076244.442 9 131776553.962 9     -1502.063 9        54.229 9  25076245.436 8 102683033.129 8     -1170.439 8        49.729 8  25076244.442 9  98404569.517 9     -1121.670 9        56.329 9
G13  20024550.631 9 105229723.807 9       566.270 9        56.114 9  20024548.373 8  81997178.137 8       441.249 8        51.614 8  20024550.631 9  78580637.908 9       422.864 9        58.214 9
G24  24513160.404 9 128817527.368 9      3529.314 9        54.418 9  24513160.945 8 100377296.272 8      2750.115 8        49.918 8  24513160.404 9  96194906.800 9      2635.527 9        56.518 9
G07  24611853.589 9 129336163.556 9     -2973.342 9        54.353 9  24611851.421 8 100781417.272 8     -2316.890 8        49.853 8  24611853.589 9  96582200.058 9     -2220.353 9        56.453 9
G18  24775638.130 9 130196857.127 9     -1381.840 9        54.333 9  24775636.504 8 101452089.806 8     -1076.759 8        49.833 8  24775638.130 9  97224925.777 9     -1031.894 9        56.433 9
G20  23534805.726 9 123676238.835 9     -3652.838 9        54.719 9  23534804.100 8  96371088.539 8     -2846.367 8        50.219 8  23534805.726 9  92355632.896 9     -2727.769 9        56.819 9
G14  20961998.923 9 110156047.831 9       109.885 9        55.782 9  20961997.387 8  85835875.140 8        85.625 8        51.282 8  20961998.923 9  82259386.368 9        82.057 9        57.882 9
G23  24853415.510 9 130605580.019 9      3220.469 9        54.296 9  24853413.884 8 101770575.176 8      2509.456 8        49.796 8  24853415.510 9  97530140.923 9      2404.896 9        56.396 9
G05  21756083.644 9 114328991.206 9     -2443.749 9        55.465 9  21756081.476 8  89087516.739 8     -1904.220 8        50.965 8  21756083.644 9  85375545.381 9     -1824.878 9        57.565 9
G30  21867425.946 9 114914098.954 9     -2268.789 9        55.472 9  21867426.669 8  89543456.689 8     -1767.888 8        50.972 8  21867425.946 9  85812476.492 9     -1694.226 9        57.572 9
G15  21107688.633 9 110921652.427 9      2284.146 9        55.715 9  21107686.556 8  86432447.931 8      1779.854 8        51.215 8  21107688.633 9  82831104.085 9      1705.693 9        57.815 9
E05  23312216.909 9 122506526.709 9       351.863 9        57.977 9  23312216.909 9 122506526.709 9       351.863 9        57.977 9  23312217.851 9  91482150.263 9       262.755 9        57.837 9  23312217.851 9  91482150.263 9       262.755 9        57.837 9  23312217.851 9  93868641.139 9       269.609 9        57.837 9  23312217.851 9  93868641.139 9       269.609 9        57.837 9  23312217.851 9  92675395.701 9       266.182 9        60.847 9  23312217.851 9  92675395.701 9       266.182 9        60.847 9
E09  25225008.446 9 132558314.079 9     -2101.241 9        57.362 9  25225008.446 9 132558314.079 9     -2101.241 9        57.362 9  25225008.944 9  98988353.378 9     -1569.109 9        57.222 9  25225008.944 9  98988353.378 9     -1569.109 9        57.222 9  25225008.944 9 101570658.249 9     -1610.042 9        57.222 9  25225008.944 9 101570658.249 9     -1610.042 9        57.222 9  25225008.944 9 100279505.814 9     -1589.575 9        60.233 9  25225008.944 9 100279505.814 9     -1589.575 9        60.233 9
E13  28146482.240 9 147910762.489 9       311.954 9        56.288 9  28146482.240 9 147910762.489 9       311.954 9        56.288 9  28146482.407 9 110452842.770 9       232.953 9        56.148 9  28146482.407 9 110452842.770 9       232.953 9        56.148 9  28146482.407 9 113334221.277 9       239.030 9        56.148 9  28146482.407 9 113334221.277 9       239.030 9        56.148 9  28146482.407 9 111893532.024 9       235.991 9        59.159 9  28146482.407 9 111893532.024 9       235.991 9        59.159 9
E25  27062094.422 9 142212266.040 9      3127.045 9        56.727 9  27062094.422 9 142212266.040 9      3127.045 9        56.727 9  27062095.474 9 106197475.522 9      2335.131 9        56.587 9  27062095.474 9 106197475.522 9      2335.131 9        56.587 9  27062095.474 9 108967844.449 9      2396.048 9        56.587 9  27062095.474 9 108967844.449 9      2396.048 9        56.587 9  27062095.474 9 107582659.986 9      2365.589 9        59.597 9  27062095.474 9 107582659.986 9      2365.589 9        59.597 9
E31  24974345.641 9 131241072.146 9     -1549.358 9        57.420 9  24974345.641 9 131241072.146 9     -1549.358 9        57.420 9  24974346.637 9  98004700.643 9     -1156.988 9        57.280 9  24974346.637 9  98004700.643 9     -1156.988 9        57.280 9  24974346.637 9 100561345.008 9     -1187.171 9        57.280 9  24974346.637 9 100561345.008 9     -1187.171 9        57.280 9  24974346.637 9  99283022.826 9     -1172.080 9        60.291 9  24974346.637 9  99283022.826 9     -1172.080 9        60.291 9
E15  27837658.028 9 146287880.302 9     -1869.197 9        56.359 9  27837658.028 9 146287880.302 9     -1869.197 9        56.359 9  27837659.634 9 109240955.877 9     -1395.829 9        56.219 9  27837659.634 9 109240955.877 9     -1395.829 9        56.219 9  27837659.634 9 112090719.944 9     -1432.242 9        56.219 9  27837659.634 9 112090719.944 9     -1432.242 9        56.219 9  27837659.634 9 110665837.910 9     -1414.036 9        59.229 9  27837659.634 9 110665837.910 9     -1414.036 9        59.229 9
E03  26314054.810 9 138281291.348 9      2461.008 9        56.976 9  26314054.810 9 138281291.348 9      2461.008 9        56.976 9  26314055.696 9 103262006.756 9      1837.765 9        56.836 9  26314055.696 9 103262006.756 9      1837.765 9        56.836 9  26314055.696 9 105955798.236 9      1885.707 9        56.836 9  26314055.696 9 105955798.236 9      1885.707 9        56.836 9  26314055.696 9 104608902.496 9      1861.736 9        59.847 9  26314055.696 9 104608902.496 9      1861.736 9        59.847 9
E24  24078197.987 9 126531784.441 9      1232.552 9        57.798 9  24078197.987 9 126531784.441 9      1232.552 9        57.798 9  24078197.212 9  94488017.807 9       920.412 9        57.658 9  24078197.212 9  94488017.807 9       920.412 9        57.658 9  24078197.212 9  96952922.619 9       944.423 9        57.658 9  24078197.212 9  96952922.619 9       944.423 9        57.658 9  24078197.212 9  95720470.213 9       932.418 9        60.668 9  24078197.212 9  95720470.213 9       932.418 9        60.668 9
> 2023 01 08 10 00 43.0000000  0 19       0.000000000000
G08  25076530.330 9 131778056.312 9     -1502.639 9        54.229 9  25076531.323 8 102684203.792 8     -1170.888 8        49.729 8  25076530.330 9  98405691.402 9     -1122.101 9        56.329 9
G13  20024442.919 9 105229157.775 9       565.795 9        56.114 9  20024440.661 8  81996737.073 8       440.879 8        51.614 8  20024442.919 9  78580215.222 9       422.509 9        58.214 9
G24  24512488.807 9 128813998.102 9      3529.209 9        54.418 9  24512489.349 8 100374546.195 8      2750.033 8        49.918 8  24512488.807 9  96192271.310 9      2635.448 9        56.518 9
G07  24612419.401 9 129339136.919 9     -2973.391 9        54.353 9  24612417.233 8 100783734.178 8     -2316.928 8        49.853 8  24612419.401 9  96584420.427 9     -2220.389 9        56.453 9
G18  24775901.135 9 130198239.232 9     -1382.366 9        54.333 9  24775899.510 8 101453166.770 8     -1077.168 8        49.833 8  24775901.135 9  97225957.868 9     -1032.286 9        56.433 9
G20  23535500.852 9 123679891.746 9     -3652.983 9        54.719 9  23535499.226 8  96373934.963 8     -2846.480 8        50.219 8  23535500.852 9  92358360.719 9     -2727.877 9        56.819 9
G14  20961978.075 9 110155938.276 9       109.226 9        55.782 9  20961976.540 8  85835789.772 8        85.111 8        51.282 8  20961978.075 9  82259304.556 9        81.565 9        57.882 9
G23  24852802.704 9 130602359.703 9      3220.158 9        54.296 9  24852801.078 8 101768065.839 8      2509.214 8        49.796 8  24852802.704 9  97527736.142 9      2404.664 9        56.396 9
G05  21756548.723 9 114331435.214 9     -2444.265 9        55.465 9  21756546.556 8  89089421.161 8     -1904.622 8        50.965 8  21756548.723 9  85377370.452 9     -1825.263 9        57.565 9
G30  21867857.708 9 114916367.876 9     -2269.057 9        55.472 9  21867858.430 8  89545224.680 8     -1768.096 8        50.972 8  21867857.708 9  85814170.816 9     -1694.426 9        57.572 9
G15  21107254.016 9 110919368.496 9      2283.713 9        55.715 9  21107251.938 8  86430668.244 8      1779.517 8        51.215 8  21107254.016 9  82829398.552 9      1705.370 9        57.815 9
E05  23312149.982 9 122506175.005 9       351.545 9        57.977 9  23312149.982 9 122506175.005 9       351.545 9        57.977 9  23312150.924 9  91481887.626 9       262.518 9        57.837 9  23312150.924 9  91481887.626 9       262.518 9        57.837 9  23312150.924 9  93868371.651 9       269.366 9        57.837 9  23312150.924 9  93868371.651 9       269.366 9        57.837 9  23312150.924 9  92675129.639 9       265.942 9        60.847 9  23312150.924 9  92675129.639 9       265.942 9        60.847 9
E09  25225408.321 9 132560415.437 9     -2101.476 9        57.362 9  25225408.321 9 132560415.437 9     -2101.476 9        57.362 9  25225408.819 9  98989922.574 9     -1569.284 9        57.222 9  25225408.819 9  98989922.574 9     -1569.284 9        57.222 9  25225408.819 9 101572268.380 9     -1610.222 9        57.222 9  25225408.819 9 101572268.380 9     -1610.222 9        57.222 9  25225408.819 9 100281095.477 9     -1589.753 9        60.232 9  25225408.819 9 100281095.477 9     -1589.753 9        60.232 9
E13  28146422.925 9 147910450.782 9       311.460 9        56.288 9  28146422.925 9 147910450.782 9       311.460 9        56.288 9  28146423.091 9 110452610.002 9       232.583 9        56.148 9  28146423.091 9 110452610.002 9       232.583 9        56.148 9  28146423.091 9 113333982.437 9       238.651 9        56.148 9  28146423.091 9 113333982.437 9       238.651 9        56.148 9  28146423.091 9 111893296.220 9       235.617 9        59.159 9  28146423.091 9 111893296.220 9       235.617 9        59.159 9
E25  27061499.376 9 142209139.054 9      3126.925 9        56.727 9  27061499.376 9 142209139.054 9      3126.925 9        56.727 9  27061500.428 9 106195140.435 9      2335.042 9        56.587 9  27061500.428 9 106195140.435 9      2335.042 9        56.587 9  27061500.428 9 108965448.446 9      2395.956 9        56.587 9  27061500.428 9 108965448.446 9      2395.956 9        56.587 9  27061500.428 9 107580294.441 9      2365.499 9        59.598 9  27061500.428 9 107580294.441 9      2365.499 9        59.598 9
E31  24974640.509 9 131242621.690 9     -1549.732 9        57.420 9  24974640.509 9 131242621.690 9     -1549.732 9        57.420 9  24974641.506 9  98005857.771 9     -1157.267 9        57.280 9  24974641.506 9  98005857.771 9     -1157.267 9        57.280 9  24974641.506 9 100562532.321 9     -1187.457 9        57.280 9  24974641.506 9 100562532.321 9     -1187.457 9        57.280 9  24974641.506 9  99284195.046 9     -1172.362 9        60.291 9  24974641.506 9  99284195.046 9     -1172.362 9        60.291 9
E15  27838013.758 9 146289749.674 9     -1869.543 9        56.359 9  27838013.758 9 146289749.674 9     -1869.543 9        56.359 9  27838015.364 9 109242351.837 9     -1396.088 9        56.219 9  27838015.364 9 109242351.837 9     -1396.088 9        56.219 9  27838015.364 9 112092152.320 9     -1432.507 9        56.219 9  27838015.364 9 112092152.320 9     -1432.507 9        56.219 9  27838015.364 9 110667252.078 9     -1414.297 9        59.229 9  27838015.364 9 110667252.078 9     -1414.297 9        59.229 9
E03  26313586.505 9 138278830.388 9      2460.908 9        56.976 9  26313586.505 9 138278830.388 9      2460.908 9        56.976 9  26313587.391 9 103260169.026 9      1837.691 9        56.836 9  26313587.391 9 103260169.026 9      1837.691 9        56.836 9  26313587.391 9 105953912.566 9      1885.631 9        56.836 9  26313587.391 9 105953912.566 9      1885.631 9        56.836 9  26313587.391 9 104607040.796 9      1861.661 9        59.847 9  26313587.391 9 104607040.796 9      1861.661 9        59.847 9
E24  24077963.482 9 126530552.106 9      1232.118 9        57.798 9  24077963.482 9 126530552.106 9      1232.118 9        57.798 9  24077962.706 9  94487097.557 9       920.088 9        57.658 9  24077962.706 9  94487097.557 9       920.088 9        57.658 9  24077962.706 9  96951978.363 9       944.091 9        57.658 9  24077962.706 9  96951978.363 9       944.091 9        57.658 9  24077962.706 9  95719537.960 9       932.090 9        60.669 9  24077962.706 9  95719537.960 9       932.090 9        60.669 9
> 2023 01 08 10 00 44.0000000  0 19       0.000000000000
G08  25076816.327 9 131779559.239 9     -1503.215 9        54.229 9  25076817.321 8 102685374.904 8     -1171.337 8        49.729 8  25076816.327 9  98406813.717 9     -1122.531 9        56.329 9
G13  20024335.297 9 105228592.218 9       565.320 9        56.114 9  20024333.039 8  81996296.379 8       440.509 8        51.614 8  20024335.297 9  78579792.890 9       422.154 9        58.214 9
G24  24511817.230 9 128810468.942 9      3529.104 9        54.419 9  24511817.772 8 100371796.200 8      2749.951 8        49.919 8  24511817.230 9  96189635.899 9      2635.370 9        56.519 9
G07  24612985.223 9 129342110.332 9     -2973.440 9        54.353 9  24612983.055 8 100786051.123 8     -2316.966 8        49.853 8  24612985.223 9  96586640.832 9     -2220.426 9        56.453 9
G18  24776164.241 9 130199621.861 9     -1382.891 9        54.333 9  24776162.615 8 101454244.144 8     -1077.577 8        49.833 8  24776164.241 9  97226990.351 9     -1032.678 9        56.433 9
G20  23536196.005 9 123683544.802 9     -3653.128 9        54.719 9  23536194.379 8  96376781.501 8     -2846.593 8        50.219 8  23536196.005 9  92361088.651 9     -2727.985 9        56.819 9
G14  20961957.353 9 110155829.379 9       108.568 9        55.782 9  20961955.817 8  85835704.917 8        84.598 8        51.282 8  20961957.353 9  82259223.237 9        81.073 9        57.882 9
G23  24852189.957 9 130599139.698 9      3219.848 9        54.296 9  24852188.332 8 101765556.744 8      2508.972 8        49.796 8  24852189.957 9  97525331.593 9      2404.432 9        56.396 9
G05  21757013.901 9 114333879.739 9     -2444.782 9        55.465 9  21757011.733 8  89091325.986 8     -1905.025 8        50.965 8  21757013.901 9  85379195.909 9     -1825.649 9        57.565 9
G30  21868289.520 9 114918637.065 9     -2269.325 9        55.471 9  21868290.243 8  89546992.880 8     -1768.305 8        50.971 8  21868289.520 9  85815865.341 9     -1694.625 9        57.571 9
G15  21106819.480 9 110917084.997 9      2283.281 9        55.715 9  21106817.403 8  86428888.894 8      1779.180 8        51.215 8  21106819.480 9  82827693.342 9      1705.047 9        57.815 9
E05  23312083.116 9 122505823.619 9       351.228 9        57.977 9  23312083.116 9 122505823.619 9       351.228 9        57.977 9  23312084.057 9  91481625.227 9       262.280 9        57.837 9  23312084.057 9  91481625.227 9       262.280 9        57.837 9  23312084.057 9  93868102.407 9       269.122 9        57.837 9  23312084.057 9  93868102.407 9       269.122 9        57.837 9  23312084.057 9  92674863.817 9       265.701 9        60.847 9  23312084.057 9  92674863.817 9       265.701 9        60.847 9
E09  25225808.241 9 132562517.029 9     -2101.711 9        57.362 9  25225808.241 9 132562517.029 9     -2101.711 9        57.362 9  25225808.739 9  98991491.945 9     -1569.460 9        57.222 9  25225808.739 9  98991491.945 9     -1569.460 9        57.222 9  25225808.739 9 101573878.691 9     -1610.402 9        57.222 9  25225808.739 9 101573878.691 9     -1610.402 9        57.222 9  25225808.739 9 100282685.318 9     -1589.931 9        60.232 9  25225808.739 9 100282685.318 9     -1589.931 9        60.232 9
E13  28146363.703 9 147910139.570 9       310.965 9        56.288 9  28146363.703 9 147910139.570 9       310.965 9        56.288 9  28146363.869 9 110452377.603 9       232.214 9        56.149 9  28146363.869 9 110452377.603 9       232.214 9        56.149 9  28146363.869 9 113333743.976 9       238.272 9        56.149 9  28146363.869 9 113333743.976 9       238.272 9        56.149 9  28146363.869 9 111893060.789 9       235.243 9        59.159 9  28146363.869 9 111893060.789 9       235.243 9        59.159 9
E25  27060904.353 9 142206012.187 9      3126.806 9        56.727 9  27060904.353 9 142206012.187 9      3126.806 9        56.727 9  27060905.405 9 106192805.437 9      2334.952 9        56.587 9  27060905.405 9 106192805.437 9      2334.952 9        56.587 9  27060905.405 9 108963052.536 9      2395.864 9        56.587 9  27060905.405 9 108963052.536 9      2395.864 9        56.587 9  27060905.405 9 107577928.986 9      2365.408 9        59.598 9  27060905.405 9 107577928.986 9      2365.408 9        59.598 9
E31  24974935.449 9 131244171.607 9     -1550.105 9        57.420 9  24974935.449 9 131244171.607 9     -1550.105 9        57.420 9  24974936.445 9  98007015.176 9     -1157.546 9        57.280 9  24974936.445 9  98007015.176 9     -1157.546 9        57.280 9  24974936.445 9 100563719.920 9     -1187.743 9        57.280 9  24974936.445 9 100563719.920 9     -1187.743 9        57.280 9  24974936.445 9  99285367.548 9     -1172.644 9        60.291 9  24974936.445 9  99285367.548 9     -1172.644 9        60.291 9
E15  27838369.554 9 146291619.392 9     -1869.889 9        56.359 9  27838369.554 9 146291619.392 9     -1869.889 9        56.359 9  27838371.159 9 109243748.055 9     -1396.346 9        56.219 9  27838371.159 9 109243748.055 9     -1396.346 9        56.219 9  27838371.159 9 112093584.961 9     -1432.772 9        56.219 9  27838371.159 9 112093584.961 9     -1432.772 9        56.219 9  27838371.159 9 110668666.508 9     -1414.559 9        59.229 9  27838371.159 9 110668666.508 9     -1414.559 9        59.229 9
E03  26313118.219 9 138276369.527 9      2460.809 9        56.977 9  26313118.219 9 138276369.527 9      2460.809 9        56.977 9  26313119.105 9 103258331.370 9      1837.617 9        56.837 9  26313119.105 9 103258331.370 9      1837.617 9        56.837 9  26313119.105 9 105952026.971 9      1885.555 9        56.837 9  26313119.105 9 105952026.971 9      1885.555 9        56.837 9  26313119.105 9 104605179.171 9      1861.586 9        59.847 9  26313119.105 9 104605179.171 9      1861.586 9        59.847 9
E24  24077729.059 9 126529320.205 9      1231.684 9        57.798 9  24077729.059 9 126529320.205 9      1231.684 9        57.798 9  24077728.283 9  94486177.631 9       919.764 9        57.658 9  24077728.283 9  94486177.631 9       919.764 9        57.658 9  24077728.283 9  96951034.439 9       943.758 9        57.658 9  24077728.283 9  96951034.439 9       943.758 9        57.658 9  24077728.283 9  95718606.035 9       931.761 9        60.669 9  24077728.283 9  95718606.035 9       931.761 9        60.669 9
> 2023 01 08 10 00 45.0000000  0 19       0.000000000000
G08  25077102.434 9 131781062.742 9     -1503.791 9        54.229 9  25077103.428 8 102686546.464 8     -1171.786 8        49.729 8  25077102.434 9  98407936.463 9     -1122.961 9        56.329 9
G13  20024227.765 9 105228027.135 9       564.845 9        56.114 9  20024225.507 8  81995856.055 8       440.139 8        51.614 8  20024227.765 9  78579370.913 9       421.800 9        58.214 9
G24  24511145.673 9 128806939.888 9      3528.999 9        54.419 9  24511146.215 8 100369046.287 8      2749.869 8        49.919 8  24511145.673 9  96187000.565 9      2635.291 9        56.519 9
G07  24613551.054 9 129345083.794 9     -2973.489 9        54.352 9  24613548.886 8 100788368.107 8     -2317.005 8        49.852 8  24613551.054 9  96588861.275 9     -2220.463 9        56.452 9
G18  24776427.446 9 130201005.015 9     -1383.416 9        54.333 9  24776425.821 8 101455321.927 8     -1077.986 8        49.833 8  24776427.446 9  97228023.226 9     -1033.070 9        56.433 9
G20  23536891.186 9 123687198.003 9     -3653.272 9        54.719 9  23536889.560 8  96379628.151 8     -2846.706 8        50.219 8  23536891.186 9  92363816.691 9     -2728.093 9        56.819 9
G14  20961936.756 9 110155721.141 9       107.909 9        55.782 9  20961935.220 8  85835620.576 8        84.085 8        51.282 8  20961936.756 9  82259142.410 9        80.581 9        57.882 9
G23  24851577.270 9 130595920.004 9      3219.537 9        54.297 9  24851575.644 8 101763047.892 8      2508.730 8        49.797 8  24851577.270 9  97522927.276 9      2404.200 9        56.397 9
G05  21757479.177 9 114336324.780 9     -2445.298 9        55.465 9  21757477.009 8  89093231.212 8     -1905.427 8        50.965 8  21757479.177 9  85381021.751 9     -1826.034 9        57.565 9
G30  21868721.383 9 114920906.522 9     -2269.592 9        55.471 9  21868722.106 8  89548761.287 8     -1768.513 8        50.971 8  21868721.383 9  85817560.065 9     -1694.825 9        57.571 9
G15  21106385.027 9 110914801.931 9      2282.848 9        55.715 9  21106382.950 8  86427109.882 8      1778.843 8        51.215 8  21106385.027 9  82825988.455 9      1704.724 9        57.815 9
E05  23312016.309 9 122505472.550 9       350.910 9        57.977 9  23312016.309 9 122505472.550 9       350.910 9        57.977 9  23312017.251 9  91481363.065 9       262.043 9        57.837 9  23312017.251 9  91481363.065 9       262.043 9        57.837 9  23312017.251 9  93867833.406 9       268.879 9        57.837 9  23312017.251 9  93867833.406 9       268.879 9        57.837 9  23312017.251 9  92674598.236 9       265.461 9        60.847 9  23312017.251 9  92674598.236 9       265.461 9        60.847 9
E09  25226208.205 9 132564618.856 9     -2101.946 9        57.362 9  25226208.205 9 132564618.856 9     -2101.946 9        57.362 9  25226208.704 9  98993061.491 9     -1569.635 9        57.222 9  25226208.704 9  98993061.491 9     -1569.635 9        57.222 9  25226208.704 9 101575489.182 9     -1610.582 9        57.222 9  25226208.704 9 101575489.182 9     -1610.582 9        57.222 9  25226208.704 9 100284275.337 9     -1590.109 9        60.232 9  25226208.704 9 100284275.337 9     -1590.109 9        60.232 9
E13  28146304.575 9 147909828.852 9       310.470 9        56.288 9  28146304.575 9 147909828.852 9       310.470 9        56.288 9  28146304.741 9 110452145.574 9       231.844 9        56.149 9  28146304.741 9 110452145.574 9       231.844 9        56.149 9  28146304.741 9 113333505.893 9       237.893 9        56.149 9  28146304.741 9 113333505.893 9       237.893 9        56.149 9  28146304.741 9 111892825.734 9       234.869 9        59.159 9  28146304.741 9 111892825.734 9       234.869 9        59.159 9
E25  27060309.353 9 142202885.441 9      3126.686 9        56.728 9  27060309.353 9 142202885.441 9      3126.686 9        56.728 9  27060310.405 9 106190470.529 9      2334.863 9        56.588 9  27060310.405 9 106190470.529 9      2334.863 9        56.588 9  27060310.405 9 108960656.717 9      2395.772 9        56.588 9  27060310.405 9 108960656.717 9      2395.772 9        56.588 9  27060310.405 9 107575563.623 9      2365.317 9        59.598 9  27060310.405 9 107575563.623 9      2365.317 9        59.598 9
E31  24975230.459 9 131245721.898 9     -1550.478 9        57.420 9  24975230.459 9 131245721.898 9     -1550.478 9        57.420 9  24975231.456 9  98008172.861 9     -1157.824 9        57.280 9  24975231.456 9  98008172.861 9     -1157.824 9        57.280 9  24975231.456 9 100564907.805 9     -1188.029 9        57.280 9  24975231.456 9 100564907.805 9     -1188.029 9        57.280 9  24975231.456 9  99286540.333 9     -1172.926 9        60.290 9  24975231.456 9  99286540.333 9     -1172.926 9        60.290 9
E15  27838725.415 9 146293489.456 9     -1870.235 9        56.359 9  27838725.415 9 146293489.456 9     -1870.235 9        56.359 9  27838727.021 9 109245144.531 9     -1396.604 9        56.219 9  27838727.021 9 109245144.531 9     -1396.604 9        56.219 9  27838727.021 9 112095017.867 9     -1433.037 9        56.219 9  27838727.021 9 112095017.867 9     -1433.037 9        56.219 9  27838727.021 9 110670081.199 9     -1414.821 9        59.229 9  27838727.021 9 110670081.199 9     -1414.821 9        59.229 9
E03  26312649.951 9 138273908.766 9      2460.709 9        56.977 9  26312649.951 9 138273908.766 9      2460.709 9        56.977 9  26312650.837 9 103256493.789 9      1837.543 9        56.837 9  26312650.837 9 103256493.789 9      1837.543 9        56.837 9  26312650.837 9 105950141.453 9      1885.479 9        56.837 9  26312650.837 9 105950141.453 9      1885.479 9        56.837 9  26312650.837 9 104603317.621 9      1861.511 9        59.847 9  26312650.837 9 104603317.621 9      1861.511 9        59.847 9
E24  24077494.718 9 126528088.738 9      1231.250 9        57.798 9  24077494.718 9 126528088.738 9      1231.250 9        57.798 9  24077493.943 9  94485258.029 9       919.440 9        57.658 9  24077493.943 9  94485258.029 9       919.440 9        57.658 9  24077493.943 9  96950090.847 9       943.426 9        57.658 9  24077493.943 9  96950090.847 9       943.426 9        57.658 9  24077493.943 9  95717674.438 9       931.433 9        60.669 9  24077493.943 9  95717674.438 9       931.433 9        60.669 9
