     3.04           OBSERVATION DATA    M: MIXED            RINEX VERSION / TYPE
PosApp V8.02.00     Spirent             20230108 095918 UTC PGM / RUN BY / DATE 
                                                            MARKER NAME         
GEODETIC                                                    MARKER TYPE         
gpssim              Spirent                                 OBSERVER / AGENCY   
rec_num             rec_type            rec_vers            REC # / TYPE / VERS 
1                   ant_type                                ANT # / TYPE        
    30.000                                                  INTERVAL            
  2023     1     8     9    59    0.0000000     GPS         TIME OF FIRST OBS   
  -481819.3135  5507219.9538  3170373.7354                  APPROX POSITION XYZ 
        0.0000        0.0000        0.0000                  ANTENNA: DELTA H/E/N
G   28 C1C L1C D1C S1C C1X L1X D1X S1X C1P L1P D1P S1P C2C  SYS / # / OBS TYPES 
       L2C D2C S2C C2X L2X D2X S2X C2P L2P D2P S2P C5I L5I  SYS / # / OBS TYPES 
       D5I S5I                                              SYS / # / OBS TYPES 
R   44 C1C L1C D1C S1C C1P L1P D1P S1P C2C L2C D2C S2C C2P  SYS / # / OBS TYPES 
       L2P D2P S2P C4A L4A D4A S4A C4B L4B D4B S4B C4X L4X  SYS / # / OBS TYPES 
       D4X S4X C6B L6B D6B S6B C3I L3I D3I S3I C3Q L3Q D3Q  SYS / # / OBS TYPES 
       S3Q C3X L3X D3X S3X                                  SYS / # / OBS TYPES 
E   48 C1A L1A D1A S1A C1B L1B D1B S1B C1C L1C D1C S1C C5I  SYS / # / OBS TYPES 
       L5I D5I S5I C5Q L5Q D5Q S5Q C7I L7I D7I S7I C7Q L7Q  SYS / # / OBS TYPES 
       D7Q S7Q C8I L8I D8I S8I C8Q L8Q D8Q S8Q C6A L6A D6A  SYS / # / OBS TYPES 
       S6A C6B L6B D6B S6B C6C L6C D6C S6C                  SYS / # / OBS TYPES 
C   24 C2I L2I D2I S2I C7I L7I D7I S7I C6I L6I D6I S6I C5X  SYS / # / OBS TYPES 
       L5X D5X S5X C1X L1X D1X S1X C7D L7D D7D S7D          SYS / # / OBS TYPES 
Q   24 C1C L1C D1C S1C C1X L1X D1X S1X C1Z L1Z D1Z S1Z C2X  SYS / # / OBS TYPES 
       L2X D2X S2X C5I L5I D5I S5I C6Z L6Z D6Z S6Z          SYS / # / OBS TYPES 
GNSS SIMULATOR OUTPUTS ALIGNED CARRIER PHASES.              COMMENT             
NO FURTHER PHASE SHIFTS APPLIED IN THE RINEX ENCODER.       COMMENT             
G L1C                                                       SYS / PHASE SHIFT   
G L1X  0.00000                                              SYS / PHASE SHIFT   
G L1P  0.00000                                              SYS / PHASE SHIFT   
G L2C  0.00000                                              SYS / PHASE SHIFT   
G L2X  0.00000                                              SYS / PHASE SHIFT   
G L2P                                                       SYS / PHASE SHIFT   
G L5I                                                       SYS / PHASE SHIFT   
R L1C                                                       SYS / PHASE SHIFT   
R L1P  0.00000                                              SYS / PHASE SHIFT   
R L2C                                                       SYS / PHASE SHIFT   
R L2P  0.00000                                              SYS / PHASE SHIFT   
R L4A                                                       SYS / PHASE SHIFT   
R L4B  0.00000                                              SYS / PHASE SHIFT   
R L4X  0.00000                                              SYS / PHASE SHIFT   
R L6B  0.00000                                              SYS / PHASE SHIFT   
R L3I                                                       SYS / PHASE SHIFT   
R L3Q  0.00000                                              SYS / PHASE SHIFT   
R L3X  0.00000                                              SYS / PHASE SHIFT   
E L1A  0.00000                                              SYS / PHASE SHIFT   
E L1B                                                       SYS / PHASE SHIFT   
E L1C  0.00000                                              SYS / PHASE SHIFT   
E L5I                                                       SYS / PHASE SHIFT   
E L5Q  0.00000                                              SYS / PHASE SHIFT   
E L7I                                                       SYS / PHASE SHIFT   
E L7Q  0.00000                                              SYS / PHASE SHIFT   
E L8I                                                       SYS / PHASE SHIFT   
E L8Q  0.00000                                              SYS / PHASE SHIFT   
E L6A  0.00000                                              SYS / PHASE SHIFT   
E L6B                                                       SYS / PHASE SHIFT   
E L6C  0.00000                                              SYS / PHASE SHIFT   
C L2I                                                       SYS / PHASE SHIFT   
C L7I                                                       SYS / PHASE SHIFT   
C L6I                                                       SYS / PHASE SHIFT   
C L5X  0.00000                                              SYS / PHASE SHIFT   
C L1X  0.00000                                              SYS / PHASE SHIFT   
C L7D                                                       SYS / PHASE SHIFT   
Q L1C                                                       SYS / PHASE SHIFT   
Q L1X  0.00000                                              SYS / PHASE SHIFT   
Q L1Z  0.00000                                              SYS / PHASE SHIFT   
Q L2X  0.00000                                              SYS / PHASE SHIFT   
Q L5I                                                       SYS / PHASE SHIFT   
Q L6Z  0.00000                                              SYS / PHASE SHIFT   
DBHZ                                                        SIGNAL STRENGTH UNIT
 C1C    0.000 C1P    0.000 C2C    0.000 C2P    0.000        GLONASS COD/PHS/BIS 
 26 R01  1 R02 -4 R03  5 R04  6 R05  1 R06 -4 R07  5 R08  6 GLONASS SLOT / FRQ #
    R09 -2 R10 -7 R11  0 R12 -1 R13 -2 R14 -7 R15  0 R16 -1 GLONASS SLOT / FRQ #
    R17  4 R18 -3 R19  3 R20  2 R21  4 R22 -3 R23  3 R24  2 GLONASS SLOT / FRQ #
    R25 -5 R26 -5                                           GLONASS SLOT / FRQ #
                                                            END OF HEADER       
> 2023 01 08 10 00  0.0000000  0 43       0.000000000000
G01  21878660.530 9 114973009.794 9      2660.069 9        55.376 9                                                                  21878660.530 8 114973009.794 8      2660.069 8        52.376 8                                                                  21878669.268 8  89589329.894 8      2072.785 8        50.876 8  21878669.268 8  89589329.894 8      2072.785 8        49.376 8  21878670.137 9  85856430.650 9      1986.420 9        57.476 9
G07  20116762.409 9 105714215.725 9       377.005 9        56.099 9                                                                  20116762.409 8 105714215.725 8       377.005 8        53.099 8                                                                  20116765.427 8  82374683.441 8       293.771 8        51.599 8  20116765.427 8  82374683.441 8       293.771 8        50.099 8  20116768.768 9  78942408.867 9       281.530 9        58.199 9
G13  24828560.268 9 130474721.793 9      2436.885 9        54.257 9                                                                  24828560.268 8 130474721.793 8      2436.885 8        51.257 8                                                                  24828572.971 8 101668543.877 8      1898.878 8        49.757 8  24828572.971 8 101668543.877 8      1898.878 8        48.257 8  24828578.612 9  97432350.130 9      1819.759 9        56.357 9
G17  22600567.767 9 118766627.159 9      2677.305 9        55.042 9                                                                  22600567.767 8 118766627.159 8      2677.305 8        52.042 8                                                                  22600575.329 8  92545375.043 8      2086.218 8        50.542 8  22600575.329 8  92545375.043 8      2086.218 8        49.042 8  22600579.697 9  88689317.620 9      1999.293 9        57.142 9
G09  23410678.529 9 123023771.649 9     -3123.054 9        54.843 9                                                                  23410678.529 8 123023771.649 8     -3123.054 8        51.843 8                                                                  23410689.443 8  95862635.997 8     -2433.554 8        50.343 8  23410689.443 8  95862635.997 8     -2433.554 8        48.843 8  23410691.690 9  91868349.262 9     -2332.157 9        56.943 9
G21  21419863.489 9 112562030.021 9       103.118 9        55.569 9                                                                  21419863.489 8 112562030.021 8       103.118 8        52.569 8                                                                  21419868.417 8  87710636.290 8        80.353 8        51.069 8  21419868.417 8  87710636.290 8        80.353 8        49.569 8  21419871.968 9  84056028.104 9        77.005 9        57.669 9
G08  22285836.993 9 117112734.989 9     -2972.229 9        55.255 9                                                                  22285836.993 8 117112734.989 8     -2972.229 8        52.255 8                                                                  22285845.918 8  91256648.204 8     -2316.026 8        50.755 8  22285845.918 8  91256648.204 8     -2316.026 8        49.255 8  22285846.719 9  87454276.923 9     -2219.526 9        57.355 9
G30  21492549.906 9 112944007.609 9      2305.480 9        55.623 9                                                                  21492549.906 8 112944007.609 8      2305.480 8        52.623 8                                                                  21492557.059 8  88008294.246 8      1796.481 8        51.123 8  21492557.059 8  88008294.246 8      1796.481 8        49.623 8  21492557.791 9  84341273.444 9      1721.628 9        57.723 9
G14  22588789.323 9 118704748.401 9      1767.054 9        55.132 9                                                                  22588789.323 8 118704748.401 8      1767.054 8        52.132 8                                                                  22588796.448 8  92497164.799 8      1376.929 8        50.632 8  22588796.448 8  92497164.799 8      1376.929 8        49.132 8  22588799.942 9  88643114.605 9      1319.558 9        57.232 9
R02  23252075.488 8 124077310.616 8     -2989.957 8        53.503 8  23252075.488 8 124077310.616 8     -2989.957 8        53.503 8  23252088.925 7  96504519.156 7     -2325.529 7        47.503 7  23252088.925 7  96504519.156 7     -2325.529 7        47.503 7                                                                                                                                                                                                                                                                                                                                                                                                                                                                
R11  22008964.676 8 117609081.457 8     -1778.241 8        53.977 8  22008964.676 8 117609081.457 8     -1778.241 8        53.977 8  22008974.011 7  91473691.225 7     -1383.079 7        47.977 7  22008974.011 7  91473691.225 7     -1383.079 7        47.977 7                                                                                                                                                                                                                                                                                                                                                                                                                                                                
R22  19692938.396 9 105122152.003 9      -544.529 9        54.935 9  19692938.396 9 105122152.003 9      -544.529 9        54.935 9  19692943.933 8  81761650.791 8      -423.522 8        48.935 8  19692943.933 8  81761650.791 8      -423.522 8        48.935 8                                                                                                                                                                                                                                                                                                                                                                                                                                                                
R12  20176762.834 9 107780546.001 9       863.021 9        54.731 9  20176762.834 9 107780546.001 9       863.021 9        54.731 9  20176768.915 8  83829288.293 8       671.240 8        48.731 8  20176768.915 8  83829288.293 8       671.240 8        48.731 8                                                                                                                                                                                                                                                                                                                                                                                                                                                                
R21  22438927.182 8 120075071.558 8     -3581.893 8        53.853 8  22438927.182 8 120075071.558 8     -3581.893 8        53.853 8  22438936.969 7  93391681.588 7     -2785.921 7        47.853 7  22438936.969 7  93391681.588 7     -2785.921 7        47.853 7                                                                                                                                                                                                                                                                                                                                                                                                                                                                
R03  23289254.031 8 124668987.228 8      -796.865 8        53.479 8  23289254.031 8 124668987.228 8      -796.865 8        53.479 8  23289267.027 7  96964713.739 7      -619.786 7        47.479 7  23289267.027 7  96964713.739 7      -619.786 7        47.479 7                                                                                                                                                                                                                                                                                                                                                                                                                                                                
R23  21019372.153 9 112439342.392 9      3727.864 9        54.386 9  21019372.153 9 112439342.392 9      3727.864 9        54.386 9  21019379.798 8  87452790.052 8      2899.456 8        48.386 8  21019379.798 8  87452790.052 8      2899.456 8        48.386 8                                                                                                                                                                                                                                                                                                                                                                                                                                                                
R13  22168172.059 8 118376640.226 8      2681.104 8        53.920 8  22168172.059 8 118376640.226 8      2681.104 8        53.920 8  22168181.952 7  92070679.087 7      2085.308 7        47.920 7  22168181.952 7  92070679.087 7      2085.308 7        47.920 7                                                                                                                                                                                                                                                                                                                                                                                                                                                                
E05                                                                  28157149.068 9 147966709.952 9      1297.128 9        56.335 9  28157149.068 9 147966709.952 9      1297.128 9        56.335 9  28157158.093 9 110494593.041 9       968.636 9        56.195 9  28157158.093 9 110494593.041 9       968.636 9        56.195 9  28157157.176 9 113377064.380 9       993.904 9        56.195 9  28157157.176 9 113377064.380 9       993.904 9        56.195 9  28157157.625 9 111935828.722 9       981.270 9        59.205 9  28157157.625 9 111935828.722 9       981.270 9        59.205 9                                                                                                                                                                                                
E12                                                                  27303942.004 9 143482954.193 9      3068.862 9        56.628 9  27303942.004 9 143482954.193 9      3068.862 9        56.628 9  27303956.887 9 107146284.370 9      2291.694 9        56.488 9  27303956.887 9 107146284.370 9      2291.694 9        56.488 9  27303954.922 9 109941412.747 9      2351.476 9        56.488 9  27303954.922 9 109941412.747 9      2351.476 9        56.488 9  27303955.885 9 108543848.584 9      2321.585 9        59.498 9  27303955.885 9 108543848.584 9      2321.585 9        59.498 9                                                                                                                                                                                                
E14                                                                  20595946.787 9 108232355.092 9     -1538.141 9        58.512 9  20595946.787 9 108232355.092 9     -1538.141 9        58.512 9  20595951.731 9  80822837.081 9     -1148.614 9        58.372 9  20595951.731 9  80822837.081 9     -1148.614 9        58.372 9  20595951.082 9  82931261.532 9     -1178.577 9        58.372 9  20595951.082 9  82931261.532 9     -1178.577 9        58.372 9  20595951.400 9  81877049.315 9     -1163.595 9        61.383 9  20595951.400 9  81877049.315 9     -1163.595 9        61.383 9                                                                                                                                                                                                
E31                                                                  24476225.834 9 128623376.642 9       697.084 9        57.596 9  24476225.834 9 128623376.642 9       697.084 9        57.596 9  24476231.449 9  96049911.643 9       520.551 9        57.456 9  24476231.449 9  96049911.643 9       520.551 9        57.456 9  24476230.950 9  98555563.521 9       534.130 9        57.456 9  24476230.950 9  98555563.521 9       534.130 9        57.456 9  24476231.194 9  97302737.588 9       527.340 9        60.467 9  24476231.194 9  97302737.588 9       527.340 9        60.467 9                                                                                                                                                                                                
E26                                                                  26144442.976 9 137389898.678 9      -614.540 9        57.156 9  26144442.976 9 137389898.678 9      -614.540 9        57.156 9  26144447.695 9 102596326.132 9      -458.909 9        57.016 9  26144447.695 9 102596326.132 9      -458.909 9        57.016 9  26144447.040 9 105272754.669 9      -470.880 9        57.016 9  26144447.040 9 105272754.669 9      -470.880 9        57.016 9  26144447.361 9 103934540.409 9      -464.895 9        60.026 9  26144447.361 9 103934540.409 9      -464.895 9        60.026 9                                                                                                                                                                                                
E04                                                                  26153702.042 9 137438463.773 9     -2559.973 9        56.969 9  26153702.042 9 137438463.773 9     -2559.973 9        56.969 9  26153714.064 9 102632566.657 9     -1911.675 9        56.829 9  26153714.064 9 102632566.657 9     -1911.675 9        56.829 9  26153712.625 9 105309943.758 9     -1961.544 9        56.829 9  26153712.625 9 105309943.758 9     -1961.544 9        56.829 9  26153713.331 9 103971255.226 9     -1936.610 9        59.840 9  26153713.331 9 103971255.226 9     -1936.610 9        59.840 9                                                                                                                                                                                                
E01                                                                  25176327.181 9 132302423.375 9      -908.417 9        57.358 9  25176327.181 9 132302423.375 9      -908.417 9        57.358 9  25176332.438 9  98797244.011 9      -678.364 9        57.218 9  25176332.438 9  98797244.011 9      -678.364 9        57.218 9  25176331.848 9 101374565.797 9      -696.061 9        57.218 9  25176331.848 9 101374565.797 9      -696.061 9        57.218 9  25176332.138 9 100085904.912 9      -687.213 9        60.229 9  25176332.138 9 100085904.912 9      -687.213 9        60.229 9                                                                                                                                                                                                
E09                                                                  25972398.371 9 136485777.901 9      -863.269 9        57.106 9  25972398.371 9 136485777.901 9      -863.269 9        57.106 9  25972406.226 9 101921171.303 9      -644.651 9        56.966 9  25972406.226 9 101921171.303 9      -644.651 9        56.966 9  25972405.397 9 104579987.804 9      -661.468 9        56.966 9  25972405.397 9 104579987.804 9      -661.468 9        56.966 9  25972405.804 9 103250579.564 9      -653.060 9        59.977 9  25972405.804 9 103250579.564 9      -653.060 9        59.977 9                                                                                                                                                                                                
E33                                                                  24781506.358 9 130227605.563 9      1840.273 9        57.482 9  24781506.358 9 130227605.563 9      1840.273 9        57.482 9  24781512.269 9  97247857.558 9      1374.234 9        57.342 9  24781512.269 9  97247857.558 9      1374.234 9        57.342 9  24781511.504 9  99784761.271 9      1410.083 9        57.342 9  24781511.504 9  99784761.271 9      1410.083 9        57.342 9  24781511.879 9  98516309.424 9      1392.159 9        60.352 9  24781511.879 9  98516309.424 9      1392.159 9        60.352 9                                                                                                                                                                                                
E24                                                                  27609683.448 9 145089751.276 9      1596.806 9        56.595 9  27609683.448 9 145089751.276 9      1596.806 9        56.595 9  27609691.594 9 108346206.961 9      1192.425 9        56.455 9  27609691.594 9 108346206.961 9      1192.425 9        56.455 9  27609690.613 9 111172633.701 9      1223.531 9        56.455 9  27609690.613 9 111172633.701 9      1223.531 9        56.455 9  27609691.094 9 109759420.343 9      1207.978 9        59.465 9  27609691.094 9 109759420.343 9      1207.978 9        59.465 9                                                                                                                                                                                                
Q02  39869790.823 9 209517048.332 9       789.973 9        55.862 9  39869790.823 9 209517048.332 9       789.973 9        57.367 9  39869790.823 8 209517048.332 8       789.973 8        53.362 8  39869797.998 9 163260008.280 9       615.564 9        54.362 9  39869799.621 9 156457501.566 9       589.915 9        56.462 9                                                                
Q03  39143187.989 9 205698735.151 9      -454.101 9        56.021 9  39143187.989 9 205698735.151 9      -454.101 9        57.526 9  39143187.989 8 205698735.151 8      -454.101 8        53.521 8  39143194.520 9 160284701.949 9      -353.844 9        54.521 9  39143195.997 9 153606166.905 9      -339.100 9        56.621 9                                                                
Q04  38096997.072 9 200200819.260 9      -267.424 9        56.251 9  38096997.072 9 200200819.260 9      -267.424 9        57.756 9  38096997.072 8 200200819.260 8      -267.424 8        53.751 8  38097012.559 9 156000574.967 9      -208.380 9        54.751 9  38097016.062 9 149500537.264 9      -199.697 9        56.851 9                                                                
Q07  37729001.469 9 198267119.161 9        -4.485 9        56.342 9  37729001.469 9 198267119.161 9        -4.485 9        57.847 9  37729001.469 8 198267119.161 8        -4.485 8        53.842 8  37729008.963 9 154493828.398 9        -3.494 9        54.842 9  37729010.659 9 148056578.896 9        -3.349 9        56.942 9                                                                
C01  38742478.436 8 201742045.348 8       -14.150 8        51.550 8  38742490.188 8 155999686.614 8       -10.941 8        51.550 8  38742490.053 8 163931900.013 8       -11.497 8        51.550 8                                                                                                                                  38742466.730 9 155999805.214 9       -10.941 9        54.550 9
C02  36970253.042 8 192513673.324 8         1.419 8        52.024 8  36970257.143 8 148863729.913 8         1.098 8        52.024 8  36970259.338 8 156433098.849 8         1.154 8        52.024 8                                                                                                                                  36970243.651 9 148863818.523 9         1.098 9        55.024 9
C07  36182601.436 8 188412189.908 8      -243.857 8        52.201 8  36182604.390 8 145692211.245 8      -188.566 8        52.201 8  36182602.411 8 153100295.621 8      -198.154 8        52.201 8  36182589.072 9 141988229.733 9      -183.771 9        58.201 9  36182587.847 9 190140766.254 9      -246.094 9        55.201 9  36182588.933 9 145692271.069 9      -188.566 9        55.201 9
C20  26267758.216 8 136782765.177 8     -1977.069 8        51.193 8  26267780.491 8 105769020.993 8     -1528.803 8        51.193 8  26267769.383 8 111147104.081 8     -1606.537 8        51.193 8  26267729.657 9 103080131.454 9     -1489.936 9        57.193 9  26267725.037 9 138037765.532 9     -1995.207 9        54.193 9  26267729.133 9 105769180.473 9     -1528.803 9        54.193 9
C27  22998587.953 8 119759532.478 8      2553.181 8        52.415 8  22998597.654 8  92605628.252 8      1974.287 8        52.415 8  22998596.665 8  97314404.107 8      2074.674 8        52.415 8  22998579.704 9  90251328.430 9      1924.094 9        58.415 9  22998577.541 9 120858312.047 9      2576.605 9        55.415 9  22998579.459 9  92605711.899 9      1974.287 9        55.415 9
C10  36419775.396 8 189647216.984 8      -153.609 8        52.145 8  36419781.616 8 146647225.687 8      -118.780 8        52.145 8  36419779.068 8 154103867.708 8      -124.820 8        52.145 8  36419765.748 9 142918961.836 9      -115.760 9        58.145 9  36419764.517 9 191387137.974 9      -155.019 9        55.145 9  36419765.609 9 146647283.142 9      -118.780 9        55.145 9
C09  36213838.326 8 188574836.326 8      -852.079 8        52.185 8  36213845.310 8 145817989.620 8      -658.882 8        52.185 8  36213842.335 8 153232466.869 8      -692.384 8        52.185 8  36213828.303 9 142110810.632 9      -642.131 9        58.185 9  36213826.596 9 190304920.598 9      -859.896 9        55.185 9  36213828.109 9 145818049.950 9      -658.882 9        55.185 9
C23  23874638.452 8 124321342.514 8     -1670.716 8        52.195 8  23874649.110 8  96133105.296 8     -1291.906 8        52.195 8  23874639.801 8 101021211.090 8     -1357.596 8        52.195 8  23874620.825 9  93689100.882 9     -1259.061 9        58.195 9  23874618.601 9 125461938.084 9     -1686.044 9        55.195 9  23874620.573 9  96133165.399 9     -1291.906 9        55.195 9
C06  37180791.420 8 193609989.094 8     -1244.638 8        51.954 8  37180797.908 8 149711473.755 8      -962.435 8        51.954 8  37180796.192 8 157323933.403 8     -1011.372 8        51.954 8  37180779.529 9 145905326.204 9      -937.966 9        57.954 9  37180777.330 9 195386274.475 9     -1256.057 9        54.954 9  37180779.280 9 149711553.110 9      -962.435 9        54.954 9
C16  37491644.109 8 195228669.639 8     -1267.497 8        51.892 8  37491656.553 8 150963158.502 8      -980.111 8        51.892 8  37491652.751 8 158639255.723 8     -1029.947 8        51.892 8  37491634.976 9 147125185.947 9      -955.193 9        57.892 9  37491632.562 9 197019826.909 9     -1279.125 9        54.892 9  37491634.702 9 150963235.379 9      -980.111 9        54.892 9
> 2023 01 08 10 05  0.0000000  0 43       0.000000000000
G01  21730479.152 9 114194316.296 9      2529.384 9        55.435 9                                                                  21730479.152 8 114194316.296 8      2529.384 8        52.435 8                                                                  21730487.589 8  88982556.974 8      1970.953 8        50.935 8  21730487.589 8  88982556.974 8      1970.953 8        49.435 8  21730488.390 9  85274940.203 9      1888.830 9        57.535 9
G07  20099973.571 9 105625990.170 9       210.393 9        56.106 9                                                                  20099973.571 8 105625990.170 8       210.393 8        53.106 8                                                                  20099976.566 8  82305936.351 8       163.943 8        51.606 8  20099976.566 8  82305936.351 8       163.943 8        50.106 8  20099979.901 9  78876526.261 9       157.112 9        58.206 9
G13  24693243.314 9 129763633.614 9      2302.575 9        54.304 9                                                                  24693243.314 8 129763633.614 8      2302.575 8        51.304 8                                                                  24693255.573 8 101114451.010 8      1794.220 8        49.804 8  24693255.573 8 101114451.010 8      1794.220 8        48.304 8  24693261.114 9  96901344.860 9      1719.462 9        56.404 9
G17  22450810.211 9 117979652.891 9      2568.598 9        55.100 9                                                                  22450810.211 8 117979652.891 8      2568.598 8        52.100 8                                                                  22450817.342 8  91932150.105 8      2001.511 8        50.600 8  22450817.342 8  91932150.105 8      2001.511 8        49.100 8  22450821.613 9  88101644.103 9      1918.116 9        57.200 9
G09  23589612.341 9 123964068.597 9     -3143.953 9        54.776 9                                                                  23589612.341 8 123964068.597 8     -3143.953 8        51.776 8                                                                  23589623.660 8  96595333.258 8     -2449.839 8        50.276 8  23589623.660 8  96595333.258 8     -2449.839 8        48.776 8  23589625.999 9  92570517.111 9     -2347.764 9        56.876 9
G21  21419542.318 9 112560343.764 9       -92.094 9        55.569 9                                                                  21419542.318 8 112560343.764 8       -92.094 8        52.569 8                                                                  21419547.153 8  87709322.704 8       -71.760 8        51.069 8  21419547.153 8  87709322.704 8       -71.760 8        49.569 8  21419550.683 9  84054769.333 9       -68.770 9        57.669 9
G08  22457038.398 9 118012400.528 9     -3024.214 9        55.189 9                                                                  22457038.398 8 118012400.528 8     -3024.214 8        52.189 8                                                                  22457047.565 8  91957685.298 8     -2356.534 8        50.689 8  22457047.565 8  91957685.298 8     -2356.534 8        49.189 8  22457048.420 9  88126103.925 9     -2258.346 9        57.289 9
G30  21363967.724 9 112268307.050 9      2197.839 9        55.676 9                                                                  21363967.724 8 112268307.050 8      2197.839 8        52.676 8                                                                  21363974.670 8  87481775.180 8      1712.604 8        51.176 8  21363974.670 8  87481775.180 8      1712.604 8        49.676 8  21363975.355 9  83836692.855 9      1641.246 9        57.776 9
G14  22488523.638 9 118177852.770 9      1745.653 9        55.171 9                                                                  22488523.638 8 118177852.770 8      1745.653 8        52.171 8                                                                  22488530.510 8  92086597.808 8      1360.252 8        50.671 8  22488530.510 8  92086597.808 8      1360.252 8        49.171 8  22488533.947 9  88249654.796 9      1303.576 9        57.271 9
R02  23421804.146 8 124983007.121 8     -3045.594 8        53.440 8  23421804.146 8 124983007.121 8     -3045.594 8        53.440 8  23421818.081 7  97208947.703 7     -2368.803 7        47.440 7  23421818.081 7  97208947.703 7     -2368.803 7        47.440 7                                                                                                                                                                                                                                                                                                                                                                                                                                                                
R11  22111455.805 8 118156760.235 8     -1873.368 8        53.936 8  22111455.805 8 118156760.235 8     -1873.368 8        53.936 8  22111465.307 7  91899662.912 7     -1457.067 7        47.936 7  22111465.307 7  91899662.912 7     -1457.067 7        47.936 7                                                                                                                                                                                                                                                                                                                                                                                                                                                                
R22  19731095.816 9 105325838.818 9      -812.687 9        54.918 9  19731095.816 9 105325838.818 9      -812.687 9        54.918 9  19731101.359 8  81920073.847 8      -632.090 8        48.918 8  19731101.359 8  81920073.847 8      -632.090 8        48.918 8                                                                                                                                                                                                                                                                                                                                                                                                                                                                
R12  20130433.459 9 107533064.403 9       785.717 9        54.751 9  20130433.459 9 107533064.403 9       785.717 9        54.751 9  20130439.442 8  83636803.014 8       611.114 8        48.751 8  20130439.442 8  83636803.014 8       611.114 8        48.751 8                                                                                                                                                                                                                                                                                                                                                                                                                                                                
R21  22643488.589 8 121169715.160 8     -3713.442 8        53.774 8  22643488.589 8 121169715.160 8     -3713.442 8        53.774 8  22643498.730 7  94243069.582 7     -2888.238 7        47.774 7  22643498.730 7  94243069.582 7     -2888.238 7        47.774 7                                                                                                                                                                                                                                                                                                                                                                                                                                                                
R03  23339598.818 8 124938484.652 8      -998.456 8        53.461 8  23339598.818 8 124938484.652 8      -998.456 8        53.461 8  23339611.945 7  97174322.298 7      -776.579 7        47.461 7  23339611.945 7  97174322.298 7      -776.579 7        47.461 7                                                                                                                                                                                                                                                                                                                                                                                                                                                                
R23  20814594.712 9 111343927.979 9      3572.699 9        54.471 9  20814594.712 9 111343927.979 9      3572.699 9        54.471 9  20814601.942 8  86600802.794 8      2778.771 8        48.471 8  20814601.942 8  86600802.794 8      2778.771 8        48.471 8                                                                                                                                                                                                                                                                                                                                                                                                                                                                
R13  22017288.590 8 117570937.425 8      2689.526 8        53.979 8  22017288.590 8 117570937.425 8      2689.526 8        53.979 8  22017298.085 7  91444023.006 7      2091.859 7        47.979 7  22017298.085 7  91444023.006 7      2091.859 7        47.979 7                                                                                                                                                                                                                                                                                                                                                                                                                                                                
E05                                                                  28086440.035 9 147595132.675 9      1179.613 9        56.357 9  28086440.035 9 147595132.675 9      1179.613 9        56.357 9  28086448.969 9 110217116.859 9       880.881 9        56.217 9  28086448.969 9 110217116.859 9       880.881 9        56.217 9  28086448.062 9 113092349.646 9       903.860 9        56.217 9  28086448.062 9 113092349.646 9       903.860 9        56.217 9  28086448.507 9 111654733.264 9       892.370 9        59.227 9  28086448.507 9 111654733.264 9       892.370 9        59.227 9                                                                                                                                                                                                
E12                                                                  27128604.141 9 142561559.594 9      3072.781 9        56.684 9  27128604.141 9 142561559.594 9      3072.781 9        56.684 9  27128618.112 9 106458233.543 9      2294.622 9        56.544 9  27128618.112 9 106458233.543 9      2294.622 9        56.544 9  27128616.250 9 109235412.350 9      2354.480 9        56.544 9  27128616.250 9 109235412.350 9      2354.480 9        56.544 9  27128617.163 9 107846822.970 9      2324.551 9        59.555 9  27128617.163 9 107846822.970 9      2324.551 9        59.555 9                                                                                                                                                                                                
E14                                                                  20691502.235 9 108734500.785 9     -1808.717 9        58.472 9  20691502.235 9 108734500.785 9     -1808.717 9        58.472 9  20691507.298 9  81197815.542 9     -1350.670 9        58.332 9  20691507.298 9  81197815.542 9     -1350.670 9        58.332 9  20691506.635 9  83316022.093 9     -1385.904 9        58.332 9  20691506.635 9  83316022.093 9     -1385.904 9        58.332 9  20691506.960 9  82256918.826 9     -1368.287 9        61.342 9  20691506.960 9  82256918.826 9     -1368.287 9        61.342 9                                                                                                                                                                                                
E31                                                                  24436604.143 9 128415164.038 9       690.945 9        57.611 9  24436604.143 9 128415164.038 9       690.945 9        57.611 9  24436609.698 9  95894428.438 9       515.966 9        57.471 9  24436609.698 9  95894428.438 9       515.966 9        57.471 9  24436609.206 9  98396024.206 9       529.426 9        57.471 9  24436609.206 9  98396024.206 9       529.426 9        57.471 9  24436609.447 9  97145226.328 9       522.696 9        60.481 9  24436609.447 9  97145226.328 9       522.696 9        60.481 9                                                                                                                                                                                                
E26                                                                  26183532.747 9 137595317.613 9      -754.649 9        57.143 9  26183532.747 9 137595317.613 9      -754.649 9        57.143 9  26183537.406 9 102749723.626 9      -563.536 9        57.003 9  26183537.406 9 102749723.626 9      -563.536 9        57.003 9  26183536.758 9 105430153.808 9      -578.237 9        57.003 9  26183536.758 9 105430153.808 9      -578.237 9        57.003 9  26183537.076 9 104089938.725 9      -570.886 9        60.013 9  26183537.076 9 104089938.725 9      -570.886 9        60.013 9                                                                                                                                                                                                
E04                                                                  26300525.984 9 138210021.745 9     -2582.652 9        56.920 9  26300525.984 9 138210021.745 9     -2582.652 9        56.920 9  26300538.538 9 103208727.989 9     -1928.611 9        56.781 9  26300538.538 9 103208727.989 9     -1928.611 9        56.781 9  26300537.038 9 105901135.630 9     -1978.922 9        56.781 9  26300537.038 9 105901135.630 9     -1978.922 9        56.781 9  26300537.774 9 104554931.829 9     -1953.767 9        59.791 9  26300537.774 9 104554931.829 9     -1953.767 9        59.791 9                                                                                                                                                                                                
E01                                                                  25228565.194 9 132576935.162 9      -921.945 9        57.340 9  25228565.194 9 132576935.162 9      -921.945 9        57.340 9  25228570.514 9  99002236.334 9      -688.466 9        57.200 9  25228570.514 9  99002236.334 9      -688.466 9        57.200 9  25228569.916 9 101584905.775 9      -706.426 9        57.200 9  25228569.916 9 101584905.775 9      -706.426 9        57.200 9  25228570.209 9 100293571.062 9      -697.446 9        60.210 9  25228570.209 9 100293571.062 9      -697.446 9        60.210 9                                                                                                                                                                                                
E09                                                                  26025089.136 9 136762667.309 9      -982.001 9        57.088 9  26025089.136 9 136762667.309 9      -982.001 9        57.088 9  26025097.175 9 102127938.646 9      -733.315 9        56.949 9  26025097.175 9 102127938.646 9      -733.315 9        56.949 9  26025096.326 9 104792149.162 9      -752.445 9        56.949 9  26025096.326 9 104792149.162 9      -752.445 9        56.949 9  26025096.742 9 103460043.915 9      -742.880 9        59.959 9  26025096.742 9 103460043.915 9      -742.880 9        59.959 9                                                                                                                                                                                                
E33                                                                  24679596.050 9 129692067.285 9      1729.096 9        57.518 9  24679596.050 9 129692067.285 9      1729.096 9        57.518 9  24679601.658 9  96847943.797 9      1291.212 9        57.378 9  24679601.658 9  96847943.797 9      1291.212 9        57.378 9  24679600.927 9  99374414.838 9      1324.895 9        57.378 9  24679600.927 9  99374414.838 9      1324.895 9        57.378 9  24679601.286 9  98111179.327 9      1308.054 9        60.388 9  24679601.286 9  98111179.327 9      1308.054 9        60.388 9                                                                                                                                                                                                
E24                                                                  27518277.232 9 144609413.060 9      1605.671 9        56.624 9  27518277.232 9 144609413.060 9      1605.671 9        56.624 9  27518285.024 9 107987514.228 9      1199.044 9        56.484 9  27518285.024 9 107987514.228 9      1199.044 9        56.484 9  27518284.083 9 110804583.604 9      1230.323 9        56.484 9  27518284.083 9 110804583.604 9      1230.323 9        56.484 9  27518284.544 9 109396048.928 9      1214.684 9        59.494 9  27518284.544 9 109396048.928 9      1214.684 9        59.494 9                                                                                                                                                                                                
Q02  39824147.458 9 209277191.476 9       808.940 9        55.872 9  39824147.458 9 209277191.476 9       808.940 9        57.377 9  39824147.458 8 209277191.476 8       808.940 8        53.372 8  39824154.594 9 163073106.996 9       630.344 9        54.372 9  39824156.208 9 156278387.871 9       604.079 9        56.472 9                                                                
Q03  39169430.011 9 205836639.096 9      -465.141 9        56.015 9  39169430.011 9 205836639.096 9      -465.141 9        57.520 9  39169430.011 8 205836639.096 8      -465.141 8        53.515 8  39169436.468 9 160392159.869 9      -362.447 9        54.515 9  39169437.928 9 153709147.477 9      -347.345 9        56.615 9                                                                
Q04  38111930.388 9 200279296.762 9      -255.749 9        56.248 9  38111930.388 9 200279296.762 9      -255.749 9        57.752 9  38111930.388 8 200279296.762 8      -255.749 8        53.748 8  38111945.728 9 156061726.871 9      -199.283 9        54.748 9  38111949.197 9 149559141.303 9      -190.979 9        56.848 9                                                                
Q07  37729256.367 9 198268459.349 9        -4.444 9        56.342 9  37729256.367 9 198268459.349 9        -4.444 9        57.847 9  37729256.367 8 198268459.349 8        -4.444 8        53.842 8  37729263.819 9 154494872.874 9        -3.463 9        54.842 9  37729265.504 9 148057579.890 9        -3.318 9        56.942 9                                                                
C03  37068445.338 8 193024984.778 8        30.469 8        51.993 8  37068451.101 8 149259114.226 8        23.562 8        51.993 8  37068451.443 8 156848579.813 8        24.760 8        51.993 8                                                                                                                                  37068436.283 9 149259193.447 9        23.562 9        54.993 9
C02  36970160.817 8 192513193.815 8         1.915 8        52.024 8  36970164.871 8 148863359.317 8         1.482 8        52.024 8  36970167.078 8 156432709.362 8         1.557 8        52.024 8                                                                                                                                  36970152.072 9 148863445.135 9         1.482 9        55.024 9
C07  36196435.576 8 188484228.273 8      -236.248 8        52.197 8  36196438.507 8 145747915.973 8      -182.682 8        52.197 8  36196436.533 8 153158832.770 8      -191.971 8        52.197 8  36196423.801 9 142042515.837 9      -178.037 9        58.197 9  36196422.331 9 190213463.714 9      -238.416 9        55.197 9  36196423.634 9 145747973.444 9      -182.682 9        55.197 9
C20  26382018.446 8 137377738.593 8     -1988.133 8        51.156 8  26382041.341 8 106229089.687 8     -1537.359 8        51.156 8  26382030.088 8 111630566.714 8     -1615.528 8        51.156 8  26381990.933 9 103528501.811 9     -1498.275 9        57.156 9  26381985.443 9 138638196.494 9     -2006.372 9        54.156 9  26381990.310 9 106229247.846 9     -1537.359 9        54.156 9
C27  22854553.367 8 119009512.733 8      2446.075 8        52.470 8  22854562.672 8  92025667.006 8      1891.465 8        52.470 8  22854561.776 8  96704952.912 8      1987.640 8        52.470 8  22854546.118 9  89686106.483 9      1843.378 9        58.470 9  22854543.774 9 120101407.088 9      2468.516 9        55.470 9  22854545.852 9  92025745.115 9      1891.465 9        55.470 9
C10  36428420.182 8 189692233.084 8      -146.333 8        52.143 8  36428426.375 8 146682035.102 8      -113.153 8        52.143 8  36428423.833 8 154140447.066 8      -118.907 8        52.143 8  36428411.128 9 142952883.828 9      -110.277 9        58.143 9  36428409.652 9 191432565.231 9      -147.675 9        55.143 9  36428410.961 9 146682090.168 9      -113.153 9        55.143 9
C09  36264298.109 8 188837592.826 8      -899.567 8        52.173 8  36264305.147 8 146021169.397 8      -695.603 8        52.173 8  36264302.159 8 153445977.875 8      -730.972 8        52.173 8  36264288.630 9 142308822.896 9      -677.918 9        58.173 9  36264286.647 9 190570086.299 9      -907.819 9        55.173 9  36264288.404 9 146021227.878 9      -695.603 9        55.173 9
C04  40367639.116 8 210204627.608 8        25.081 8        51.273 8  40367651.777 8 162543466.642 8        19.396 8        51.273 8  40367650.345 8 170808416.300 8        20.382 8        51.273 8                                                                                                                                  40367622.254 9 162543606.043 9        19.396 9        54.273 9
C06  37253564.743 8 193988937.158 8     -1281.518 8        51.937 8  37253571.342 8 150004499.988 8      -990.952 8        51.937 8  37253569.599 8 157631859.386 8     -1041.339 8        51.937 8  37253553.421 9 146190900.819 9      -965.759 9        57.937 9  37253550.897 9 195768697.842 9     -1293.275 9        54.937 9  37253553.135 9 150004577.646 9      -990.952 9        54.937 9
C16  37565702.937 8 195614311.352 8     -1303.264 8        51.875 8  37565715.512 8 151261360.608 8     -1007.768 8        51.875 8  37565711.679 8 158952620.778 8     -1059.010 8        51.875 8  37565694.391 9 147415804.855 9      -982.147 9        57.875 9  37565691.631 9 197409005.354 9     -1315.220 9        54.875 9  37565694.078 9 151261435.808 9     -1007.768 9        54.875 9
> 2023 01 08 10 10  0.0000000  0 43       0.000000000000
G01  21590076.145 9 113456498.037 9      2387.621 9        55.491 9                                                                  21590076.145 8 113456498.037 8      2387.621 8        52.491 8                                                                  21590084.304 8  88407634.796 8      1860.487 8        50.991 8  21590084.304 8  88407634.796 8      1860.487 8        49.491 8  21590085.042 9  84723973.362 9      1782.968 9        57.591 9
G07  20092823.243 9 105588415.245 9        39.436 9        56.109 9                                                                  20092823.243 8 105588415.245 8        39.436 8        53.109 8                                                                  20092826.219 8  82276657.266 8        30.729 8        51.609 8  20092826.219 8  82276657.266 8        30.729 8        50.109 8  20092829.550 9  78848467.154 9        29.449 9        58.209 9
G13  24565790.564 9 129093871.740 9      2161.447 9        54.349 9                                                                  24565790.564 8 129093871.740 8      2161.447 8        51.349 8                                                                  24565802.402 8 100592560.366 8      1684.250 8        49.849 8  24565802.402 8 100592560.366 8      1684.250 8        48.349 8  24565807.848 9  96401200.034 9      1614.074 9        56.449 9
G17  22307362.934 9 117225838.910 9      2456.308 9        55.155 9                                                                  22307362.934 8 117225838.910 8      2456.308 8        52.155 8                                                                  22307369.662 8  91344764.237 8      1914.012 8        50.655 8  22307369.662 8  91344764.237 8      1914.012 8        49.155 8  22307373.842 9  87538733.004 9      1834.262 9        57.255 9
G09  23769453.141 9 124909131.603 9     -3154.859 9        54.710 9                                                                  23769453.141 8 124909131.603 8     -3154.859 8        51.710 8                                                                  23769464.877 8  97331744.282 8     -2458.338 8        50.210 8  23769464.877 8  97331744.282 8     -2458.338 8        48.710 8  23769467.310 9  93276243.972 9     -2355.908 9        56.810 9
G21  21430395.610 9 112617379.434 9      -288.209 9        55.565 9                                                                  21430395.610 8 112617379.434 8      -288.209 8        52.565 8                                                                  21430400.370 8  87753766.394 8      -224.578 8        51.065 8  21430400.370 8  87753766.394 8      -224.578 8        49.565 8  21430403.883 9  84097361.270 9      -215.220 9        57.665 9
G08  22630977.775 9 118926454.100 9     -3068.197 9        55.122 9                                                                  22630977.775 8 118926454.100 8     -3068.197 8        52.122 8                                                                  22630987.189 8  92669933.821 8     -2390.806 8        50.622 8  22630987.189 8  92669933.821 8     -2390.806 8        49.122 8  22630988.100 9  88808675.206 9     -2291.190 9        57.222 9
G30  21241764.897 9 111626129.943 9      2082.000 9        55.726 9                                                                  21241764.897 8 111626129.943 8      2082.000 8        52.726 8                                                                  21241771.652 8  86981378.211 8      1622.341 8        51.226 8  21241771.652 8  86981378.211 8      1622.341 8        49.726 8  21241772.294 9  83357145.929 9      1554.744 9        57.826 9
G14  22389473.695 9 117657345.782 9      1724.430 9        55.209 9                                                                  22389473.695 8 117657345.782 8      1724.430 8        52.209 8                                                                  22389480.322 8  91681008.950 8      1343.715 8        50.709 8  22389480.322 8  91681008.950 8      1343.715 8        49.209 8  22389483.703 9  87860965.691 9      1287.728 9        57.309 9
R02  23594245.174 8 125903176.965 8     -3086.476 8        53.376 8  23594245.174 8 125903176.965 8     -3086.476 8        53.376 8  23594259.631 7  97924633.196 7     -2400.600 7        47.376 7  23594259.631 7  97924633.196 7     -2400.600 7        47.376 7                                                                                                                                                                                                                                                                                                                                                                                                                                                                
R11  22219350.566 8 118733314.197 8     -1970.682 8        53.894 8  22219350.566 8 118733314.197 8     -1970.682 8        53.894 8  22219360.248 7  92348093.027 7     -1532.755 7        47.894 7  22219360.248 7  92348093.027 7     -1532.755 7        47.894 7                                                                                                                                                                                                                                                                                                                                                                                                                                                                
R22  19784192.635 9 105609272.885 9     -1075.943 9        54.895 9  19784192.635 9 105609272.885 9     -1075.943 9        54.895 9  19784198.199 8  82140522.475 8      -836.845 8        48.895 8  19784198.199 8  82140522.475 8      -836.845 8        48.895 8                                                                                                                                                                                                                                                                                                                                                                                                                                                                
R12  20088640.959 9 107309817.859 9       701.427 9        54.769 9  20088640.959 9 107309817.859 9       701.427 9        54.769 9  20088646.850 8  83463167.193 8       545.556 8        48.769 8  20088646.850 8  83463167.193 8       545.556 8        48.769 8                                                                                                                                                                                                                                                                                                                                                                                                                                                                
R21  22855032.452 8 122301723.119 8     -3830.989 8        53.693 8  22855032.452 8 122301723.119 8     -3830.989 8        53.693 8  22855042.958 7  95123518.697 7     -2979.663 7        47.693 7  22855042.958 7  95123518.697 7     -2979.663 7        47.693 7                                                                                                                                                                                                                                                                                                                                                                                                                                                                
R03  23401006.734 8 125267203.336 8     -1191.515 8        53.438 8  23401006.734 8 125267203.336 8     -1191.515 8        53.438 8  23401020.026 7  97429991.700 7      -926.736 7        47.438 7  23401020.026 7  97429991.700 7      -926.736 7        47.438 7                                                                                                                                                                                                                                                                                                                                                                                                                                                                
R23  20618892.822 9 110297061.025 9      3404.287 9        54.553 9  20618892.822 9 110297061.025 9      3404.287 9        54.553 9  20618899.673 8  85786574.515 8      2647.784 8        48.553 8  20618899.673 8  85786574.515 8      2647.784 8        48.553 8                                                                                                                                                                                                                                                                                                                                                                                                                                                                
R13  21866065.336 9 116763420.020 9      2693.112 9        54.039 9  21866065.336 9 116763420.020 9      2693.112 9        54.039 9  21866074.444 8  90815955.521 8      2094.648 8        48.039 8  21866074.444 8  90815955.521 8      2094.648 8        48.039 8                                                                                                                                                                                                                                                                                                                                                                                                                                                                
E05                                                                  28022512.785 9 147259193.774 9      1059.600 9        56.376 9  28022512.785 9 147259193.774 9      1059.600 9        56.376 9  28022521.639 9 109966253.709 9       791.261 9        56.237 9  28022521.639 9 109966253.709 9       791.261 9        56.237 9  28022520.741 9 112834942.204 9       811.902 9        56.237 9  28022520.741 9 112834942.204 9       811.902 9        56.237 9  28022521.181 9 111400597.968 9       801.582 9        59.247 9  28022521.181 9 111400597.968 9       801.582 9        59.247 9                                                                                                                                                                                                
E12                                                                  26953226.050 9 141639954.338 9      3070.260 9        56.741 9  26953226.050 9 141639954.338 9      3070.260 9        56.741 9  26953239.052 9 105770025.627 9      2292.739 9        56.601 9  26953239.052 9 105770025.627 9      2292.739 9        56.601 9  26953237.300 9 108529250.741 9      2352.548 9        56.601 9  26953237.300 9 108529250.741 9      2352.548 9        56.601 9  26953238.159 9 107149638.206 9      2322.644 9        59.611 9  26953238.159 9 107149638.206 9      2322.644 9        59.611 9                                                                                                                                                                                                
E14                                                                  20802355.481 9 109317037.061 9     -2073.870 9        58.426 9  20802355.481 9 109317037.061 9     -2073.870 9        58.426 9  20802360.655 9  81632825.963 9     -1548.670 9        58.286 9  20802360.655 9  81632825.963 9     -1548.670 9        58.286 9  20802359.980 9  83762380.663 9     -1589.070 9        58.286 9  20802359.980 9  83762380.663 9     -1589.070 9        58.286 9  20802360.311 9  82697603.322 9     -1568.870 9        61.296 9  20802360.311 9  82697603.322 9     -1568.870 9        61.296 9                                                                                                                                                                                                
E31                                                                  24397345.092 9 128208857.020 9       684.345 9        57.625 9  24397345.092 9 128208857.020 9       684.345 9        57.625 9  24397350.595 9  95740368.207 9       511.038 9        57.485 9  24397350.595 9  95740368.207 9       511.038 9        57.485 9  24397350.109 9  98237944.988 9       524.369 9        57.485 9  24397350.109 9  98237944.988 9       524.369 9        57.485 9  24397350.347 9  96989156.603 9       517.703 9        60.495 9  24397350.347 9  96989156.603 9       517.703 9        60.495 9                                                                                                                                                                                                
E26                                                                  26230570.935 9 137842506.049 9      -892.924 9        57.127 9  26230570.935 9 137842506.049 9      -892.924 9        57.127 9  26230575.511 9 102934312.717 9      -666.793 9        56.987 9  26230575.511 9 102934312.717 9      -666.793 9        56.987 9  26230574.872 9 105619558.229 9      -684.188 9        56.987 9  26230574.872 9 105619558.229 9      -684.188 9        56.987 9  26230575.186 9 104276935.481 9      -675.490 9        59.997 9  26230575.186 9 104276935.481 9      -675.490 9        59.997 9                                                                                                                                                                                                
E04                                                                  26448450.124 9 138987361.050 9     -2598.526 9        56.872 9  26448450.124 9 138987361.050 9     -2598.526 9        56.872 9  26448463.229 9 103789206.478 9     -1940.466 9        56.732 9  26448463.229 9 103789206.478 9     -1940.466 9        56.732 9  26448461.667 9 106496757.287 9     -1991.085 9        56.732 9  26448461.667 9 106496757.287 9     -1991.085 9        56.732 9  26448462.433 9 105142981.903 9     -1965.775 9        59.742 9  26448462.433 9 105142981.903 9     -1965.775 9        59.742 9                                                                                                                                                                                                
E01                                                                  25281623.869 9 132855759.742 9      -937.186 9        57.322 9  25281623.869 9 132855759.742 9      -937.186 9        57.322 9  25281629.238 9  99210449.304 9      -699.847 9        57.182 9  25281629.238 9  99210449.304 9      -699.847 9        57.182 9  25281628.635 9 101798550.410 9      -718.104 9        57.182 9  25281628.635 9 101798550.410 9      -718.104 9        57.182 9  25281628.931 9 100504499.865 9      -708.975 9        60.192 9  25281628.931 9 100504499.865 9      -708.975 9        60.192 9                                                                                                                                                                                                
E09                                                                  26084439.207 9 137074551.349 9     -1096.505 9        57.068 9  26084439.207 9 137074551.349 9     -1096.505 9        57.068 9  26084447.448 9 102360838.271 9      -818.822 9        56.929 9  26084447.448 9 102360838.271 9      -818.822 9        56.929 9  26084446.576 9 105031124.521 9      -840.182 9        56.929 9  26084446.576 9 105031124.521 9      -840.182 9        56.929 9  26084447.004 9 103695981.407 9      -829.502 9        59.939 9  26084447.004 9 103695981.407 9      -829.502 9        59.939 9                                                                                                                                                                                                
E33                                                                  24584186.110 9 129190688.220 9      1612.599 9        57.552 9  24584186.110 9 129190688.220 9      1612.599 9        57.552 9  24584191.450 9  96473538.405 9      1204.217 9        57.412 9  24584191.450 9  96473538.405 9      1204.217 9        57.412 9  24584190.750 9  98990242.226 9      1235.631 9        57.412 9  24584190.750 9  98990242.226 9      1235.631 9        57.412 9  24584191.093 9  97731890.324 9      1219.924 9        60.422 9  24584191.093 9  97731890.324 9      1219.924 9        60.422 9                                                                                                                                                                                                
E24                                                                  27426332.852 9 144126246.532 9      1615.639 9        56.653 9  27426332.852 9 144126246.532 9      1615.639 9        56.653 9  27426340.308 9 107626709.373 9      1206.488 9        56.513 9  27426340.308 9 107626709.373 9      1206.488 9        56.513 9  27426339.405 9 110434366.295 9      1237.961 9        56.513 9  27426339.405 9 110434366.295 9      1237.961 9        56.513 9  27426339.848 9 109030537.845 9      1222.224 9        59.524 9  27426339.848 9 109030537.845 9      1222.224 9        59.524 9                                                                                                                                                                                                
Q02  39777445.276 9 209031770.518 9       827.062 9        55.882 9  39777445.276 9 209031770.518 9       827.062 9        57.387 9  39777445.276 8 209031770.518 8       827.062 8        53.382 8  39777452.371 9 162881870.054 9       644.464 9        54.382 9  39777453.975 9 156095119.172 9       617.612 9        56.482 9                                                                
Q03  39196283.183 9 205977754.630 9      -475.507 9        56.009 9  39196283.183 9 205977754.630 9      -475.507 9        57.514 9  39196283.183 8 205977754.630 8      -475.507 8        53.509 8  39196289.568 9 160502120.319 9      -370.524 9        54.509 9  39196291.012 9 153814526.305 9      -355.085 9        56.609 9                                                                
Q04  38126198.404 9 200354278.233 9      -244.122 9        56.244 9  38126198.404 9 200354278.233 9      -244.122 9        57.749 9  38126198.404 8 200354278.233 8      -244.122 8        53.744 8  38126213.588 9 156120154.632 9      -190.223 9        54.744 9  38126217.022 9 149615134.712 9      -182.296 9        56.844 9                                                                
Q07  37729508.867 9 198269786.958 9        -4.401 9        56.342 9  37729508.867 9 198269786.958 9        -4.401 9        57.847 9  37729508.867 8 198269786.958 8        -4.401 8        53.842 8  37729516.275 9 154495907.555 9        -3.429 9        54.842 9  37729517.950 9 148058571.498 9        -3.286 9        56.942 9                                                                
C03  37066670.060 8 193015741.315 8        31.157 8        51.993 8  37066675.767 8 149251966.821 8        24.093 8        51.993 8  37066676.123 8 156841068.925 8        25.318 8        51.993 8                                                                                                                                  37066661.108 9 149252045.402 9        24.093 9        54.993 9
C28  21817679.512 8 113610272.777 8      -518.498 8        52.875 8  21817686.602 8  87850641.095 8      -400.935 8        52.875 8  21817686.136 8  92317634.966 8      -421.322 8        52.875 8  21817673.735 9  85617210.125 9      -390.742 9        58.875 9  21817672.157 9 114652620.113 9      -523.255 9        55.875 9  21817673.556 9  87850703.284 9      -400.935 9        55.875 9
C07  36209806.307 8 188553853.568 8      -227.778 8        52.194 8  36209809.213 8 145801754.769 8      -176.132 8        52.194 8  36209807.245 8 153215409.107 8      -185.088 8        52.194 8  36209794.588 9 142094985.534 9      -171.654 9        58.194 9  36209793.110 9 190283727.524 9      -229.868 9        55.194 9  36209794.420 9 145801811.919 9      -176.132 9        55.194 9
C05  38003824.793 8 197895714.251 8        -1.870 8        51.762 8  38003833.263 8 153025462.981 8        -1.446 8        51.762 8  38003833.407 8 160806441.712 8        -1.519 8        51.762 8                                                                                                                                  38003813.865 9 153025563.542 9        -1.446 9        54.762 9
C08  40838704.007 8 212657524.655 8      1769.869 8        51.122 8  40838721.206 8 164440188.551 8      1368.583 8        51.122 8  40838716.533 8 172801575.873 8      1438.170 8        51.122 8  40838687.254 9 160259640.907 9      1333.789 9        57.122 9  40838679.366 9 214608604.056 9      1786.106 9        54.122 9  40838686.359 9 164440330.796 9      1368.583 9        54.122 9
C10  36436618.099 8 189734922.240 8      -138.103 8        52.141 8  36436624.263 8 146715045.183 8      -106.790 8        52.141 8  36436621.728 8 154175135.596 8      -112.220 8        52.141 8  36436609.103 9 142985054.327 9      -104.075 9        58.141 9  36436607.621 9 191475645.759 9      -139.370 9        55.141 9  36436608.935 9 146715099.900 9      -106.790 9        55.141 9
C09  36317480.686 8 189114527.561 8      -946.585 8        52.160 8  36317487.782 8 146235312.668 8      -731.960 8        52.160 8  36317484.780 8 153671009.845 8      -769.178 8        52.160 8  36317471.216 9 142517522.039 9      -713.351 9        58.160 9  36317469.190 9 190849561.894 9      -955.269 9        55.160 9  36317470.986 9 146235371.365 9      -731.960 9        55.160 9
C04  40366190.496 8 210197086.385 8        25.205 8        51.273 8  40366203.021 8 162537635.840 8        19.492 8        51.273 8  40366201.621 8 170802288.881 8        20.483 8        51.273 8                                                                                                                                  40366173.841 9 162537773.859 9        19.492 9        54.273 9
C06  37328431.489 8 194378786.162 8     -1317.299 8        51.919 8  37328438.204 8 150305955.503 8     -1018.620 8        51.919 8  37328436.434 8 157948643.261 8     -1070.414 8        51.919 8  37328420.146 9 146484692.746 9      -992.723 9        57.919 9  37328417.555 9 196162123.904 9     -1329.384 9        54.919 9  37328419.852 9 150306033.741 9     -1018.620 9        54.919 9
C13  40991453.669 8 213452919.679 8      1496.299 8        51.110 8  40991478.994 8 165055264.630 8      1157.040 8        51.110 8  40991473.111 8 173447923.498 8      1215.871 8        51.110 8  40991442.856 9 160859080.038 9      1127.625 9        57.110 9  40991434.593 9 215411333.213 9      1510.026 9        54.110 9  40991441.918 9 165055407.641 9      1157.040 9        54.110 9
> 2023 01 08 10 15  0.0000000  0 43       0.000000000000
G01  21458073.657 9 112762824.434 9      2235.153 9        55.545 9                                                                  21458073.657 8 112762824.434 8      2235.153 8        52.545 8                                                                  21458081.560 8  87867110.957 8      1741.681 8        51.045 8  21458081.560 8  87867110.957 8      1741.681 8        49.545 8  21458082.240 9  84205971.576 9      1669.111 9        57.645 9
G07  20095541.561 9 105602700.331 9      -135.231 9        56.108 9                                                                  20095541.561 8 105602700.331 8      -135.231 8        53.108 8                                                                  20095544.523 8  82287788.560 8      -105.375 8        51.608 8  20095544.523 8  82287788.560 8      -105.375 8        50.108 8  20095547.850 9  78859134.656 9      -100.984 9        58.208 9
G13  24446578.072 9 128467412.308 9      2013.972 9        54.391 9                                                                  24446578.072 8 128467412.308 8      2013.972 8        51.391 8                                                                  24446589.513 8 100104411.784 8      1569.334 8        49.891 8  24446589.513 8 100104411.784 8      1569.334 8        48.391 8  24446594.869 9  95933391.328 9      1503.946 9        56.491 9
G17  22170417.577 9 116506192.310 9      2340.890 9        55.208 9                                                                  22170417.577 8 116506192.310 8      2340.890 8        52.208 8                                                                  22170423.929 8  90784002.194 8      1824.075 8        50.708 8  22170423.929 8  90784002.194 8      1824.075 8        49.208 8  22170428.023 9  87001336.380 9      1748.073 9        57.308 9
G09  23949635.904 9 125855991.471 9     -3155.969 9        54.644 9                                                                  23949635.904 8 125855991.471 8     -3155.969 8        51.644 8                                                                  23949648.067 8  98069555.417 8     -2459.202 8        50.144 8  23949648.067 8  98069555.417 8     -2459.202 8        48.644 8  23949650.597 9  93983312.597 9     -2356.737 9        56.744 9
G21  21452448.544 9 112733269.351 9      -484.304 9        55.556 9                                                                  21452448.544 8 112733269.351 8      -484.304 8        52.556 8                                                                  21452453.244 8  87844070.469 8      -377.379 8        51.056 8  21452453.244 8  87844070.469 8      -377.379 8        49.556 8  21452456.744 9  84183902.728 9      -361.655 9        57.656 9
G08  22807206.513 9 119852538.269 9     -3104.470 9        55.054 9                                                                  22807206.513 8 119852538.269 8     -3104.470 8        52.054 8                                                                  22807216.179 8  93391556.817 8     -2419.071 8        50.554 8  22807216.179 8  93391556.817 8     -2419.071 8        49.054 8  22807217.147 9  89500230.353 9     -2318.277 9        57.154 9
G30  21126406.839 9 111019922.071 9      1958.063 9        55.773 9                                                                  21126406.839 8 111019922.071 8      1958.063 8        52.773 8                                                                  21126413.421 8  86509009.150 8      1525.766 8        51.273 8  21126413.421 8  86509009.150 8      1525.766 8        49.773 8  21126414.024 9  82904459.067 9      1462.193 9        57.873 9
G14  22291634.930 9 117143203.464 9      1703.187 9        55.247 9                                                                  22291634.930 8 117143203.464 8      1703.187 8        52.247 8                                                                  22291641.320 8  91280379.545 8      1327.162 8        50.747 8  22291641.320 8  91280379.545 8      1327.162 8        49.247 8  22291644.648 9  87477029.389 9      1271.864 9        57.347 9
R02  23768574.233 8 126833421.341 8     -3112.798 8        53.312 8  23768574.233 8 126833421.341 8     -3112.798 8        53.312 8  23768589.233 7  98648154.343 7     -2421.073 7        47.312 7  23768589.233 7  98648154.343 7     -2421.073 7        47.312 7                                                                                                                                                                                                                                                                                                                                                                                                                                                                
R11  22332760.973 8 119339341.888 8     -2069.794 8        53.850 8  22332760.973 8 119339341.888 8     -2069.794 8        53.850 8  22332770.845 7  92819447.102 7     -1609.843 7        47.850 7  22332770.845 7  92819447.102 7     -1609.843 7        47.850 7                                                                                                                                                                                                                                                                                                                                                                                                                                                                
R22  19851914.329 9 105970775.255 9     -1332.922 9        54.865 9  19851914.329 9 105970775.255 9     -1332.922 9        54.865 9  19851919.932 8  82421690.825 8     -1036.718 8        48.865 8  19851919.932 8  82421690.825 8     -1036.718 8        48.865 8                                                                                                                                                                                                                                                                                                                                                                                                                                                                
R12  20051781.462 9 107112922.419 9       610.025 9        54.785 9  20051781.462 9 107112922.419 9       610.025 9        54.785 9  20051787.269 8  83310026.644 8       474.465 8        48.785 8  20051787.269 8  83310026.644 8       474.465 8        48.785 8                                                                                                                                                                                                                                                                                                                                                                                                                                                                
R21  23072774.360 8 123466897.980 8     -3934.569 8        53.610 8  23072774.360 8 123466897.980 8     -3934.569 8        53.610 8  23072785.237 7  96029764.269 7     -3060.225 7        47.610 7  23072785.237 7  96029764.269 7     -3060.225 7        47.610 7                                                                                                                                                                                                                                                                                                                                                                                                                                                                
R03  23472973.076 8 125652441.559 8     -1375.108 8        53.411 8  23472973.076 8 125652441.559 8     -1375.108 8        53.411 8  23472986.565 7  97729620.606 7     -1069.531 7        47.411 7  23472986.565 7  97729620.606 7     -1069.531 7        47.411 7                                                                                                                                                                                                                                                                                                                                                                                                                                                                
R23  20432995.532 9 109302641.473 9      3223.140 9        54.632 9  20432995.532 9 109302641.473 9      3223.140 9        54.632 9  20433002.041 8  85013138.508 8      2506.891 8        48.632 8  20433002.041 8  85013138.508 8      2506.891 8        48.632 8                                                                                                                                                                                                                                                                                                                                                                                                                                                                
R13  21714788.879 9 115955618.318 9      2691.332 9        54.099 9  21714788.879 9 115955618.318 9      2691.332 9        54.099 9  21714797.611 8  90187666.869 8      2093.263 8        48.099 8  21714797.611 8  90187666.869 8      2093.263 8        48.099 8                                                                                                                                                                                                                                                                                                                                                                                                                                                                
E05                                                                  27965499.066 9 146959585.597 9       937.472 9        56.394 9  27965499.066 9 146959585.597 9       937.472 9        56.394 9  27965507.848 9 109742520.609 9       700.061 9        56.254 9  27965507.848 9 109742520.609 9       700.061 9        56.254 9  27965506.958 9 112605372.556 9       718.324 9        56.254 9  27965506.958 9 112605372.556 9       718.324 9        56.254 9  27965507.395 9 111173946.594 9       709.192 9        59.265 9  27965507.395 9 111173946.594 9       709.192 9        59.265 9                                                                                                                                                                                                
E12                                                                  26778177.302 9 140720079.996 9      3061.234 9        56.798 9  26778177.302 9 140720079.996 9      3061.234 9        56.798 9  26778189.321 9 105083110.336 9      2285.999 9        56.658 9  26778189.321 9 105083110.336 9      2285.999 9        56.658 9  26778187.680 9 107824415.472 9      2345.633 9        56.658 9  26778187.680 9 107824415.472 9      2345.633 9        56.658 9  26778188.485 9 106453762.925 9      2315.816 9        59.668 9  26778188.485 9 106453762.925 9      2315.816 9        59.668 9                                                                                                                                                                                                
E14                                                                  20928162.408 9 109978155.616 9     -2332.398 9        58.373 9  20928162.408 9 109978155.616 9     -2332.398 9        58.373 9  20928167.681 9  82126518.002 9     -1741.727 9        58.233 9  20928167.681 9  82126518.002 9     -1741.727 9        58.233 9  20928166.995 9  84268951.670 9     -1787.163 9        58.233 9  20928166.995 9  84268951.670 9     -1787.163 9        58.233 9  20928167.331 9  83197734.845 9     -1764.445 9        61.244 9  20928167.331 9  83197734.845 9     -1764.445 9        61.244 9                                                                                                                                                                                                
E31                                                                  24358480.850 9 128004624.629 9       677.079 9        57.639 9  24358480.850 9 128004624.629 9       677.079 9        57.639 9  24358486.309 9  95587857.177 9       505.612 9        57.499 9  24358486.309 9  95587857.177 9       505.612 9        57.499 9  24358485.828 9  98081455.390 9       518.801 9        57.499 9  24358485.828 9  98081455.390 9       518.801 9        57.499 9  24358486.064 9  96834656.289 9       512.207 9        60.509 9  24358486.064 9  96834656.289 9       512.207 9        60.509 9                                                                                                                                                                                                
E26                                                                  26285439.741 9 138130844.426 9     -1028.908 9        57.108 9  26285439.741 9 138130844.426 9     -1028.908 9        57.108 9  26285444.254 9 103149630.588 9      -768.340 9        56.968 9  26285444.254 9 103149630.588 9      -768.340 9        56.968 9  26285443.622 9 105840493.059 9      -788.384 9        56.968 9  26285443.622 9 105840493.059 9      -788.384 9        56.968 9  26285443.932 9 104495061.831 9      -778.362 9        59.979 9  26285443.932 9 104495061.831 9      -778.362 9        59.979 9                                                                                                                                                                                                
E04                                                                  26597087.170 9 139768446.475 9     -2607.638 9        56.823 9  26597087.170 9 139768446.475 9     -2607.638 9        56.823 9  26597100.843 9 104372482.327 9     -1947.270 9        56.683 9  26597100.843 9 104372482.327 9     -1947.270 9        56.683 9  26597099.216 9 107095249.287 9     -1998.067 9        56.683 9  26597099.216 9 107095249.287 9     -1998.067 9        56.683 9  26597100.014 9 105733865.828 9     -1972.668 9        59.693 9  26597100.014 9 105733865.828 9     -1972.668 9        59.693 9                                                                                                                                                                                                
E01                                                                  25335604.008 9 133139426.832 9      -954.243 9        57.303 9  25335604.008 9 133139426.832 9      -954.243 9        57.303 9  25335609.411 9  99422278.491 9      -712.585 9        57.163 9  25335609.411 9  99422278.491 9      -712.585 9        57.163 9  25335608.804 9 102015905.591 9      -731.174 9        57.163 9  25335608.804 9 102015905.591 9      -731.174 9        57.163 9  25335609.101 9 100719092.049 9      -721.879 9        60.173 9  25335609.101 9 100719092.049 9      -721.879 9        60.173 9                                                                                                                                                                                                
E09                                                                  26150196.703 9 137420106.401 9     -1206.417 9        57.046 9  26150196.703 9 137420106.401 9     -1206.417 9        57.046 9  26150205.165 9 102618881.762 9      -900.899 9        56.906 9  26150205.165 9 102618881.762 9      -900.899 9        56.906 9  26150204.267 9 105295899.683 9      -924.400 9        56.906 9  26150204.267 9 105295899.683 9      -924.400 9        56.906 9  26150204.707 9 103957390.734 9      -912.650 9        59.917 9  26150204.707 9 103957390.734 9      -912.650 9        59.917 9                                                                                                                                                                                                
E33                                                                  24495570.223 9 128725011.753 9      1491.138 9        57.583 9  24495570.223 9 128725011.753 9      1491.138 9        57.583 9  24495575.325 9  96125793.927 9      1113.515 9        57.443 9  24495575.325 9  96125793.927 9      1113.515 9        57.443 9  24495574.652 9  98633426.045 9      1142.563 9        57.443 9  24495574.652 9  98633426.045 9      1142.563 9        57.443 9  24495574.982 9  97379609.994 9      1128.039 9        60.454 9  24495574.982 9  97379609.994 9      1128.039 9        60.454 9                                                                                                                                                                                                
E24                                                                  27333790.910 9 143639939.496 9      1626.583 9        56.683 9  27333790.910 9 143639939.496 9      1626.583 9        56.683 9  27333798.052 9 107263559.244 9      1214.660 9        56.543 9  27333798.052 9 107263559.244 9      1214.660 9        56.543 9  27333797.185 9 110061742.541 9      1246.347 9        56.543 9  27333797.185 9 110061742.541 9      1246.347 9        56.543 9  27333797.611 9 108662650.904 9      1230.504 9        59.553 9  27333797.611 9 108662650.904 9      1230.504 9        59.553 9                                                                                                                                                                                                
Q02  39729733.541 9 208781044.346 9       844.303 9        55.893 9  39729733.541 9 208781044.346 9       844.303 9        57.398 9  39729733.541 8 208781044.346 8       844.303 8        53.393 8  39729740.594 9 162686499.184 9       657.899 9        54.393 9  39729742.189 9 155907888.792 9       630.487 9        56.493 9                                                                
Q03  39223708.208 9 206121875.247 9      -485.171 9        56.003 9  39223708.208 9 206121875.247 9      -485.171 9        57.508 9  39223708.208 8 206121875.247 8      -485.171 8        53.503 8  39223714.523 9 160614422.385 9      -378.055 9        54.503 9  39223715.951 9 153922149.180 9      -362.302 9        56.603 9                                                                
Q04  38139804.866 9 200425783.348 9      -232.578 9        56.241 9  38139804.866 9 200425783.348 9      -232.578 9        57.746 9  38139804.866 8 200425783.348 8      -232.578 8        53.741 8  38139819.884 9 156175873.578 9      -181.228 9        54.741 9  38139823.281 9 149668532.182 9      -173.676 9        56.841 9                                                                
Q07  37729758.844 9 198271101.329 9        -4.356 9        56.342 9  37729758.844 9 198271101.329 9        -4.356 9        57.847 9  37729758.844 8 198271101.329 8        -4.356 8        53.842 8  37729766.207 9 154496931.925 9        -3.394 9        54.842 9  37729767.872 9 148059553.226 9        -3.252 9        56.942 9                                                                
C03  37064855.619 8 193006293.942 8        31.829 8        51.994 8  37064861.268 8 149244661.746 8        24.613 8        51.994 8  37064861.637 8 156833392.348 8        25.864 8        51.994 8                                                                                                                                  37064846.770 9 149244739.679 9        24.613 9        54.994 9
C28  21851999.114 8 113788984.146 8      -672.342 8        52.862 8  21852006.191 8  87988832.114 8      -519.898 8        52.862 8  21852005.728 8  92462852.634 8      -546.333 8        52.862 8  21851993.357 9  85751887.681 9      -506.680 9        58.862 9  21851991.778 9 114832970.932 9      -678.511 9        55.862 9  21851993.178 9  87988894.168 9      -519.898 9        55.862 9
C07  36222665.377 8 188620814.535 8      -218.494 8        52.191 8  36222668.255 8 145853533.345 8      -168.953 8        52.191 8  36222666.294 8 153269820.465 8      -177.544 8        52.191 8  36222653.714 9 142145447.376 9      -164.658 9        58.191 9  36222652.229 9 190351302.552 9      -220.499 9        55.191 9  36222653.546 9 145853590.160 9      -168.953 9        55.191 9
C05  38003907.556 8 197896146.122 8        -1.003 8        51.762 8  38003915.968 8 153025797.165 8        -0.774 8        51.762 8  38003916.126 8 160806792.830 8        -0.814 8        51.762 8                                                                                                                                  38003896.750 9 153025897.002 9        -0.774 9        54.762 9
C08  40735782.631 8 212121595.035 8      1802.700 8        51.144 8  40735799.250 8 164025776.111 8      1393.970 8        51.144 8  40735794.713 8 172366091.036 8      1464.848 8        51.144 8  40735766.239 9 159855760.685 9      1358.531 9        57.144 9  40735758.574 9 214067754.588 9      1819.238 9        54.144 9  40735765.369 9 164025914.466 9      1393.970 9        54.144 9
C10  36444315.469 8 189775004.937 8      -128.963 8        52.140 8  36444321.602 8 146746039.791 8       -99.722 8        52.140 8  36444319.074 8 154207706.171 8      -104.793 8        52.140 8  36444306.532 9 143015260.584 9       -97.187 9        58.140 9  36444305.043 9 191516095.908 9      -130.147 9        55.140 9  36444306.363 9 146746094.149 9       -99.722 9        55.140 9
C09  36373356.214 8 189405485.131 8      -993.037 8        52.147 8  36373363.372 8 146460299.266 8      -767.880 8        52.147 8  36373360.357 8 153907436.501 8      -806.924 8        52.147 8  36373346.749 9 142736788.863 9      -748.358 9        58.147 9  36373344.681 9 191143189.000 9     -1002.147 9        55.147 9  36373346.514 9 146460358.213 9      -767.880 9        55.147 9
C04  40364735.112 8 210189509.979 8        25.316 8        51.274 8  40364747.497 8 162531777.846 8        19.578 8        51.274 8  40364746.129 8 170796132.884 8        20.573 8        51.274 8                                                                                                                                  40364718.663 9 162531914.470 9        19.578 9        54.274 9
C06  37405326.162 8 194779195.046 8     -1351.905 8        51.901 8  37405332.996 8 150615576.569 8     -1045.380 8        51.901 8  37405331.198 8 158274007.891 8     -1098.535 8        51.901 8  37405314.797 9 146786442.646 9     -1018.803 9        57.901 9  37405312.137 9 196566206.742 9     -1364.308 9        54.901 9  37405314.495 9 150615655.409 9     -1045.380 9        54.901 9
C13  40904190.585 8 212998526.151 8      1532.732 8        51.128 8  40904215.377 8 164703900.875 8      1185.213 8        51.128 8  40904209.619 8 173078693.261 8      1245.476 8        51.128 8  40904180.177 9 160516645.579 9      1155.081 9        57.128 9  40904172.085 9 214952767.907 9      1546.793 9        54.128 9  40904179.259 9 164704040.031 9      1185.213 9        54.128 9
> 2023 01 08 10 20  0.0000000  0 44       0.000000000000
G01  21335070.206 9 112116440.727 9      2072.434 9        55.594 9                                                                  21335070.206 8 112116440.727 8      2072.434 8        52.594 8                                                                  21335077.876 8  87363436.297 8      1614.887 8        51.094 8  21335077.876 8  87363436.297 8      1614.887 8        49.594 8  21335078.503 9  83723283.568 9      1547.601 9        57.694 9
G07  20108321.153 9 105669857.673 9      -312.930 9        56.102 9                                                                  20108321.153 8 105669857.673 8      -312.930 8        53.102 8                                                                  20108324.107 8  82340118.989 8      -243.842 8        51.602 8  20108324.107 8  82340118.989 8      -243.842 8        50.102 8  20108327.433 9  78909284.658 9      -233.682 9        58.202 9
G13  24335953.618 9 127886082.903 9      1860.669 9        54.430 9                                                                  24335953.618 8 127886082.903 8      1860.669 8        51.430 8                                                                  24335964.689 8  99651429.349 8      1449.877 8        49.930 8  24335964.689 8  99651429.349 8      1449.877 8        48.430 8  24335969.961 9  95499283.491 9      1389.466 9        56.530 9
G17  22040139.343 9 115821581.264 9      2222.814 9        55.258 9                                                                  22040139.343 8 115821581.264 8      2222.814 8        52.258 8                                                                  22040145.345 8  90250540.475 8      1732.068 8        50.758 8  22040145.345 8  90250540.475 8      1732.068 8        49.258 8  22040149.360 9  86490102.544 9      1659.899 9        57.358 9
G09  24129607.625 9 126801742.165 9     -3147.505 9        54.579 9                                                                  24129607.625 8 126801742.165 8     -3147.505 8        51.579 8                                                                  24129620.224 8  98806502.224 8     -2452.607 8        50.079 8  24129620.224 8  98806502.224 8     -2452.607 8        48.579 8  24129622.853 9  94689552.900 9     -2350.417 9        56.679 9
G21  21485673.808 9 112907870.000 9      -679.465 9        55.542 9                                                                  21485673.808 8 112907870.000 8      -679.465 8        52.542 8                                                                  21485678.464 8  87980123.102 8      -529.453 8        51.042 8  21485678.464 8  87980123.102 8      -529.453 8        49.542 8  21485681.954 9  84314286.540 9      -507.392 9        57.642 9
G08  22985293.297 9 120788386.496 9     -3133.345 9        54.987 9                                                                  22985293.297 8 120788386.496 8     -3133.345 8        51.987 8                                                                  22985303.219 8  94120788.156 8     -2441.571 8        50.487 8  22985303.219 8  94120788.156 8     -2441.571 8        48.987 8  22985304.245 9  90199076.827 9     -2339.840 9        57.087 9
G30  21018351.717 9 110452091.120 9      1826.184 9        55.818 9                                                                  21018351.717 8 110452091.120 8      1826.184 8        52.818 8                                                                  21018358.142 8  86066544.117 8      1423.002 8        51.318 8  21018358.142 8  86066544.117 8      1423.002 8        49.818 8  21018358.709 9  82480430.215 9      1363.711 9        57.918 9
G14  22195014.630 9 116635464.103 9      1681.707 9        55.285 9                                                                  22195014.630 8 116635464.103 8      1681.707 8        52.285 8                                                                  22195020.790 8  90884739.427 8      1310.424 8        50.785 8  22195020.790 8  90884739.427 8      1310.424 8        49.285 8  22195024.066 9  87097874.480 9      1255.824 9        57.385 9
R02  23943979.702 8 127769409.314 8     -3124.817 8        53.248 8  23943979.702 8 127769409.314 8     -3124.817 8        53.248 8  23943995.266 7  99376142.646 7     -2430.421 7        47.248 7  23943995.266 7  99376142.646 7     -2430.421 7        47.248 7                                                                                                                                                                                                                                                                                                                                                                                                                                                                
R11  22451776.446 8 119975321.147 8     -2170.289 8        53.804 8  22451776.446 8 119975321.147 8     -2170.289 8        53.804 8  22451786.523 7  93314096.787 7     -1688.006 7        47.804 7  22451786.523 7  93314096.787 7     -1688.006 7        47.804 7                                                                                                                                                                                                                                                                                                                                                                                                                                                                
R22  19933871.582 9 106408267.719 9     -1582.340 9        54.829 9  19933871.582 9 106408267.719 9     -1582.340 9        54.829 9  19933877.241 8  82761962.508 8     -1230.710 8        48.829 8  19933877.241 8  82761962.508 8     -1230.710 8        48.829 8                                                                                                                                                                                                                                                                                                                                                                                                                                                                
R12  20020256.734 9 106944524.236 9       511.438 9        54.798 9  20020256.734 9 106944524.236 9       511.438 9        54.798 9  20020262.464 8  83179050.599 8       397.786 8        48.798 8  20020262.464 8  83179050.599 8       397.786 8        48.798 8                                                                                                                                                                                                                                                                                                                                                                                                                                                                
R21  23295934.327 8 124661065.983 8     -4024.302 8        53.526 8  23295934.327 8 124661065.983 8     -4024.302 8        53.526 8  23295945.574 7  96958560.066 7     -3130.018 7        47.526 7  23295945.574 7  96958560.066 7     -3130.018 7        47.526 7                                                                                                                                                                                                                                                                                                                                                                                                                                                                
R03  23554943.239 8 126091230.482 8     -1548.388 8        53.381 8  23554943.239 8 126091230.482 8     -1548.388 8        53.381 8  23554956.958 7  98070899.920 7     -1204.306 7        47.381 7  23554956.958 7  98070899.920 7     -1204.306 7        47.381 7                                                                                                                                                                                                                                                                                                                                                                                                                                                                
R23  20257600.225 9 108364399.874 9      3029.875 9        54.707 9  20257600.225 9 108364399.874 9      3029.875 9        54.707 9  20257606.427 8  84283396.318 8      2356.574 8        48.707 8  20257606.427 8  84283396.318 8      2356.574 8        48.707 8                                                                                                                                                                                                                                                                                                                                                                                                                                                                
R13  21563775.554 9 115149221.533 9      2683.657 9        54.160 9  21563775.554 9 115149221.533 9      2683.657 9        54.160 9  21563783.923 8  89560470.878 8      2087.293 8        48.160 8  21563783.923 8  89560470.878 8      2087.293 8        48.160 8                                                                                                                                                                                                                                                                                                                                                                                                                                                                
R24  24011922.855 8 128402287.726 8      4445.500 8        53.207 8  24011922.855 8 128402287.726 8      4445.500 8        53.207 8  24011938.411 7  99868381.307 7      3457.624 7        47.207 7  24011938.411 7  99868381.307 7      3457.624 7        47.207 7                                                                                                                                                                                                                                                                                                                                                                                                                                                                
E05                                                                  27915508.381 9 146696883.583 9       813.626 9        56.410 9  27915508.381 9 146696883.583 9       813.626 9        56.410 9  27915517.103 9 109546347.266 9       607.578 9        56.270 9  27915517.103 9 109546347.266 9       607.578 9        56.270 9  27915516.220 9 112404081.620 9       623.428 9        56.270 9  27915516.220 9 112404081.620 9       623.428 9        56.270 9  27915516.653 9 110975214.454 9       615.503 9        59.280 9  27915516.653 9 110975214.454 9       615.503 9        59.280 9                                                                                                                                                                                                
E12                                                                  26603830.591 9 139803894.658 9      3045.659 9        56.855 9  26603830.591 9 139803894.658 9      3045.659 9        56.855 9  26603841.642 9 104398949.756 9      2274.368 9        56.715 9  26603841.642 9 104398949.756 9      2274.368 9        56.715 9  26603840.112 9 107122406.782 9      2333.698 9        56.715 9  26603840.112 9 107122406.782 9      2333.698 9        56.715 9  26603840.862 9 105760678.288 9      2304.033 9        59.725 9  26603840.862 9 105760678.288 9      2304.033 9        59.725 9                                                                                                                                                                                                
E14                                                                  21068511.892 9 110715696.193 9     -2583.167 9        58.315 9  21068511.892 9 110715696.193 9     -2583.167 9        58.315 9  21068517.236 9  82677278.545 9     -1928.989 9        58.175 9  21068517.236 9  82677278.545 9     -1928.989 9        58.175 9  21068516.542 9  84834079.911 9     -1979.310 9        58.175 9  21068516.542 9  84834079.911 9     -1979.310 9        58.175 9  21068516.882 9  83755679.237 9     -1954.149 9        61.186 9  21068516.882 9  83755679.237 9     -1954.149 9        61.186 9                                                                                                                                                                                                
E31                                                                  24320055.321 9 127802697.589 9       668.942 9        57.652 9  24320055.321 9 127802697.589 9       668.942 9        57.652 9  24320060.744 9  95437067.646 9       499.535 9        57.512 9  24320060.744 9  95437067.646 9       499.535 9        57.512 9  24320060.267 9  97926732.202 9       512.566 9        57.512 9  24320060.267 9  97926732.202 9       512.566 9        57.512 9  24320060.501 9  96681899.930 9       506.051 9        60.523 9  24320060.501 9  96681899.930 9       506.051 9        60.523 9                                                                                                                                                                                                
E26                                                                  26347995.701 9 138459578.924 9     -1162.162 9        57.087 9  26347995.701 9 138459578.924 9     -1162.162 9        57.087 9  26348000.160 9 103395114.352 9      -867.847 9        56.947 9  26348000.160 9 103395114.352 9      -867.847 9        56.947 9  26347999.534 9 106092380.723 9      -890.487 9        56.947 9  26347999.534 9 106092380.723 9      -890.487 9        56.947 9  26347999.841 9 104743747.545 9      -879.167 9        59.958 9  26347999.841 9 104743747.545 9      -879.167 9        59.958 9                                                                                                                                                                                                
E04                                                                  26746053.184 9 140551260.542 9     -2610.062 9        56.774 9  26746053.184 9 140551260.542 9     -2610.062 9        56.774 9  26746067.433 9 104957049.014 9     -1949.080 9        56.635 9  26746067.433 9 104957049.014 9     -1949.080 9        56.635 9  26746065.741 9 107695065.803 9     -1999.924 9        56.635 9  26746065.741 9 107695065.803 9     -1999.924 9        56.635 9  26746066.571 9 106326057.431 9     -1974.502 9        59.645 9  26746066.571 9 106326057.431 9     -1974.502 9        59.645 9                                                                                                                                                                                                
E01                                                                  25390611.864 9 133428494.448 9      -973.204 9        57.284 9  25390611.864 9 133428494.448 9      -973.204 9        57.284 9  25390617.313 9  99638140.489 9      -726.744 9        57.144 9  25390617.313 9  99638140.489 9      -726.744 9        57.144 9  25390616.701 9 102237398.793 9      -745.702 9        57.144 9  25390616.701 9 102237398.793 9      -745.702 9        57.144 9  25390617.001 9 100937769.649 9      -736.223 9        60.154 9  25390617.001 9 100937769.649 9      -736.223 9        60.154 9                                                                                                                                                                                                
E09                                                                  26222089.636 9 137797903.157 9     -1311.397 9        57.022 9  26222089.636 9 137797903.157 9     -1311.397 9        57.022 9  26222098.337 9 102901001.781 9      -979.293 9        56.882 9  26222098.337 9 102901001.781 9      -979.293 9        56.882 9  26222097.412 9 105585379.463 9     -1004.840 9        56.882 9  26222097.412 9 105585379.463 9     -1004.840 9        56.882 9  26222097.866 9 104243190.634 9      -992.066 9        59.893 9  26222097.866 9 104243190.634 9      -992.066 9        59.893 9                                                                                                                                                                                                
E33                                                                  24414020.852 9 128296469.983 9      1365.099 9        57.612 9  24414020.852 9 128296469.983 9      1365.099 9        57.612 9  24414025.722 9  95805779.878 9      1019.395 9        57.472 9  24414025.722 9  95805779.878 9      1019.395 9        57.472 9  24414025.075 9  98305063.697 9      1045.988 9        57.472 9  24414025.075 9  98305063.697 9      1045.988 9        57.472 9  24414025.392 9  97055421.796 9      1032.691 9        60.483 9  24414025.392 9  97055421.796 9      1032.691 9        60.483 9                                                                                                                                                                                                
E24                                                                  27240599.539 9 143150219.420 9      1638.367 9        56.713 9  27240599.539 9 143150219.420 9      1638.367 9        56.713 9  27240606.387 9 106897860.339 9      1223.460 9        56.573 9  27240606.387 9 106897860.339 9      1223.460 9        56.573 9  27240605.553 9 109686503.531 9      1255.376 9        56.573 9  27240605.553 9 109686503.531 9      1255.376 9        56.573 9  27240605.962 9 108292181.946 9      1239.418 9        59.583 9  27240605.962 9 108292181.946 9      1239.418 9        59.583 9                                                                                                                                                                                                
Q02  39681063.397 9 208525281.713 9       860.633 9        55.904 9  39681063.397 9 208525281.713 9       860.633 9        57.408 9  39681063.397 8 208525281.713 8       860.633 8        53.404 8  39681070.406 9 162487203.803 9       670.624 9        54.404 9  39681071.991 9 155716897.424 9       642.681 9        56.504 9                                                                
Q03  39251664.313 9 206268786.684 9      -494.109 9        55.997 9  39251664.313 9 206268786.684 9      -494.109 9        57.501 9  39251664.313 8 206268786.684 8      -494.109 8        53.497 8  39251670.559 9 160728899.111 9      -385.019 9        54.497 9  39251671.972 9 154031856.103 9      -368.976 9        56.597 9                                                                
Q04  38152755.592 9 200493842.684 9      -221.155 9        56.238 9  38152755.592 9 200493842.684 9      -221.155 9        57.743 9  38152755.592 8 200493842.684 8      -221.155 8        53.738 8  38152770.437 9 156228907.535 9      -172.326 9        54.738 9  38152773.795 9 149719356.545 9      -165.145 9        56.838 9                                                                
Q07  37730006.175 9 198272401.815 9        -4.309 9        56.342 9  37730006.175 9 198272401.815 9        -4.309 9        57.847 9  37730006.175 8 198272401.815 8        -4.309 8        53.842 8  37730013.491 9 154497945.481 9        -3.357 9        54.842 9  37730015.146 9 148060524.592 9        -3.217 9        56.942 9                                                                
C03  37063002.917 8 192996647.363 8        32.485 8        51.994 8  37063008.507 8 149237202.640 8        25.120 8        51.994 8  37063008.890 8 156825553.906 8        26.397 8        51.994 8                                                                                                                                  37062994.172 9 149237279.917 9        25.120 9        54.994 9
C01  38731166.519 8 201683147.515 8        30.148 8        51.553 8  38731177.864 8 155954144.709 8        23.314 8        51.553 8  38731177.824 8 163884042.014 8        24.499 8        51.553 8                                                                                                                                  38731156.160 9 155954256.247 9        23.314 9        54.553 9
C07  36234967.389 8 188684874.782 8      -208.448 8        52.188 8  36234970.239 8 145903068.907 8      -161.185 8        52.188 8  36234968.284 8 153321874.756 8      -169.381 8        52.188 8  36234955.785 9 142193723.218 9      -157.087 9        58.188 9  36234954.292 9 190415950.238 9      -210.361 9        55.188 9  36234955.615 9 145903125.375 9      -161.185 9        55.188 9
C27  22461565.087 8 116963135.202 8      2094.320 8        52.620 8  22461573.387 8  90443282.137 8      1619.465 8        52.620 8  22461572.727 8  95042106.796 8      1701.810 8        52.620 8  22461558.816 9  88143943.955 9      1578.293 9        58.620 9  22461556.701 9 118036249.110 9      2113.534 9        55.620 9  22461558.576 9  90443352.155 9      1619.465 9        55.620 9
C16  37799737.885 8 196832986.238 8     -1402.913 8        51.821 8  37799750.880 8 152203715.644 8     -1084.823 8        51.821 8  37799746.949 8 159942892.590 8     -1139.983 8        51.821 8  37799729.268 9 148334203.639 9     -1057.243 9        57.821 9  37799726.263 9 198638862.403 9     -1415.784 9        54.821 9  37799728.927 9 152203792.933 9     -1084.823 9        54.821 9
C10  36451461.114 8 189812214.686 8      -118.958 8        52.138 8  36451467.215 8 146774812.859 8       -91.985 8        52.138 8  36451464.694 8 154237942.244 8       -96.662 8        52.138 8  36451452.237 9 143043301.770 9       -89.646 9        58.138 9  36451450.743 9 191553646.743 9      -120.049 9        55.138 9  36451452.068 9 146774866.846 9       -91.985 9        55.138 9
C09  36431889.340 8 189710281.440 8     -1038.828 8        52.133 8  36431896.566 8 146695986.836 8      -803.288 8        52.133 8  36431893.534 8 154155108.251 8      -844.133 8        52.133 8  36431879.877 9 142966484.633 9      -782.866 9        58.133 9  36431877.764 9 191450781.832 9     -1048.358 9        55.133 9  36431879.637 9 146696046.067 9      -803.288 9        55.133 9
C04  40363273.710 8 210181902.285 8        25.414 8        51.274 8  40363285.952 8 162525895.668 8        19.654 8        51.274 8  40363284.618 8 170789951.471 8        20.653 8        51.274 8                                                                                                                                  40363257.467 9 162526030.886 9        19.654 9        54.274 9
C06  37484178.952 8 195189800.299 8     -1385.263 8        51.883 8  37484185.910 8 150933082.099 8     -1071.175 8        51.883 8  37484184.083 8 158607657.892 8     -1125.641 8        51.883 8  37484167.565 9 147095876.573 9     -1043.942 9        57.883 9  37484164.833 9 196980579.508 9     -1397.971 9        54.883 9  37484167.255 9 150933161.559 9     -1071.175 9        54.883 9
C30  26533777.771 8 138167992.476 8      3262.554 8        51.182 8  26533800.456 8 106840164.964 8      2522.828 8        51.182 8  26533798.036 8 112272750.573 8      2651.104 8        51.182 8  26533763.705 9 104124056.625 9      2458.691 9        57.182 9  26533756.291 9 139435732.184 9      3292.485 9        54.182 9  26533762.864 9 106840339.751 9      2522.828 9        54.182 9
> 2023 01 08 10 25  0.0000000  0 45       0.000000000000
G01  21221636.061 9 111520343.717 9      1900.001 9        55.640 9                                                                  21221636.061 8 111520343.717 8      1900.001 8        52.640 8                                                                  21221643.519 8  86898945.988 8      1480.523 8        51.140 8  21221643.519 8  86898945.988 8      1480.523 8        49.640 8  21221644.098 9  83278147.210 9      1418.835 9        57.740 9
G07  20131314.813 9 105790690.176 9      -492.944 9        56.092 9                                                                  20131314.813 8 105790690.176 8      -492.944 8        53.092 8                                                                  20131317.767 8  82434274.187 8      -384.113 8        51.592 8  20131317.767 8  82434274.187 8      -384.113 8        50.092 8  20131321.093 9  78999516.723 9      -368.108 9        58.192 9
G13  24234233.800 9 127351547.240 9      1702.110 9        54.467 9                                                                  24234233.800 8 127351547.240 8      1702.110 8        51.467 8                                                                  24234244.526 8  99234909.462 8      1326.324 8        49.967 8  24234244.526 8  99234909.462 8      1326.324 8        48.467 8  24234249.721 9  95100118.904 9      1271.061 9        56.567 9
G17  21916666.258 9 115172731.113 9      2102.563 9        55.307 9                                                                  21916666.258 8 115172731.113 8      2102.563 8        52.307 8                                                                  21916671.934 8  89744944.288 8      1638.365 8        50.807 8  21916671.934 8  89744944.288 8      1638.365 8        49.307 8  21916675.876 9  86005573.154 9      1570.100 9        57.407 9
G09  24308828.740 9 127743548.284 9     -3129.715 9        54.515 9                                                                  24308828.740 8 127743548.284 8     -3129.715 8        51.515 8                                                                  24308841.782 8  99540375.309 8     -2438.745 8        50.015 8  24308841.782 8  99540375.309 8     -2438.745 8        48.515 8  24308844.510 9  95392847.546 9     -2337.132 9        56.615 9
G21  21529992.449 9 113140766.491 9      -872.798 9        55.525 9                                                                  21529992.449 8 113140766.491 8      -872.798 8        52.525 8                                                                  21529997.077 8  88161601.003 8      -680.102 8        51.025 8  21529997.077 8  88161601.003 8      -680.102 8        49.525 8  21530000.560 9  84488202.887 9      -651.765 9        57.625 9
G08  23164825.230 9 121731829.010 9     -3155.155 9        54.919 9                                                                  23164825.230 8 121731829.010 8     -3155.155 8        51.919 8                                                                  23164835.407 8  94855937.119 8     -2458.566 8        50.419 8  23164835.407 8  94855937.119 8     -2458.566 8        48.919 8  23164836.491 9  90903594.356 9     -2356.126 9        57.019 9
G30  20918047.059 9 109924988.883 9      1686.578 9        55.860 9                                                                  20918047.059 8 109924988.883 8      1686.578 8        52.860 8                                                                  20918053.343 8  85655815.679 8      1314.219 8        51.360 8  20918053.343 8  85655815.679 8      1314.219 8        49.860 8  20918053.879 9  82086815.588 9      1259.460 9        57.960 9
G14  22099632.693 9 116134232.261 9      1659.764 9        55.323 9                                                                  22099632.693 8 116134232.261 8      1659.764 8        52.323 8                                                                  22099638.629 8  90494170.075 8      1293.325 8        50.823 8  22099638.629 8  90494170.075 8      1293.325 8        49.323 8  22099641.854 9  86723579.048 9      1239.437 9        57.423 9
G19  25254617.724 9 132713652.414 9      3255.696 9        54.130 9                                                                  25254617.724 8 132713652.414 8      3255.696 8        51.130 8                                                                  25254630.715 8 103413158.043 8      2536.916 8        49.630 8  25254630.715 8 103413158.043 8      2536.916 8        48.130 8  25254637.308 9  99104273.977 9      2431.213 9        56.230 9
R11  22576462.367 8 120641601.346 8     -2271.727 8        53.756 8  22576462.367 8 120641601.346 8     -2271.727 8        53.756 8  22576472.662 7  93832313.814 7     -1766.902 7        47.756 7  22576472.662 7  93832313.814 7     -1766.902 7        47.756 7                                                                                                                                                                                                                                                                                                                                                                                                                                                                
R22  20029605.886 9 106919302.725 9     -1823.021 9        54.788 9  20029605.886 9 106919302.725 9     -1823.021 9        54.788 9  20029611.620 8  83159433.871 8     -1417.907 8        48.788 8  20029611.620 8  83159433.871 8     -1417.907 8        48.788 8                                                                                                                                                                                                                                                                                                                                                                                                                                                                
R12  19994470.999 9 106806782.605 9       405.650 9        54.810 9  19994470.999 9 106806782.605 9       405.650 9        54.810 9  19994476.660 8  83071918.507 8       315.506 8        48.810 8  19994476.660 8  83071918.507 8       315.506 8        48.810 8                                                                                                                                                                                                                                                                                                                                                                                                                                                                
R21  23523741.152 8 125880100.410 8     -4100.382 8        53.441 8  23523741.152 8 125880100.410 8     -4100.382 8        53.441 8  23523752.759 7  97906696.452 7     -3189.191 7        47.441 7  23523752.759 7  97906696.452 7     -3189.191 7        47.441 7                                                                                                                                                                                                                                                                                                                                                                                                                                                                
R03  23646317.605 8 126580360.303 8     -1710.598 8        53.347 8  23646317.605 8 126580360.303 8     -1710.598 8        53.347 8  23646331.588 7  98451333.129 7     -1330.469 7        47.347 7  23646331.588 7  98451333.129 7     -1330.469 7        47.347 7                                                                                                                                                                                                                                                                                                                                                                                                                                                                
R23  20093366.557 9 107485864.966 9      2825.222 9        54.777 9  20093366.557 9 107485864.966 9      2825.222 9        54.777 9  20093372.486 8  83600092.526 8      2197.398 8        48.777 8  20093372.486 8  83600092.526 8      2197.398 8        48.777 8                                                                                                                                                                                                                                                                                                                                                                                                                                                                
R13  21413371.360 9 114346077.252 9      2669.560 9        54.221 9  21413371.360 9 114346077.252 9      2669.560 9        54.221 9  21413379.378 8  88935804.559 8      2076.329 8        48.221 8  21413379.378 8  88935804.559 8      2076.329 8        48.221 8                                                                                                                                                                                                                                                                                                                                                                                                                                                                
R24  23763122.748 8 127071856.501 8      4422.213 8        53.297 8  23763122.748 8 127071856.501 8      4422.213 8        53.297 8  23763137.403 7  98833605.213 7      3439.511 7        47.297 7  23763137.403 7  98833605.213 7      3439.511 7        47.297 7                                                                                                                                                                                                                                                                                                                                                                                                                                                                
E05                                                                  27872627.174 9 146471541.997 9       688.471 9        56.423 9  27872627.174 9 146471541.997 9       688.471 9        56.423 9  27872635.844 9 109378072.907 9       514.119 9        56.283 9  27872635.844 9 109378072.907 9       514.119 9        56.283 9  27872634.967 9 112231417.471 9       527.531 9        56.283 9  27872634.967 9 112231417.471 9       527.531 9        56.283 9  27872635.397 9 110804745.200 9       520.825 9        59.293 9  27872635.397 9 110804745.200 9       520.825 9        59.293 9                                                                                                                                                                                                
E12                                                                  26430560.758 9 138893367.805 9      3023.504 9        56.912 9  26430560.758 9 138893367.805 9      3023.504 9        56.912 9  26430570.883 9 103719014.505 9      2257.823 9        56.772 9  26430570.883 9 103719014.505 9      2257.823 9        56.772 9  26430569.457 9 106424733.667 9      2316.722 9        56.772 9  26430569.457 9 106424733.667 9      2316.722 9        56.772 9  26430570.156 9 105071874.104 9      2287.273 9        59.782 9  26430570.156 9 105071874.104 9      2287.273 9        59.782 9                                                                                                                                                                                                
E14                                                                  21222930.758 9 111527172.479 9     -2825.135 9        58.252 9  21222930.758 9 111527172.479 9     -2825.135 9        58.252 9  21222936.127 9  83283250.997 9     -2109.679 9        58.112 9  21222936.127 9  83283250.997 9     -2109.679 9        58.112 9  21222935.430 9  85455860.353 9     -2164.714 9        58.112 9  21222935.430 9  85455860.353 9     -2164.714 9        58.112 9  21222935.772 9  84369555.684 9     -2137.196 9        61.122 9  21222935.772 9  84369555.684 9     -2137.196 9        61.122 9                                                                                                                                                                                                
E31                                                                  24282124.109 9 127603368.365 9       659.727 9        57.666 9  24282124.109 9 127603368.365 9       659.727 9        57.666 9  24282129.485 9  95288218.089 9       492.653 9        57.526 9  24282129.485 9  95288218.089 9       492.653 9        57.526 9  24282129.013 9  97773999.591 9       505.505 9        57.526 9  24282129.013 9  97773999.591 9       505.505 9        57.526 9  24282129.245 9  96531108.846 9       499.079 9        60.536 9  24282129.245 9  96531108.846 9       499.079 9        60.536 9                                                                                                                                                                                                
E26                                                                  26418070.903 9 138827827.254 9     -1292.267 9        57.064 9  26418070.903 9 138827827.254 9     -1292.267 9        57.064 9  26418075.311 9 103670105.184 9      -965.004 9        56.924 9  26418075.311 9 103670105.184 9      -965.004 9        56.924 9  26418074.692 9 106374545.206 9      -990.178 9        56.924 9  26418074.692 9 106374545.206 9      -990.178 9        56.924 9  26418074.995 9 105022325.203 9      -977.591 9        59.934 9  26418074.995 9 105022325.203 9      -977.591 9        59.934 9                                                                                                                                                                                                
E04                                                                  26894968.605 9 141333808.744 9     -2605.881 9        56.726 9  26894968.605 9 141333808.744 9     -2605.881 9        56.726 9  26894983.428 9 105541417.170 9     -1945.958 9        56.586 9  26894983.428 9 105541417.170 9     -1945.958 9        56.586 9  26894981.670 9 108294678.608 9     -1996.721 9        56.586 9  26894981.670 9 108294678.608 9     -1996.721 9        56.586 9  26894982.532 9 106918047.912 9     -1971.339 9        59.597 9  26894982.532 9 106918047.912 9     -1971.339 9        59.597 9                                                                                                                                                                                                
E01                                                                  25446758.321 9 133723545.412 9      -994.144 9        57.265 9  25446758.321 9 133723545.412 9      -994.144 9        57.265 9  25446763.820 9  99858470.559 9      -742.381 9        57.125 9  25446763.820 9  99858470.559 9      -742.381 9        57.125 9  25446763.202 9 102463476.626 9      -761.747 9        57.125 9  25446763.202 9 102463476.626 9      -761.747 9        57.125 9  25446763.505 9 101160973.600 9      -752.064 9        60.135 9  25446763.505 9 101160973.600 9      -752.064 9        60.135 9                                                                                                                                                                                                
E09                                                                  26299827.343 9 138206414.156 9     -1411.130 9        56.996 9  26299827.343 9 138206414.156 9     -1411.130 9        56.996 9  26299836.301 9 103206057.686 9     -1053.769 9        56.856 9  26299836.301 9 103206057.686 9     -1053.769 9        56.856 9  26299835.347 9 105898393.466 9     -1081.259 9        56.856 9  26299835.347 9 105898393.466 9     -1081.259 9        56.856 9  26299835.815 9 104552225.588 9     -1067.514 9        59.867 9  26299835.815 9 104552225.588 9     -1067.514 9        59.867 9                                                                                                                                                                                                
E33                                                                  24339787.760 9 127906375.206 9      1234.894 9        57.639 9  24339787.760 9 127906375.206 9      1234.894 9        57.639 9  24339792.422 9  95514476.153 9       922.164 9        57.499 9  24339792.422 9  95514476.153 9       922.164 9        57.499 9  24339791.798 9  98006160.649 9       946.220 9        57.499 9  24339791.798 9  98006160.649 9       946.220 9        57.499 9  24339792.104 9  96760318.409 9       934.192 9        60.509 9  24339792.104 9  96760318.409 9       934.192 9        60.509 9                                                                                                                                                                                                
E24                                                                  27146714.970 9 142656856.324 9      1650.843 9        56.743 9  27146714.970 9 142656856.324 9      1650.843 9        56.743 9  27146721.544 9 106529440.923 9      1232.776 9        56.603 9  27146721.544 9 106529440.923 9      1232.776 9        56.603 9  27146720.741 9 109308473.048 9      1264.935 9        56.603 9  27146720.741 9 109308473.048 9      1264.935 9        56.603 9  27146721.135 9 107918956.996 9      1248.856 9        59.614 9  27146721.135 9 107918956.996 9      1248.856 9        59.614 9                                                                                                                                                                                                
E10                                                                  28466907.942 9 149594371.666 9      3082.165 9        56.276 9  28466907.942 9 149594371.666 9      3082.165 9        56.276 9  28466926.167 9 111710012.526 9      2301.610 9        56.136 9  28466926.167 9 111710012.526 9      2301.610 9        56.136 9  28466924.117 9 114624195.017 9      2361.653 9        56.136 9  28466924.117 9 114624195.017 9      2361.653 9        56.136 9  28466925.122 9 113167103.798 9      2331.631 9        59.146 9  28466925.122 9 113167103.798 9      2331.631 9        59.146 9                                                                                                                                                                                                
Q02  39631487.811 9 208264760.977 9       876.019 9        55.914 9  39631487.811 9 208264760.977 9       876.019 9        57.419 9  39631487.811 8 208264760.977 8       876.019 8        53.414 8  39631494.776 9 162284200.814 9       682.613 9        54.414 9  39631496.351 9 155522352.932 9       654.171 9        56.514 9                                                                
Q03  39280109.331 9 206418267.353 9      -502.296 9        55.990 9  39280109.331 9 206418267.353 9      -502.296 9        57.495 9  39280109.331 8 206418267.353 8      -502.296 8        53.490 8  39280115.510 9 160845377.829 9      -391.398 9        54.490 9  39280116.908 9 154143481.601 9      -375.090 9        56.590 9                                                                
Q04  38165058.436 9 200558497.503 9      -209.887 9        56.235 9  38165058.436 9 200558497.503 9      -209.887 9        57.740 9  38165058.436 8 200558497.503 8      -209.887 8        53.735 8  38165073.101 9 156279288.654 9      -163.546 9        54.735 9  38165076.418 9 149767638.611 9      -156.731 9        56.835 9                                                                
Q07  37730250.740 9 198273687.790 9        -4.259 9        56.342 9  37730250.740 9 198273687.790 9        -4.259 9        57.846 9  37730250.740 8 198273687.790 8        -4.259 8        53.842 8  37730258.009 9 154498947.734 9        -3.318 9        54.842 9  37730259.653 9 148061485.127 9        -3.180 9        56.942 9                                                                
C03  37061112.882 8 192986806.405 8        33.125 8        51.994 8  37061118.410 8 149229593.234 8        25.615 8        51.994 8  37061118.808 8 156817557.520 8        26.917 8        51.994 8                                                                                                                                  37061104.240 9 149229669.847 9        25.615 9        54.994 9
C28  21946693.394 8 114282082.024 8      -968.551 8        52.824 8  21946700.478 8  88370126.648 8      -748.946 8        52.824 8  21946700.013 8  92863535.031 8      -787.027 8        52.824 8  21946687.645 9  86123488.283 9      -729.905 9        58.824 9  21946686.059 9 115330592.644 9      -977.437 9        55.824 9  21946687.465 9  88370188.702 9      -748.946 9        55.824 9
C07  36246669.889 8 188745813.242 8      -197.691 8        52.185 8  36246672.709 8 145950190.512 8      -152.867 8        52.185 8  36246670.761 8 153371392.344 8      -160.640 8        52.185 8  36246658.344 9 142239646.463 9      -148.980 9        58.185 9  36246656.846 9 190477447.486 9      -199.505 9        55.185 9  36246658.174 9 145950246.620 9      -152.867 9        55.185 9
C02  36969491.182 8 192509710.034 8         3.895 8        52.024 8  36969495.031 8 148860666.264 8         3.012 8        52.024 8  36969497.285 8 156429879.169 8         3.165 8        52.024 8                                                                                                                                  36969482.828 9 148860749.683 9         3.012 9        55.024 9
C16  37881445.850 8 197258458.761 8     -1433.340 8        51.803 8  37881458.992 8 152532717.393 8     -1108.352 8        51.803 8  37881455.026 8 160288623.388 8     -1164.708 8        51.803 8  37881437.212 9 148654841.597 9     -1080.174 9        57.803 9  37881434.119 9 199068238.915 9     -1446.490 9        54.803 9  37881436.861 9 152532795.400 9     -1108.352 9        54.803 9
C10  36458006.464 8 189846298.569 8      -108.132 8        52.136 8  36458012.531 8 146801168.815 8       -83.614 8        52.136 8  36458010.018 8 154265638.300 8       -87.866 8        52.136 8  36457997.649 9 143068987.285 9       -81.488 9        58.136 9  36457996.150 9 191588043.024 9      -109.124 9        55.136 9  36457997.479 9 146801222.421 9       -83.614 9        55.136 9
C09  36493039.269 8 190028704.054 8     -1083.864 8        52.118 8  36493046.566 8 146942211.111 8      -838.113 8        52.118 8  36493043.517 8 154413852.477 8      -880.729 8        52.118 8  36493029.804 9 143206449.257 9      -816.805 9        58.118 9  36493027.644 9 191772126.008 9     -1093.807 9        55.118 9  36493029.559 9 146942270.659 9      -838.113 9        55.118 9
C04  40361807.041 8 210174267.211 8        25.499 8        51.274 8  40361819.138 8 162519992.330 8        19.720 8        51.274 8  40361817.838 8 170783747.819 8        20.722 8        51.274 8                                                                                                                                  40361791.005 9 162520126.130 9        19.720 9        54.274 9
C06  37564915.888 8 195610216.734 8     -1417.301 8        51.864 8  37564922.974 8 151258174.241 8     -1095.949 8        51.864 8  37564921.117 8 158949280.270 8     -1151.675 8        51.864 8  37564904.480 9 147412704.248 9     -1068.086 9        57.864 9  37564901.673 9 197404853.481 9     -1430.304 9        54.864 9  37564904.161 9 151258254.337 9     -1095.949 9        54.864 9
C30  26346490.940 8 137192757.510 8      3238.200 8        51.244 8  26346512.545 8 106086055.770 8      2503.996 8        51.244 8  26346510.379 8 111480295.772 8      2631.314 8        51.244 8  26346477.720 9 103389112.142 9      2440.337 9        57.244 9  26346470.641 9 138451543.896 9      3267.908 9        54.244 9  26346476.917 9 106086222.650 9      2503.996 9        54.244 9
> 2023 01 08 10 30  0.0000000  0 43       0.000000000000
G01  21118308.608 9 110977357.392 9      1718.470 9        55.683 9                                                                  21118308.608 8 110977357.392 8      1718.470 8        52.683 8                                                                  21118315.874 8  86475840.544 8      1339.070 8        51.183 8  21118315.874 8  86475840.544 8      1339.070 8        49.683 8  21118316.411 9  82872671.329 9      1283.276 9        57.783 9
G07  20164633.535 9 105965781.100 9      -674.527 9        56.078 9                                                                  20164633.535 8 105965781.100 8      -674.527 8        53.078 8                                                                  20164636.498 8  82570708.637 8      -525.606 8        51.578 8  20164636.498 8  82570708.637 8      -525.606 8        50.078 8  20164639.826 9  79130266.397 9      -503.706 9        58.178 9
G13  24141701.291 9 126865290.770 9      1538.912 9        54.500 9                                                                  24141701.291 8 126865290.770 8      1538.912 8        51.500 8                                                                  24141711.700 8  98856009.615 8      1199.156 8        50.000 8  24141711.700 8  98856009.615 8      1199.156 8        48.500 8  24141716.823 9  94737006.832 9      1149.192 9        56.600 9
G17  21800108.613 9 114560221.464 9      1980.624 9        55.353 9                                                                  21800108.613 8 114560221.464 8      1980.624 8        52.353 8                                                                  21800113.987 8  89267665.280 8      1543.347 8        50.853 8  21800113.987 8  89267665.280 8      1543.347 8        49.353 8  21800117.860 9  85548181.039 9      1479.042 9        57.453 9
G09  24486774.385 9 128678651.684 9     -3102.867 9        54.451 9                                                                  24486774.385 8 128678651.684 8     -3102.867 8        51.451 8                                                                  24486787.875 8 100269025.474 8     -2417.825 8        49.951 8  24486787.875 8 100269025.474 8     -2417.825 8        48.451 8  24486790.705 9  96091136.891 9     -2317.083 9        56.551 9
G21  21585275.248 9 113431279.773 9     -1063.438 9        55.502 9                                                                  21585275.248 8 113431279.773 8     -1063.438 8        52.502 8                                                                  21585279.863 8  88387975.043 8      -828.653 8        51.002 8  21585279.863 8  88387975.043 8      -828.653 8        49.502 8  21585283.343 9  84705144.687 9      -794.126 9        57.602 9
G08  23345408.736 9 122680797.600 9     -3170.244 9        54.851 9                                                                  23345408.736 8 122680797.600 8     -3170.244 8        51.851 8                                                                  23345419.168 8  95595392.120 8     -2470.324 8        50.351 8  23345419.168 8  95595392.120 8     -2470.324 8        48.851 8  23345420.309 9  91612238.506 9     -2367.394 9        56.951 9
G30  20825926.244 9 109440892.784 9      1539.527 9        55.899 9                                                                  20825926.244 8 109440892.784 8      1539.527 8        52.899 8                                                                  20825932.401 8  85278598.458 8      1199.633 8        51.399 8  20825932.401 8  85278598.458 8      1199.633 8        49.899 8  20825932.908 9  81725315.863 9      1149.648 9        57.999 9
G14  22005522.321 9 115639682.427 9      1637.119 9        55.360 9                                                                  22005522.321 8 115639682.427 8      1637.119 8        52.360 8                                                                  22005528.041 8  90108807.452 8      1275.680 8        50.860 8  22005528.041 8  90108807.452 8      1275.680 8        49.360 8  22005531.217 9  86354273.393 9      1222.527 9        57.460 9
G19  25069932.307 9 131743135.502 9      3213.753 9        54.194 9                                                                  25069932.307 8 131743135.502 8      3213.753 8        51.194 8                                                                  25069944.589 8 102656913.998 8      2504.233 8        49.694 8  25069944.589 8 102656913.998 8      2504.233 8        48.194 8  25069951.022 9  98379540.730 9      2399.892 9        56.294 9
R11  22706858.829 8 121338396.713 8     -2373.647 8        53.706 8  22706858.829 8 121338396.713 8     -2373.647 8        53.706 8  22706869.356 7  94374264.804 7     -1846.173 7        47.706 7  22706869.356 7  94374264.804 7     -1846.173 7        47.706 7                                                                                                                                                                                                                                                                                                                                                                                                                                                                
R22  20138595.840 9 107501096.979 9     -2053.905 9        54.741 9  20138595.840 9 107501096.979 9     -2053.905 9        54.741 9  20138601.666 8  83611940.127 8     -1597.483 8        48.741 8  20138601.666 8  83611940.127 8     -1597.483 8        48.741 8                                                                                                                                                                                                                                                                                                                                                                                                                                                                
R12  19974827.581 9 106701851.998 9       292.710 9        54.818 9  19974827.581 9 106701851.998 9       292.710 9        54.818 9  19974833.180 8  82990306.069 8       227.664 8        48.818 8  19974833.180 8  82990306.069 8       227.664 8        48.818 8                                                                                                                                                                                                                                                                                                                                                                                                                                                                
R21  23755436.323 8 127119942.493 8     -4163.066 8        53.356 8  23755436.323 8 127119942.493 8     -4163.066 8        53.356 8  23755448.270 7  98871016.656 7     -3237.945 7        47.356 7  23755448.270 7  98871016.656 7     -3237.945 7        47.356 7                                                                                                                                                                                                                                                                                                                                                                                                                                                                
R03  23746456.650 8 127116407.597 8     -1861.072 8        53.311 8  23746456.650 8 127116407.597 8     -1861.072 8        53.311 8  23746470.929 7  98868257.570 7     -1447.504 7        47.311 7  23746470.929 7  98868257.570 7     -1447.504 7        47.311 7                                                                                                                                                                                                                                                                                                                                                                                                                                                                
R23  19940910.348 9 106670331.005 9      2610.014 9        54.844 9  19940910.348 9 106670331.005 9      2610.014 9        54.844 9  19940916.036 8  82965789.338 8      2030.014 8        48.844 8  19940916.036 8  82965789.338 8      2030.014 8        48.844 8                                                                                                                                                                                                                                                                                                                                                                                                                                                                
R13  21263951.645 9 113548189.818 9      2648.524 9        54.282 9  21263951.645 9 113548189.818 9      2648.524 9        54.282 9  21263959.327 8  88315226.841 8      2059.968 8        48.282 8  21263959.327 8  88315226.841 8      2059.968 8        48.282 8                                                                                                                                                                                                                                                                                                                                                                                                                                                                
R24  23515953.893 8 125750147.654 8      4387.329 8        53.388 8  23515953.893 8 125750147.654 8      4387.329 8        53.388 8  23515967.688 7  97805613.024 7      3412.379 7        47.388 7  23515967.688 7  97805613.024 7      3412.379 7        47.388 7                                                                                                                                                                                                                                                                                                                                                                                                                                                                
E05                                                                  27836918.139 9 146283890.338 9       562.430 9        56.434 9  27836918.139 9 146283890.338 9       562.430 9        56.434 9  27836926.765 9 109237943.594 9       419.997 9        56.294 9  27836926.765 9 109237943.594 9       419.997 9        56.294 9  27836925.893 9 112087632.591 9       430.954 9        56.294 9  27836925.893 9 112087632.591 9       430.954 9        56.294 9  27836926.321 9 110662788.103 9       425.475 9        59.305 9  27836926.321 9 110662788.103 9       425.475 9        59.305 9                                                                                                                                                                                                
E12                                                                  26258743.717 9 137990475.051 9      2994.766 9        56.968 9  26258743.717 9 137990475.051 9      2994.766 9        56.968 9  26258752.945 9 103044779.931 9      2236.366 9        56.829 9  26258752.945 9 103044779.931 9      2236.366 9        56.829 9  26258751.621 9 105732909.955 9      2294.704 9        56.829 9  26258751.621 9 105732909.955 9      2294.704 9        56.829 9  26258752.270 9 104388844.960 9      2265.535 9        59.839 9  26258752.270 9 104388844.960 9      2265.535 9        59.839 9                                                                                                                                                                                                
E14                                                                  21390889.480 9 112409802.042 9     -3057.370 9        58.184 9  21390889.480 9 112409802.042 9     -3057.370 9        58.184 9  21390894.809 9  83942357.645 9     -2283.100 9        58.044 9  21390894.809 9  83942357.645 9     -2283.100 9        58.044 9  21390894.116 9  86132161.068 9     -2342.659 9        58.044 9  21390894.116 9  86132161.068 9     -2342.659 9        58.044 9  21390894.456 9  85037259.365 9     -2312.880 9        61.054 9  21390894.456 9  85037259.365 9     -2312.880 9        61.054 9                                                                                                                                                                                                
E31                                                                  24244754.529 9 127406990.407 9       649.232 9        57.679 9  24244754.529 9 127406990.407 9       649.232 9        57.679 9  24244759.866 9  95141572.362 9       484.817 9        57.540 9  24244759.866 9  95141572.362 9       484.817 9        57.540 9  24244759.399 9  97623528.306 9       497.464 9        57.540 9  24244759.399 9  97623528.306 9       497.464 9        57.540 9  24244759.628 9  96382550.340 9       491.141 9        60.550 9  24244759.628 9  96382550.340 9       491.141 9        60.550 9                                                                                                                                                                                                
E26                                                                  26495474.297 9 139234585.471 9     -1418.831 9        57.038 9  26495474.297 9 139234585.471 9     -1418.831 9        57.038 9  26495478.657 9 103973853.391 9     -1059.516 9        56.898 9  26495478.657 9 103973853.391 9     -1059.516 9        56.898 9  26495478.043 9 106686217.258 9     -1087.156 9        56.898 9  26495478.043 9 106686217.258 9     -1087.156 9        56.898 9  26495478.344 9 105330035.332 9     -1073.336 9        59.908 9  26495478.344 9 105330035.332 9     -1073.336 9        59.908 9                                                                                                                                                                                                
E04                                                                  27043459.174 9 142114124.516 9     -2595.196 9        56.678 9  27043459.174 9 142114124.516 9     -2595.196 9        56.678 9  27043474.559 9 106124118.305 9     -1937.978 9        56.539 9  27043474.559 9 106124118.305 9     -1937.978 9        56.539 9  27043472.737 9 108892580.898 9     -1988.533 9        56.539 9  27043472.737 9 108892580.898 9     -1988.533 9        56.539 9  27043473.630 9 107508349.625 9     -1963.256 9        59.549 9  27043473.630 9 107508349.625 9     -1963.256 9        59.549 9                                                                                                                                                                                                
E01                                                                  25504158.173 9 134025183.002 9     -1017.124 9        57.245 9  25504158.173 9 134025183.002 9     -1017.124 9        57.245 9  25504163.723 9 100083719.210 9      -759.542 9        57.105 9  25504163.723 9 100083719.210 9      -759.542 9        57.105 9  25504163.099 9 102694601.352 9      -779.356 9        57.105 9  25504163.099 9 102694601.352 9      -779.356 9        57.105 9  25504163.405 9 101389160.289 9      -769.449 9        60.115 9  25504163.405 9 101389160.289 9      -769.449 9        60.115 9                                                                                                                                                                                                
E09                                                                  26383101.981 9 138644021.676 9     -1505.330 9        56.969 9  26383101.981 9 138644021.676 9     -1505.330 9        56.969 9  26383111.215 9 103532841.439 9     -1124.114 9        56.829 9  26383111.215 9 103532841.439 9     -1124.114 9        56.829 9  26383110.230 9 106233702.139 9     -1153.438 9        56.829 9  26383110.230 9 106233702.139 9     -1153.438 9        56.829 9  26383110.713 9 104883271.801 9     -1138.776 9        59.839 9  26383110.713 9 104883271.801 9     -1138.776 9        59.839 9                                                                                                                                                                                                
E33                                                                  24273096.479 9 127555912.856 9      1100.957 9        57.663 9  24273096.479 9 127555912.856 9      1100.957 9        57.663 9  24273100.938 9  95252768.053 9       822.146 9        57.523 9  24273100.938 9  95252768.053 9       822.146 9        57.523 9  24273100.337 9  97737625.289 9       843.593 9        57.523 9  24273100.337 9  97737625.289 9       843.593 9        57.523 9  24273100.632 9  96495196.679 9       832.869 9        60.533 9  24273100.632 9  96495196.679 9       832.869 9        60.533 9                                                                                                                                                                                                
E24                                                                  27052102.068 9 142159665.608 9      1663.857 9        56.774 9  27052102.068 9 142159665.608 9      1663.857 9        56.774 9  27052108.383 9 106158163.160 9      1242.494 9        56.634 9  27052108.383 9 106158163.160 9      1242.494 9        56.634 9  27052107.609 9 108927509.660 9      1274.906 9        56.634 9  27052107.609 9 108927509.660 9      1274.906 9        56.634 9  27052107.989 9 107542836.420 9      1258.700 9        59.644 9  27052107.989 9 107542836.420 9      1258.700 9        59.644 9                                                                                                                                                                                                
E10                                                                  28290283.976 9 148666201.307 9      3104.650 9        56.330 9  28290283.976 9 148666201.307 9      3104.650 9        56.330 9  28290302.589 9 111016896.771 9      2318.405 9        56.190 9  28290302.589 9 111016896.771 9      2318.405 9        56.190 9  28290300.495 9 113912998.160 9      2378.885 9        56.190 9  28290300.495 9 113912998.160 9      2378.885 9        56.190 9  28290301.522 9 112464947.492 9      2348.645 9        59.201 9  28290301.522 9 112464947.492 9      2348.645 9        59.201 9                                                                                                                                                                                                
Q02  39581061.531 9 207999769.825 9       890.431 9        55.925 9  39581061.531 9 207999769.825 9       890.431 9        57.430 9  39581061.531 8 207999769.825 8       890.431 8        53.425 8  39581068.450 9 162077714.388 9       693.843 9        54.425 9  39581070.015 9 155324470.147 9       664.933 9        56.525 9                                                                
Q03  39308999.782 9 206570088.768 9      -509.710 9        55.984 9  39308999.782 9 206570088.768 9      -509.710 9        57.489 9  39308999.782 8 206570088.768 8      -509.710 8        53.484 8  39309005.895 9 160963680.499 9      -397.176 9        54.484 9  39309007.278 9 154256855.052 9      -380.627 9        56.584 9                                                                
Q04  38176723.240 9 200619799.518 9      -198.808 9        56.233 9  38176723.240 9 200619799.518 9      -198.808 9        57.738 9  38176723.240 8 200619799.518 8      -198.808 8        53.733 8  38176737.717 9 156327057.228 9      -154.913 9        54.733 9  38176740.991 9 149813416.995 9      -148.457 9        56.833 9                                                                
Q07  37730492.424 9 198274958.644 9        -4.208 9        56.342 9  37730492.424 9 198274958.644 9        -4.208 9        57.846 9  37730492.424 8 198274958.644 8        -4.208 8        53.842 8  37730499.644 9 154499938.210 9        -3.278 9        54.842 9  37730501.277 9 148062434.376 9        -3.141 9        56.942 9                                                                
C03  37059186.463 8 192976776.010 8        33.748 8        51.995 8  37059191.928 8 149221837.350 8        26.097 8        51.995 8  37059192.341 8 156809407.207 8        27.424 8        51.995 8                                                                                                                                  37059177.925 9 149221913.292 9        26.097 9        54.995 9
C28  22006590.489 8 114593981.607 8     -1109.980 8        52.801 8  22006597.592 8  88611307.112 8      -858.307 8        52.801 8  22006597.122 8  93116978.928 8      -901.950 8        52.801 8  22006584.723 9  86358537.179 9      -836.486 9        58.801 9  22006583.131 9 115645353.805 9     -1120.164 9        55.801 9  22006584.543 9  88611369.311 9      -858.307 9        55.801 9
C07  36257733.446 8 188803424.587 8      -186.276 8        52.183 8  36257736.233 8 145994739.387 8      -144.040 8        52.183 8  36257734.293 8 153418206.385 8      -151.364 8        52.183 8  36257721.963 9 142283062.373 9      -140.378 9        58.183 9  36257720.458 9 190535587.084 9      -187.985 9        55.183 9  36257721.792 9 145994795.123 9      -144.040 9        55.183 9
C02  36969252.600 8 192508468.536 8         4.387 8        52.024 8  36969256.393 8 148859706.483 8         3.393 8        52.024 8  36969258.661 8 156428870.531 8         3.566 8        52.024 8                                                                                                                                  36969244.344 9 148859789.281 9         3.393 9        55.024 9
C16  37964863.695 8 197692835.028 8     -1462.261 8        51.784 8  37964876.988 8 152868604.067 8     -1130.715 8        51.784 8  37964872.987 8 160641589.196 8     -1188.209 8        51.784 8  37964855.039 9 148982189.443 9     -1101.968 9        57.784 9  37964851.854 9 199506600.860 9     -1475.676 9        54.784 9  37964854.678 9 152868682.797 9     -1130.715 9        54.784 9
C10  36463905.656 8 189877017.758 8       -96.534 8        52.135 8  36463911.687 8 146824922.984 8       -74.646 8        52.135 8  36463909.183 8 154290600.273 8       -78.442 8        52.135 8  36463896.903 9 143092137.149 9       -72.748 9        58.135 9  36463895.400 9 191619043.734 9       -97.420 9        55.135 9  36463896.733 9 146824976.196 9       -74.646 9        55.135 9
C09  36556759.845 8 190360512.637 8     -1128.053 8        52.103 8  36556767.219 8 147198786.249 8      -872.283 8        52.103 8  36556764.153 8 154683473.883 8      -916.636 8        52.103 8  36556750.376 9 143456501.617 9      -850.106 9        58.103 9  36556748.168 9 192106978.985 9     -1138.402 9        55.103 9  36556750.125 9 147198846.146 9      -872.283 9        55.103 9
C04  40360335.859 8 210166608.676 8        25.571 8        51.275 8  40360347.807 8 162514070.863 8        19.775 8        51.275 8  40360346.542 8 170777525.112 8        20.780 8        51.275 8                                                                                                                                  40360320.030 9 162514203.232 9        19.775 9        54.275 9
C06  37647458.993 8 196040038.309 8     -1447.953 8        51.845 8  37647466.211 8 151590539.018 8     -1119.651 8        51.845 8  37647464.323 8 159298545.082 8     -1176.582 8        51.845 8  37647447.564 9 147736619.673 9     -1091.185 9        57.845 9  37647444.680 9 197838618.889 9     -1461.237 9        54.845 9  37647447.236 9 151590619.764 9     -1119.651 9        54.845 9
C30  26160765.342 8 136225651.747 8      3208.368 8        51.305 8  26160785.904 8 105338232.448 8      2480.928 8        51.305 8  26160783.983 8 110694446.499 8      2607.073 8        51.305 8  26160752.859 9 102660294.293 9      2417.855 9        57.305 9  26160746.140 9 137475559.838 9      3237.803 9        54.305 9  26160752.096 9 105338391.997 9      2480.928 9        54.305 9
> 2023 01 08 10 35  0.0000000  0 43       0.000000000000
G01  21025587.762 9 110490108.845 9      1528.536 9        55.721 9                                                                  21025587.762 8 110490108.845 8      1528.536 8        52.721 8                                                                  21025594.857 8  86096167.054 8      1191.069 8        51.221 8  21025594.857 8  86096167.054 8      1191.069 8        49.721 8  21025595.355 9  82508817.720 9      1141.442 9        57.821 9
G07  20208344.958 9 106195485.865 9      -856.908 9        56.059 9                                                                  20208344.958 8 106195485.865 8      -856.908 8        53.059 8                                                                  20208347.940 8  82749699.285 8      -667.721 8        51.559 8  20208347.940 8  82749699.285 8      -667.721 8        50.059 8  20208351.272 9  79301799.084 9      -639.899 9        58.159 9
G13  24058602.302 9 126428607.344 9      1371.734 9        54.529 9                                                                  24058602.302 8 126428607.344 8      1371.734 8        51.529 8                                                                  24058612.421 8  98515738.003 8      1068.887 8        50.029 8  24058612.421 8  98515738.003 8      1068.887 8        48.529 8  24058617.478 9  94410913.461 9      1024.351 9        56.629 9
G17  21690548.619 9 113984484.354 9      1857.493 9        55.396 9                                                                  21690548.619 8 113984484.354 8      1857.493 8        52.396 8                                                                  21690553.713 8  88819040.106 8      1447.401 8        50.896 8  21690553.713 8  88819040.106 8      1447.401 8        49.396 8  21690557.523 9  85118248.829 9      1387.093 9        57.496 9
G09  24662935.512 9 129604377.331 9     -3067.247 9        54.389 9                                                                  24662935.512 8 129604377.331 8     -3067.247 8        51.389 8                                                                  24662949.453 8 100990368.288 8     -2390.068 8        49.889 8  24662949.453 8 100990368.288 8     -2390.068 8        48.389 8  24662952.385 9  96782423.354 9     -2290.484 9        56.489 9
G21  21651344.574 9 113778476.404 9     -1250.555 9        55.476 9                                                                  21651344.574 8 113778476.404 8     -1250.555 8        52.476 8                                                                  21651349.190 8  88658517.866 8      -974.458 8        50.976 8  21651349.190 8  88658517.866 8      -974.458 8        49.476 8  21651352.671 9  84964414.891 9      -933.856 9        57.576 9
G08  23526670.286 9 123633329.392 9     -3178.970 9        54.784 9                                                                  23526670.286 8 123633329.392 8     -3178.970 8        51.784 8                                                                  23526680.969 8  96337623.656 8     -2477.123 8        50.284 8  23526680.969 8  96337623.656 8     -2477.123 8        48.784 8  23526682.167 9  92323543.505 9     -2373.910 9        56.884 9
G30  20742404.889 9 109001986.931 9      1385.371 9        55.934 9                                                                  20742404.889 8 109001986.931 8      1385.371 8        52.934 8                                                                  20742410.934 8  84936594.358 8      1079.512 8        51.434 8  20742410.934 8  84936594.358 8      1079.512 8        49.934 8  20742411.415 9  81397562.033 9      1034.532 9        58.034 9
G14  21912730.642 9 115152062.257 9      1613.523 9        55.396 9                                                                  21912730.642 8 115152062.257 8      1613.523 8        52.396 8                                                                  21912736.153 8  89728844.539 8      1257.293 8        50.896 8  21912736.153 8  89728844.539 8      1257.293 8        49.396 8  21912739.283 9  85990142.453 9      1204.907 9        57.496 9
G19  24887765.277 9 130785852.303 9      3167.500 9        54.257 9                                                                  24887765.277 8 130785852.303 8      3167.500 8        51.257 8                                                                  24887776.882 8 101910981.811 8      2468.191 8        49.757 8  24887776.882 8 101910981.811 8      2468.191 8        48.257 8  24887783.162 9  97664689.651 9      2365.351 9        56.357 9
R11  22842979.598 8 122065780.808 8     -2475.573 8        53.654 8  22842979.598 8 122065780.808 8     -2475.573 8        53.654 8  22842990.370 7  94940006.967 7     -1925.449 7        47.654 7  22842990.370 7  94940006.967 7     -1925.449 7        47.654 7                                                                                                                                                                                                                                                                                                                                                                                                                                                                
R22  20260263.953 9 108150567.796 9     -2274.056 9        54.689 9  20260263.953 9 108150567.796 9     -2274.056 9        54.689 9  20260269.891 8  84117083.631 8     -1768.712 8        48.689 8  20260269.891 8  84117083.631 8     -1768.712 8        48.689 8                                                                                                                                                                                                                                                                                                                                                                                                                                                                
R12  19961725.379 9 106631863.272 9       172.727 9        54.824 9  19961725.379 9 106631863.272 9       172.727 9        54.824 9  19961730.924 8  82935870.617 8       134.344 8        48.824 8  19961730.924 8  82935870.617 8       134.344 8        48.824 8                                                                                                                                                                                                                                                                                                                                                                                                                                                                
R21  23990277.529 8 128376620.226 8     -4212.674 8        53.270 8  23990277.529 8 128376620.226 8     -4212.674 8        53.270 8  23990289.782 7  99848431.401 7     -3276.528 7        47.270 7  23990289.782 7  99848431.401 7     -3276.528 7        47.270 7                                                                                                                                                                                                                                                                                                                                                                                                                                                                
R03  23854686.184 8 127695763.374 8     -1999.237 8        53.271 8  23854686.184 8 127695763.374 8     -1999.237 8        53.271 8  23854700.792 7  99318866.249 7     -1554.967 7        47.271 7  23854700.792 7  99318866.249 7     -1554.967 7        47.271 7                                                                                                                                                                                                                                                                                                                                                                                                                                                                
R23  19800797.546 9 105920825.455 9      2385.195 9        54.905 9  19800797.546 9 105920825.455 9      2385.195 9        54.905 9  19800803.022 8  82382841.457 8      1855.154 8        48.905 8  19800803.022 8  82382841.457 8      1855.154 8        48.905 8                                                                                                                                                                                                                                                                                                                                                                                                                                                                
R13  21115920.588 9 112757717.498 9      2620.042 9        54.342 9  21115920.588 9 112757717.498 9      2620.042 9        54.342 9  21115927.948 8  87700416.374 8      2037.814 8        48.342 8  21115927.948 8  87700416.374 8      2037.814 8        48.342 8                                                                                                                                                                                                                                                                                                                                                                                                                                                                
R24  23271069.258 8 124440652.863 8      4340.773 8        53.479 8  23271069.258 8 124440652.863 8      4340.773 8        53.479 8  23271082.234 7  96787120.479 7      3376.168 7        47.479 7  23271082.234 7  96787120.479 7      3376.168 7        47.479 7                                                                                                                                                                                                                                                                                                                                                                                                                                                                
E05                                                                  27808419.683 9 146134130.485 9       435.931 9        56.443 9  27808419.683 9 146134130.485 9       435.931 9        56.443 9  27808428.268 9 109126110.098 9       325.533 9        56.303 9  27808428.268 9 109126110.098 9       325.533 9        56.303 9  27808427.401 9 111972881.681 9       334.025 9        56.303 9  27808427.401 9 111972881.681 9       334.025 9        56.303 9  27808427.826 9 110549495.901 9       329.779 9        59.314 9  27808427.826 9 110549495.901 9       329.779 9        59.314 9                                                                                                                                                                                                
E12                                                                  26088755.500 9 137097191.662 9      2959.438 9        57.025 9  26088755.500 9 137097191.662 9      2959.438 9        57.025 9  26088763.918 9 102377720.836 9      2209.980 9        56.885 9  26088763.918 9 102377720.836 9      2209.980 9        56.885 9  26088762.687 9 105048448.949 9      2267.630 9        56.885 9  26088762.687 9 105048448.949 9      2267.630 9        56.885 9  26088763.291 9 103713084.908 9      2238.805 9        59.896 9  26088763.291 9 103713084.908 9      2238.805 9        59.896 9                                                                                                                                                                                                
E14                                                                  21571808.503 9 113360539.545 9     -3279.055 9        58.111 9  21571808.503 9 113360539.545 9     -3279.055 9        58.111 9  21571813.710 9  84652324.442 9     -2448.643 9        57.971 9  21571813.710 9  84652324.442 9     -2448.643 9        57.971 9  21571813.031 9  86860648.682 9     -2512.521 9        57.971 9  21571813.031 9  86860648.682 9     -2512.521 9        57.971 9  21571813.364 9  85756486.571 9     -2480.582 9        60.981 9  21571813.364 9  85756486.571 9     -2480.582 9        60.981 9                                                                                                                                                                                                
E31                                                                  24208025.377 9 127213977.978 9       637.257 9        57.693 9  24208025.377 9 127213977.978 9       637.257 9        57.693 9  24208030.671 9  94997439.873 9       475.875 9        57.553 9  24208030.671 9  94997439.873 9       475.875 9        57.553 9  24208030.208 9  97475635.819 9       488.289 9        57.553 9  24208030.208 9  97475635.819 9       488.289 9        57.553 9  24208030.435 9  96236537.852 9       482.082 9        60.563 9  24208030.435 9  96236537.852 9       482.082 9        60.563 9                                                                                                                                                                                                
E26                                                                  26579993.113 9 139678735.469 9     -1541.487 9        57.009 9  26579993.113 9 139678735.469 9     -1541.487 9        57.009 9  26579997.427 9 104305524.029 9     -1151.110 9        56.869 9  26579997.427 9 104305524.029 9     -1151.110 9        56.869 9  26579996.818 9 107026540.151 9     -1181.139 9        56.869 9  26579996.818 9 107026540.151 9     -1181.139 9        56.869 9  26579997.116 9 105666032.098 9     -1166.124 9        59.880 9  26579997.116 9 105666032.098 9     -1166.124 9        59.880 9                                                                                                                                                                                                
E04                                                                  27191156.812 9 142890273.815 9     -2578.122 9        56.631 9  27191156.812 9 142890273.815 9     -2578.122 9        56.631 9  27191172.727 9 106703708.232 9     -1925.228 9        56.491 9  27191172.727 9 106703708.232 9     -1925.228 9        56.491 9  27191170.845 9 109487290.805 9     -1975.450 9        56.491 9  27191170.845 9 109487290.805 9     -1975.450 9        56.491 9  27191171.768 9 108095499.543 9     -1950.339 9        59.501 9  27191171.768 9 108095499.543 9     -1950.339 9        59.501 9                                                                                                                                                                                                
E01                                                                  25562929.322 9 134334026.784 9     -1042.192 9        57.225 9  25562929.322 9 134334026.784 9     -1042.192 9        57.225 9  25562934.923 9 100314349.104 9      -778.261 9        57.085 9  25562934.923 9 100314349.104 9      -778.261 9        57.085 9  25562934.294 9 102931247.702 9      -798.563 9        57.085 9  25562934.294 9 102931247.702 9      -798.563 9        57.085 9  25562934.602 9 101622798.411 9      -788.412 9        60.095 9  25562934.602 9 101622798.411 9      -788.412 9        60.095 9                                                                                                                                                                                                
E09                                                                  26471590.086 9 139109025.883 9     -1593.735 9        56.939 9  26471590.086 9 139109025.883 9     -1593.735 9        56.939 9  26471599.616 9 103880083.678 9     -1190.131 9        56.799 9  26471599.616 9 103880083.678 9     -1190.131 9        56.799 9  26471598.598 9 106590003.006 9     -1221.177 9        56.799 9  26471598.598 9 106590003.006 9     -1221.177 9        56.799 9  26471599.097 9 105235043.355 9     -1205.654 9        59.810 9  26471599.097 9 105235043.355 9     -1205.654 9        59.810 9                                                                                                                                                                                                
E33                                                                  24214147.081 9 127246134.150 9       963.746 9        57.684 9  24214147.081 9 127246134.150 9       963.746 9        57.684 9  24214151.353 9  95021440.531 9       719.683 9        57.544 9  24214151.353 9  95021440.531 9       719.683 9        57.544 9  24214150.774 9  97500263.050 9       738.457 9        57.544 9  24214150.774 9  97500263.050 9       738.457 9        57.544 9  24214151.058 9  96260851.798 9       729.070 9        60.555 9  24214151.058 9  96260851.798 9       729.070 9        60.555 9                                                                                                                                                                                                
E24                                                                  26956734.805 9 141658510.876 9      1677.240 9        56.805 9  26956734.805 9 141658510.876 9      1677.240 9        56.805 9  26956740.845 9 105783925.310 9      1252.486 9        56.665 9  26956740.845 9 105783925.310 9      1252.486 9        56.665 9  26956740.103 9 108543508.959 9      1285.160 9        56.665 9  26956740.103 9 108543508.959 9      1285.160 9        56.665 9  26956740.467 9 107163717.144 9      1268.823 9        59.675 9  26956740.467 9 107163717.144 9      1268.823 9        59.675 9                                                                                                                                                                                                
E10                                                                  28112540.363 9 147732152.080 9      3121.374 9        56.385 9  28112540.363 9 147732152.080 9      3121.374 9        56.385 9  28112558.994 9 110319392.408 9      2330.898 9        56.245 9  28112558.994 9 110319392.408 9      2330.898 9        56.245 9  28112556.899 9 113197298.039 9      2391.704 9        56.245 9  28112556.899 9 113197298.039 9      2391.704 9        56.245 9  28112557.926 9 111758345.250 9      2361.301 9        59.256 9  28112557.926 9 111758345.250 9      2361.301 9        59.256 9                                                                                                                                                                                                
Q02  39529841.020 9 207730604.975 9       903.839 9        55.937 9  39529841.020 9 207730604.975 9       903.839 9        57.441 9  39529841.020 8 207730604.975 8       903.839 8        53.437 8  39529847.893 9 161867975.734 9       704.291 9        54.437 9  39529849.447 9 155123470.645 9       674.945 9        56.537 9                                                                
Q03  39338290.959 9 206724015.992 9      -516.331 9        55.978 9  39338290.959 9 206724015.992 9      -516.331 9        57.482 9  39338290.959 8 206724015.992 8      -516.331 8        53.478 8  39338297.007 9 161083624.056 9      -402.335 9        54.478 9  39338298.376 9 154371801.018 9      -385.571 9        56.578 9                                                                
Q04  38187761.783 9 200677810.622 9      -187.952 9        56.230 9  38187761.783 9 200677810.622 9      -187.952 9        57.735 9  38187761.783 8 200677810.622 8      -187.952 8        53.730 8  38187776.065 9 156372261.484 9      -146.453 9        54.730 9  38187779.295 9 149856737.913 9      -140.351 9        56.830 9                                                                
Q07  37730731.114 9 198276213.782 9        -4.154 9        56.342 9  37730731.114 9 198276213.782 9        -4.154 9        57.846 9  37730731.114 8 198276213.782 8        -4.154 8        53.842 8  37730738.284 9 154500916.445 9        -3.236 9        54.842 9  37730739.906 9 148063371.896 9        -3.101 9        56.942 9                                                                
C03  37057224.631 8 192966561.235 8        34.354 8        51.995 8  37057230.031 8 149213938.898 8        26.566 8        51.995 8  37057230.459 8 156801107.074 8        27.916 8        51.995 8                                                                                                                                  37057216.196 9 149214014.162 9        26.566 9        54.995 9
C28  22074493.158 8 114947568.143 8     -1246.401 8        52.774 8  22074500.293 8  88884722.525 8      -963.797 8        52.774 8  22074499.816 8  93404296.851 8     -1012.803 8        52.774 8  22074487.364 9  86625001.590 9      -939.294 9        58.774 9  22074485.764 9 116002184.448 9     -1257.836 9        55.774 9  22074487.182 9  88884784.971 9      -963.797 9        55.774 9
C07  36268121.725 8 188857519.611 8      -174.258 8        52.180 8  36268124.478 8 146036569.229 8      -134.747 8        52.180 8  36268122.546 8 153462163.134 8      -141.598 8        52.180 8  36268110.305 9 142323828.365 9      -131.321 9        58.180 9  36268108.795 9 190590178.092 9      -175.857 9        55.180 9  36268110.133 9 146036624.577 9      -134.747 9        55.180 9
C02  36968985.672 8 192507079.459 8         4.879 8        52.024 8  36968989.408 8 148858632.590 8         3.773 8        52.024 8  36968991.689 8 156427741.977 8         3.965 8        52.024 8                                                                                                                                  36968977.515 9 148858714.761 9         3.773 9        55.024 9
C16  38049902.810 8 198135653.628 8     -1489.613 8        51.764 8  38049916.259 8 153211018.877 8     -1151.865 8        51.764 8  38049912.221 8 161001415.082 8     -1210.434 8        51.764 8  38049894.141 9 149315899.454 9     -1122.581 9        57.764 9  38049890.861 9 199953482.592 9     -1503.279 9        54.764 9  38049893.768 9 153211098.330 9     -1151.865 9        54.764 9
C10  36469115.624 8 189904148.009 8       -84.214 8        52.134 8  36469121.618 8 146845901.965 8       -65.119 8        52.134 8  36469119.122 8 154312645.945 8       -68.430 8        52.134 8  36469106.936 9 143112582.369 9       -63.463 9        58.134 9  36469105.429 9 191646422.569 9       -84.987 9        55.134 9  36469106.765 9 146845954.771 9       -65.119 9        55.134 9
C09  36622999.655 8 190705439.457 8     -1171.304 8        52.087 8  36623007.110 8 147465505.220 8      -905.728 8        52.087 8  36623004.024 8 154963754.916 8      -951.781 8        52.087 8  36622990.177 9 143716439.947 9      -882.701 9        58.087 9  36622987.920 9 192455070.574 9     -1182.050 9        55.087 9  36622989.921 9 147465565.499 9      -905.728 9        55.087 9
C04  40358860.918 8 210158930.613 8        25.630 8        51.275 8  40358872.716 8 162508134.306 8        19.820 8        51.275 8  40358871.486 8 170771286.546 8        20.828 8        51.275 8                                                                                                                                  40358845.296 9 162508265.234 9        19.820 9        54.275 9
C06  37731726.450 8 196478838.982 8     -1477.152 8        51.826 8  37731733.803 8 151929846.990 8     -1142.229 8        51.826 8  37731731.883 8 159655106.136 8     -1200.308 8        51.826 8  37731715.001 9 148067301.778 9     -1113.190 9        57.826 9  37731712.037 9 198281445.781 9     -1490.704 9        54.826 9  37731714.665 9 151929928.396 9     -1142.229 9        54.826 9
C30  25976914.076 8 135268305.479 8      3173.149 8        51.366 8  25976933.636 8 104597955.622 8      2453.693 8        51.366 8  25976931.950 8 109916527.482 8      2578.454 8        51.366 8  25976902.245 9 101938831.569 9      2391.313 9        57.366 9  25976895.897 9 136509425.199 9      3202.260 9        54.366 9  25976901.525 9 104598108.337 9      2453.693 9        54.366 9
> 2023 01 08 10 40  0.0000000  0 43       0.000000000000
G01  20943931.529 9 110061004.923 9      1330.972 9        55.755 9                                                                  20943931.529 8 110061004.923 8      1330.972 8        52.755 8                                                                  20943938.472 8  85761800.986 8      1037.123 8        51.255 8  20943938.472 8  85761800.986 8      1037.123 8        49.755 8  20943938.934 9  82188383.707 9       993.910 9        57.855 9
G07  20262472.236 9 106479926.130 9     -1039.300 9        56.036 9                                                                  20262472.236 8 106479926.130 8     -1039.300 8        53.036 8                                                                  20262475.249 8  82971340.924 8      -809.845 8        51.536 8  20262475.249 8  82971340.924 8      -809.845 8        50.036 8  20262478.588 9  79514205.627 9      -776.101 9        58.136 9
G13  23985144.284 9 126042587.124 9      1201.273 9        54.556 9                                                                  23985144.284 8 126042587.124 8      1201.273 8        51.556 8                                                                  23985154.140 8  98214944.102 8       936.061 8        50.056 8  23985154.140 8  98214944.102 8       936.061 8        48.556 8  23985159.138 9  94122652.872 9       897.059 9        56.656 9
G17  21588040.266 9 113445803.527 9      1733.662 9        55.437 9                                                                  21588040.266 8 113445803.527 8      1733.662 8        52.437 8                                                                  21588045.101 8  88399289.872 8      1350.909 8        50.937 8  21588045.101 8  88399289.872 8      1350.909 8        49.437 8  21588048.853 9  84715988.417 9      1294.622 9        57.537 9
G09  24836819.870 9 130518138.464 9     -3023.156 9        54.327 9                                                                  24836819.870 8 130518138.464 8     -3023.156 8        51.327 8                                                                  24836834.262 8 101702388.102 8     -2355.712 8        49.827 8  24836834.262 8 101702388.102 8     -2355.712 8        48.327 8  24836837.296 9  97464775.275 9     -2257.559 9        56.427 9
G21  21727976.697 9 114181180.672 9     -1433.364 9        55.445 9                                                                  21727976.697 8 114181180.672 8     -1433.364 8        52.445 8                                                                  21727981.329 8  88972313.335 8     -1116.907 8        50.945 8  21727981.329 8  88972313.335 8     -1116.907 8        49.445 8  21727984.813 9  85265135.535 9     -1070.369 9        57.545 9
G08  23708256.939 9 124587569.715 9     -3181.695 9        54.717 9                                                                  23708256.939 8 124587569.715 8     -3181.695 8        51.717 8                                                                  23708267.868 8  97081186.541 8     -2479.246 8        50.217 8  23708267.868 8  97081186.541 8     -2479.246 8        48.717 8  23708269.121 9  93036124.385 9     -2375.945 9        56.817 9
G30  20667877.203 9 108610342.917 9      1224.520 9        55.965 9                                                                  20667877.203 8 108610342.917 8      1224.520 8        52.965 8                                                                  20667883.149 8  84631417.611 8       954.172 8        51.465 8  20667883.149 8  84631417.611 8       954.172 8        49.965 8  20667883.608 9  81105101.073 9       914.416 9        58.065 9
G14  21821319.241 9 114671695.379 9      1588.719 9        55.433 9                                                                  21821319.241 8 114671695.379 8      1588.719 8        52.433 8                                                                  21821324.550 8  89354533.512 8      1237.966 8        50.933 8  21821324.550 8  89354533.512 8      1237.966 8        49.433 8  21821327.634 9  85631427.899 9      1186.384 9        57.533 9
G19  24708356.994 9 129843065.919 9      3117.140 9        54.319 9                                                                  24708356.994 8 129843065.919 8      3117.140 8        51.319 8                                                                  24708367.953 8 101176345.718 8      2428.949 8        49.819 8  24708367.953 8 101176345.718 8      2428.949 8        48.319 8  24708374.086 9  96960663.970 9      2327.744 9        56.419 9
R11  22984811.306 8 122823682.191 8     -2577.015 8        53.600 8  22984811.306 8 122823682.191 8     -2577.015 8        53.600 8  22984822.339 7  95529484.739 7     -2004.349 7        47.600 7  22984822.339 7  95529484.739 7     -2004.349 7        47.600 7                                                                                                                                                                                                                                                                                                                                                                                                                                                                
R22  20393983.802 9 108864371.289 9     -2482.668 9        54.631 9  20393983.802 9 108864371.289 9     -2482.668 9        54.631 9  20393989.871 8  84672263.582 8     -1930.966 8        48.631 8  20393989.871 8  84672263.582 8     -1930.966 8        48.631 8                                                                                                                                                                                                                                                                                                                                                                                                                                                                
R12  19955555.233 9 106598904.212 9        45.879 9        54.827 9  19955555.233 9 106598904.212 9        45.879 9        54.827 9  19955560.732 8  82910235.984 8        35.684 8        48.827 8  19955560.732 8  82910235.984 8        35.684 8        48.827 8                                                                                                                                                                                                                                                                                                                                                                                                                                                                
R21  24227541.939 8 129646265.934 8     -4249.581 8        53.184 8  24227541.939 8 129646265.934 8     -4249.581 8        53.184 8  24227554.441 7 100835932.582 7     -3305.233 7        47.184 7  24227554.441 7 100835932.582 7     -3305.233 7        47.184 7                                                                                                                                                                                                                                                                                                                                                                                                                                                                
R03  23970302.652 8 128314661.436 8     -2124.618 8        53.229 8  23970302.652 8 128314661.436 8     -2124.618 8        53.229 8  23970317.622 7  99800229.899 7     -1652.486 7        47.229 7  23970317.622 7  99800229.899 7     -1652.486 7        47.229 7                                                                                                                                                                                                                                                                                                                                                                                                                                                                
R23  19673538.381 9 105240077.742 9      2151.807 9        54.961 9  19673538.381 9 105240077.742 9      2151.807 9        54.961 9  19673543.673 8  81853371.778 8      1673.630 8        48.961 8  19673543.673 8  81853371.778 8      1673.630 8        48.961 8                                                                                                                                                                                                                                                                                                                                                                                                                                                                
R13  20969710.409 9 111976968.328 9      2583.622 9        54.403 9  20969710.409 9 111976968.328 9      2583.622 9        54.403 9  20969717.462 8  87093168.296 8      2009.488 8        48.403 8  20969717.462 8  87093168.296 8      2009.488 8        48.403 8                                                                                                                                                                                                                                                                                                                                                                                                                                                                
R24  23029124.464 8 123146878.013 8      4282.525 8        53.569 8  23029124.464 8 123146878.013 8      4282.525 8        53.569 8  23029136.665 7  95780854.375 7      3330.863 7        47.569 7  23029136.665 7  95780854.375 7      3330.863 7        47.569 7                                                                                                                                                                                                                                                                                                                                                                                                                                                                
E05                                                                  27787145.512 9 146022334.676 9       309.410 9        56.450 9  27787145.512 9 146022334.676 9       309.410 9        56.450 9  27787154.043 9 109042626.427 9       231.053 9        56.310 9  27787154.043 9 109042626.427 9       231.053 9        56.310 9  27787153.182 9 111887220.150 9       237.080 9        56.310 9  27787153.182 9 111887220.150 9       237.080 9        56.310 9  27787153.604 9 110464923.300 9       234.067 9        59.320 9  27787153.604 9 110464923.300 9       234.067 9        59.320 9                                                                                                                                                                                                
E12                                                                  25920970.933 9 136215487.336 9      2917.566 9        57.081 9  25920970.933 9 136215487.336 9      2917.566 9        57.081 9  25920978.634 9 101719308.088 9      2178.711 9        56.942 9  25920978.634 9 101719308.088 9      2178.711 9        56.942 9  25920977.483 9 104372859.887 9      2235.546 9        56.942 9  25920977.483 9 104372859.887 9      2235.546 9        56.942 9  25920978.047 9 103046084.002 9      2207.129 9        59.952 9  25920978.047 9 103046084.002 9      2207.129 9        59.952 9                                                                                                                                                                                                
E14                                                                  21765065.084 9 114376112.671 9     -3489.495 9        58.033 9  21765065.084 9 114376112.671 9     -3489.495 9        58.033 9  21765070.069 9  85410707.841 9     -2605.788 9        57.893 9  21765070.069 9  85410707.841 9     -2605.788 9        57.893 9  21765069.415 9  87638815.895 9     -2673.765 9        57.893 9  21765069.415 9  87638815.895 9     -2673.765 9        57.893 9  21765069.736 9  86524761.876 9     -2639.777 9        60.904 9  21765069.736 9  86524761.876 9     -2639.777 9        60.904 9                                                                                                                                                                                                
E31                                                                  24172026.808 9 127024804.831 9       623.605 9        57.706 9  24172026.808 9 127024804.831 9       623.605 9        57.706 9  24172032.056 9  94856174.391 9       465.680 9        57.566 9  24172032.056 9  94856174.391 9       465.680 9        57.566 9  24172031.599 9  97330685.130 9       477.828 9        57.566 9  24172031.599 9  97330685.130 9       477.828 9        57.566 9  24172031.823 9  96093429.766 9       471.754 9        60.576 9  24172031.823 9  96093429.766 9       471.754 9        60.576 9                                                                                                                                                                                                
E26                                                                  26671394.383 9 140159053.008 9     -1659.894 9        56.979 9  26671394.383 9 140159053.008 9     -1659.894 9        56.979 9  26671398.650 9 104664202.894 9     -1239.531 9        56.839 9  26671398.650 9 104664202.894 9     -1239.531 9        56.839 9  26671398.046 9 107394575.835 9     -1271.866 9        56.839 9  26671398.046 9 107394575.835 9     -1271.866 9        56.839 9  26671398.342 9 106029389.372 9     -1255.698 9        59.849 9  26671398.342 9 106029389.372 9     -1255.698 9        59.849 9                                                                                                                                                                                                
E04                                                                  27337700.418 9 143660359.357 9     -2554.789 9        56.584 9  27337700.418 9 143660359.357 9     -2554.789 9        56.584 9  27337716.810 9 107278770.242 9     -1907.802 9        56.444 9  27337716.810 9 107278770.242 9     -1907.802 9        56.444 9  27337714.874 9 110077354.651 9     -1957.570 9        56.444 9  27337714.874 9 110077354.651 9     -1957.570 9        56.444 9  27337715.823 9 108678062.471 9     -1932.686 9        59.455 9  27337715.823 9 108678062.471 9     -1932.686 9        59.455 9                                                                                                                                                                                                
E01                                                                  25623191.953 9 134650708.337 9     -1069.381 9        57.204 9  25623191.953 9 134650708.337 9     -1069.381 9        57.204 9  25623197.608 9 100550831.870 9      -798.564 9        57.064 9  25623197.608 9 100550831.870 9      -798.564 9        57.064 9  25623196.973 9 103173899.608 9      -819.396 9        57.064 9  25623196.973 9 103173899.608 9      -819.396 9        57.064 9  25623197.284 9 101862365.747 9      -808.980 9        60.075 9  25623197.284 9 101862365.747 9      -808.980 9        60.075 9                                                                                                                                                                                                
E09                                                                  26564954.143 9 139599653.247 9     -1676.116 9        56.908 9  26564954.143 9 139599653.247 9     -1676.116 9        56.908 9  26564963.980 9 104246460.051 9     -1251.649 9        56.769 9  26564963.980 9 104246460.051 9     -1251.649 9        56.769 9  26564962.927 9 106965937.164 9     -1284.300 9        56.769 9  26564962.927 9 106965937.164 9     -1284.300 9        56.769 9  26564963.443 9 105606198.621 9     -1267.975 9        59.779 9  26564963.443 9 105606198.621 9     -1267.975 9        59.779 9                                                                                                                                                                                                
E33                                                                  24163112.948 9 126977950.298 9       823.737 9        57.703 9  24163112.948 9 126977950.298 9       823.737 9        57.703 9  24163117.045 9  94821174.058 9       615.131 9        57.563 9  24163117.045 9  94821174.058 9       615.131 9        57.563 9  24163116.485 9  97294772.154 9       631.177 9        57.563 9  24163116.485 9  97294772.154 9       631.177 9        57.563 9  24163116.760 9  96057973.113 9       623.154 9        60.573 9  24163116.760 9  96057973.113 9       623.154 9        60.573 9                                                                                                                                                                                                
E24                                                                  26860596.895 9 141153305.607 9      1690.827 9        56.836 9  26860596.895 9 141153305.607 9      1690.827 9        56.836 9  26860602.720 9 105406662.481 9      1262.633 9        56.696 9  26860602.720 9 105406662.481 9      1262.633 9        56.696 9  26860602.002 9 108156404.392 9      1295.571 9        56.696 9  26860602.002 9 108156404.392 9      1295.571 9        56.696 9  26860602.354 9 106781533.445 9      1279.102 9        59.707 9  26860602.354 9 106781533.445 9      1279.102 9        59.707 9                                                                                                                                                                                                
E10                                                                  27934008.492 9 146793965.057 9      3132.252 9        56.441 9  27934008.492 9 146793965.057 9      3132.252 9        56.441 9  27934026.799 9 109618799.474 9      2339.025 9        56.301 9  27934026.799 9 109618799.474 9      2339.025 9        56.301 9  27934024.740 9 112478428.619 9      2400.043 9        56.301 9  27934024.740 9 112478428.619 9      2400.043 9        56.301 9  27934025.749 9 111048614.073 9      2369.534 9        59.311 9  27934025.749 9 111048614.073 9      2369.534 9        59.311 9                                                                                                                                                                                                
Q02  39477884.400 9 207457571.861 9       916.215 9        55.948 9  39477884.400 9 207457571.861 9       916.215 9        57.453 9  39477884.400 8 207457571.861 8       916.215 8        53.448 8  39477891.225 9 161655222.852 9       713.934 9        54.448 9  39477892.769 9 154919582.508 9       684.187 9        56.548 9                                                                
Q03  39367937.012 9 206879808.085 9      -522.140 9        55.971 9  39367937.012 9 206879808.085 9      -522.140 9        57.476 9  39367937.012 8 206879808.085 8      -522.140 8        53.471 8  39367942.997 9 161205020.752 9      -406.861 9        54.471 9  39367944.351 9 154488139.575 9      -389.909 9        56.571 9                                                                
Q04  38198187.728 9 200732602.608 9      -177.352 9        56.228 9  38198187.728 9 200732602.608 9      -177.352 9        57.733 9  38198187.728 8 200732602.608 8      -177.352 8        53.728 8  38198201.808 9 156414957.364 9      -138.193 9        54.728 9  38198204.993 9 149897654.977 9      -132.435 9        56.828 9                                                                
Q07  37730966.700 9 198277452.629 9        -4.099 9        56.342 9  37730966.700 9 198277452.629 9        -4.099 9        57.846 9  37730966.700 8 198277452.629 8        -4.099 8        53.842 8  37730973.819 9 154501881.991 9        -3.193 9        54.842 9  37730975.429 9 148064297.256 9        -3.060 9        56.942 9                                                                
C03  37055228.378 8 192956167.247 8        34.943 8        51.996 8  37055233.712 8 149205901.874 8        27.021 8        51.996 8  37055234.155 8 156792661.322 8        28.395 8        51.996 8                                                                                                                                  37055220.047 9 149205976.452 9        27.021 9        54.996 9
C28  22150102.154 8 115341283.354 8     -1377.449 8        52.744 8  22150109.331 8  89189167.926 8     -1065.132 8        52.744 8  22150108.845 8  93724222.570 8     -1119.291 8        52.744 8  22150096.316 9  86921707.193 9     -1038.052 9        58.744 9  22150094.707 9 116399512.001 9     -1390.086 9        55.744 9  22150096.133 9  89189230.725 9     -1065.132 9        55.744 9
C07  36277801.555 8 188907925.586 8      -161.692 8        52.178 8  36277804.273 8 146075546.472 8      -125.030 8        52.178 8  36277802.349 8 153503122.235 8      -131.387 8        52.178 8  36277790.199 9 142361814.267 9      -121.851 9        58.178 9  36277788.685 9 190641046.194 9      -163.175 9        55.178 9  36277790.027 9 146075601.418 9      -125.030 9        55.178 9
C02  36968690.488 8 192505543.269 8         5.368 8        52.024 8  36968694.165 8 148857444.948 8         4.152 8        52.024 8  36968696.460 8 156426493.887 8         4.363 8        52.024 8                                                                                                                                  36968682.430 9 148857526.482 9         4.152 9        55.024 9
C16  38136471.085 8 198586434.913 8     -1515.336 8        51.744 8  38136484.690 8 153559590.929 8     -1171.756 8        51.744 8  38136480.615 8 161367711.292 8     -1231.337 8        51.744 8  38136462.405 9 149655610.161 9     -1141.966 9        57.744 9  38136459.026 9 200408400.059 9     -1529.238 9        54.744 9  38136462.021 9 153559671.100 9     -1171.756 9        54.744 9
C10  36473596.193 8 189927480.116 8       -71.222 8        52.133 8  36473602.148 8 146863943.989 8       -55.073 8        52.133 8  36473599.662 8 154331605.321 8       -57.873 8        52.133 8  36473587.571 9 143130165.287 9       -53.672 9        58.133 9  36473586.060 9 191669968.406 9       -71.875 9        55.133 9  36473587.399 9 146863996.375 9       -55.073 9        55.133 9
C09  36691702.133 8 191063189.963 8     -1213.530 8        52.071 8  36691709.673 8 147742140.260 8      -938.379 8        52.071 8  36691706.567 8 155254456.230 8      -986.093 8        52.071 8  36691692.644 9 143986042.272 9      -914.522 9        58.071 9  36691690.335 9 192816103.523 9     -1224.663 9        55.071 9  36691692.382 9 147742200.952 9      -938.379 9        55.071 9
C04  40357382.976 8 210151236.961 8        25.675 8        51.275 8  40357394.619 8 162502185.706 8        19.856 8        51.275 8  40357393.426 8 170765035.322 8        20.865 8        51.275 8                                                                                                                                  40357367.561 9 162502315.179 9        19.856 9        54.275 9
C06  37817632.774 8 196926173.616 8     -1504.836 8        51.806 8  37817640.265 8 152275753.950 8     -1163.637 8        51.806 8  37817638.313 8 160018601.722 8     -1222.804 8        51.806 8  37817621.307 9 148404415.105 9     -1134.053 9        57.806 9  37817618.261 9 198732884.933 9     -1518.642 9        54.806 9  37817620.962 9 152275836.021 9     -1163.637 9        54.806 9
C30  25795244.396 8 134322318.619 8      3132.655 8        51.427 8  25795262.997 8 103866462.432 8      2422.380 8        51.427 8  25795261.536 8 109147838.770 8      2545.549 8        51.427 8  25795233.158 9 101225929.580 9      2360.796 9        57.427 9  25795227.178 9 135554754.513 9      3161.394 9        54.427 9  25795232.479 9 103866608.736 9      2422.380 9        54.427 9
> 2023 01 08 10 45  0.0000000  0 42       0.000000000000
G01  20873751.786 9 109692210.069 9      1126.620 9        55.784 9                                                                  20873751.786 8 109692210.069 8      1126.620 8        52.784 8                                                                  20873758.593 8  85474428.924 8       877.887 8        51.284 8  20873758.593 8  85474428.924 8       877.887 8        49.784 8  20873759.026 9  81912985.600 9       841.309 9        57.884 9
G07  20326993.365 9 106818986.236 9     -1220.909 9        56.009 9                                                                  20326993.365 8 106818986.236 8     -1220.909 8        53.009 8                                                                  20326996.421 8  83235543.424 8      -951.358 8        51.509 8  20326996.421 8  83235543.424 8      -951.358 8        50.009 8  20326999.770 9  79767399.651 9      -911.719 9        58.109 9
G13  23921493.903 9 125708105.949 9      1028.261 9        54.579 9                                                                  23921493.903 8 125708105.949 8      1028.261 8        51.579 8                                                                  23921503.524 8  97954310.386 8       801.246 8        50.079 8  23921503.524 8  97954310.386 8       801.246 8        48.579 8  23921508.468 9  93872879.104 9       767.861 9        56.679 9
G17  21492609.409 9 112944314.867 9      1609.624 9        55.475 9                                                                  21492609.409 8 112944314.867 8      1609.624 8        52.475 8                                                                  21492614.005 8  88008520.465 8      1254.256 8        50.975 8  21492614.005 8  88008520.465 8      1254.256 8        49.475 8  21492617.703 9  84341501.281 9      1201.996 9        57.575 9
G09  25007952.875 9 131417441.170 9     -2970.911 9        54.268 9                                                                  25007952.875 8 131417441.170 8     -2970.911 8        51.268 8                                                                  25007967.717 8 102403141.616 8     -2315.002 8        49.768 8  25007967.717 8 102403141.616 8     -2315.002 8        48.268 8  25007970.852 9  98136330.326 9     -2218.545 9        56.368 9
G21  21814904.484 9 114637988.792 9     -1611.131 9        55.411 9                                                                  21814904.484 8 114637988.792 8     -1611.131 8        52.411 8                                                                  21814909.146 8  89328267.593 8     -1255.427 8        50.911 8  21814909.146 8  89328267.593 8     -1255.427 8        49.411 8  21814912.637 9  85606258.339 9     -1203.118 9        57.511 9
G08  23889836.733 9 125541774.129 9     -3178.791 9        54.651 9                                                                  23889836.733 8 125541774.129 8     -3178.791 8        51.651 8                                                                  23889847.897 8  97824721.480 8     -2476.984 8        50.151 8  23889847.897 8  97824721.480 8     -2476.984 8        48.651 8  23889849.204 9  93748678.492 9     -2373.777 9        56.751 9
G30  20602712.338 9 108267900.663 9      1057.442 9        55.993 9                                                                  20602712.338 8 108267900.663 8      1057.442 8        52.993 8                                                                  20602718.196 8  84364579.850 8       823.982 8        51.493 8  20602718.196 8  84364579.850 8       823.982 8        49.993 8  20602718.635 9  80849381.630 9       789.650 9        58.093 9
G14  21731364.603 9 114198983.730 9      1562.443 9        55.469 9                                                                  21731364.603 8 114198983.730 8      1562.443 8        52.469 8                                                                  21731369.718 8  88986187.569 8      1217.491 8        50.969 8  21731369.718 8  88986187.569 8      1217.491 8        49.469 8  21731372.757 9  85278429.876 9      1166.762 9        57.569 9
G19  24531935.697 9 128915975.762 9      3062.893 9        54.381 9                                                                  24531935.697 8 128915975.762 8      3062.893 8        51.381 8                                                                  24531946.040 8 100453940.328 8      2386.678 8        49.881 8  24531946.040 8 100453940.328 8      2386.678 8        48.381 8  24531952.034 9  96268359.352 9      2287.235 9        56.481 9
R11  23132312.868 8 123611881.314 8     -2677.476 8        53.544 8  23132312.868 8 123611881.314 8     -2677.476 8        53.544 8  23132324.176 7  96142527.357 7     -2082.486 7        47.544 7  23132324.176 7  96142527.357 7     -2082.486 7        47.544 7                                                                                                                                                                                                                                                                                                                                                                                                                                                                
R22  20539087.360 9 109638941.481 9     -2679.068 9        54.570 9  20539087.360 9 109638941.481 9     -2679.068 9        54.570 9  20539093.579 8  85274706.441 8     -2083.721 8        48.570 8  20539093.579 8  85274706.441 8     -2083.721 8        48.570 8                                                                                                                                                                                                                                                                                                                                                                                                                                                                
R12  19956696.194 9 106604999.637 9       -87.591 9        54.826 9  19956696.194 9 106604999.637 9       -87.591 9        54.826 9  19956701.655 8  82914977.027 8       -68.126 8        48.826 8  19956701.655 8  82914977.027 8       -68.126 8        48.826 8                                                                                                                                                                                                                                                                                                                                                                                                                                                                
R03  24092578.418 8 128969206.692 8     -2236.833 8        53.185 8  24092578.418 8 128969206.692 8     -2236.833 8        53.185 8  24092593.784 7 100309319.005 7     -1739.764 7        47.185 7  24092593.784 7 100309319.005 7     -1739.764 7        47.185 7                                                                                                                                                                                                                                                                                                                                                                                                                                                                
R23  19559581.864 9 104630489.815 9      1910.990 9        55.011 9  19559581.864 9 104630489.815 9      1910.990 9        55.011 9  19559586.999 8  81379248.493 8      1486.328 8        49.011 8  19559586.999 8  81379248.493 8      1486.328 8        49.011 8                                                                                                                                                                                                                                                                                                                                                                                                                                                                
R13  20825780.329 9 111208394.503 9      2538.795 9        54.462 9  20825780.329 9 111208394.503 9      2538.795 9        54.462 9  20825787.090 8  86495389.867 8      1974.622 8        48.462 8  20825787.090 8  86495389.867 8      1974.622 8        48.462 8                                                                                                                                                                                                                                                                                                                                                                                                                                                                
R24  22790774.856 8 121872327.527 8      4212.615 8        53.660 8  22790774.856 8 121872327.527 8      4212.615 8        53.660 8  22790786.326 7  94789540.373 7      3276.489 7        47.660 7  22790786.326 7  94789540.373 7      3276.489 7        47.660 7                                                                                                                                                                                                                                                                                                                                                                                                                                                                
E05                                                                  27773084.480 9 145948443.734 9       183.303 9        56.454 9  27773084.480 9 145948443.734 9       183.303 9        56.454 9  27773092.990 9 108987448.209 9       136.882 9        56.314 9  27773092.990 9 108987448.209 9       136.882 9        56.314 9  27773092.131 9 111830602.491 9       140.453 9        56.314 9  27773092.131 9 111830602.491 9       140.453 9        56.314 9  27773092.552 9 110409025.361 9       138.668 9        59.325 9  27773092.552 9 110409025.361 9       138.668 9        59.325 9                                                                                                                                                                                                
E12                                                                  25755762.467 9 135347319.643 9      2869.199 9        57.137 9  25755762.467 9 135347319.643 9      2869.199 9        57.137 9  25755769.514 9 101071003.608 9      2142.592 9        56.997 9  25755769.514 9 101071003.608 9      2142.592 9        56.997 9  25755768.438 9 103707642.818 9      2198.484 9        56.997 9  25755768.438 9 103707642.818 9      2198.484 9        56.997 9  25755768.965 9 102389323.227 9      2170.538 9        60.008 9  25755768.965 9 102389323.227 9      2170.538 9        60.008 9                                                                                                                                                                                                
E14                                                                  21970000.610 9 115453060.504 9     -3688.129 9        57.952 9  21970000.610 9 115453060.504 9     -3688.129 9        57.952 9  21970005.265 9  86214923.427 9     -2754.117 9        57.812 9  21970005.265 9  86214923.427 9     -2754.117 9        57.812 9  21970004.649 9  88464010.867 9     -2825.964 9        57.812 9  21970004.649 9  88464010.867 9     -2825.964 9        57.812 9  21970004.951 9  87339467.155 9     -2790.041 9        60.822 9  21970004.951 9  87339467.155 9     -2790.041 9        60.822 9                                                                                                                                                                                                
E31                                                                  24136860.069 9 126840003.005 9       608.084 9        57.718 9  24136860.069 9 126840003.005 9       608.084 9        57.718 9  24136865.269 9  94718173.216 9       454.089 9        57.579 9  24136865.269 9  94718173.216 9       454.089 9        57.579 9  24136864.817 9  97189083.902 9       465.935 9        57.579 9  24136864.817 9  97189083.902 9       465.935 9        57.579 9  24136865.039 9  95953628.565 9       460.012 9        60.589 9  24136865.039 9  95953628.565 9       460.012 9        60.589 9                                                                                                                                                                                                
E26                                                                  26769426.549 9 140674216.158 9     -1773.741 9        56.946 9  26769426.549 9 140674216.158 9     -1773.741 9        56.946 9  26769430.768 9 105048902.839 9     -1324.547 9        56.806 9  26769430.768 9 105048902.839 9     -1324.547 9        56.806 9  26769430.170 9 107789311.408 9     -1359.100 9        56.806 9  26769430.170 9 107789311.408 9     -1359.100 9        56.806 9  26769430.463 9 106419107.131 9     -1341.823 9        59.817 9  26769430.463 9 106419107.131 9     -1341.823 9        59.817 9                                                                                                                                                                                                
E04                                                                  27482736.615 9 144422524.545 9     -2525.338 9        56.538 9  27482736.615 9 144422524.545 9     -2525.338 9        56.538 9  27482753.397 9 107847918.039 9     -1885.809 9        56.399 9  27482753.397 9 107847918.039 9     -1885.809 9        56.399 9  27482751.417 9 110661349.960 9     -1935.003 9        56.399 9  27482751.417 9 110661349.960 9     -1935.003 9        56.399 9  27482752.388 9 109254634.025 9     -1910.406 9        59.409 9  27482752.388 9 109254634.025 9     -1910.406 9        59.409 9                                                                                                                                                                                                
E01                                                                  25685067.704 9 134975866.851 9     -1098.707 9        57.183 9  25685067.704 9 134975866.851 9     -1098.707 9        57.183 9  25685073.416 9 100793644.824 9      -820.464 9        57.043 9  25685073.416 9 100793644.824 9      -820.464 9        57.043 9  25685072.774 9 103423046.839 9      -841.867 9        57.043 9  25685072.774 9 103423046.839 9      -841.867 9        57.043 9  25685073.089 9 102108345.840 9      -831.166 9        60.054 9  25685073.089 9 102108345.840 9      -831.166 9        60.054 9                                                                                                                                                                                                
E09                                                                  26662844.246 9 140114064.706 9     -1752.267 9        56.876 9  26662844.246 9 140114064.706 9     -1752.267 9        56.876 9  26662854.423 9 104630597.144 9     -1308.516 9        56.736 9  26662854.423 9 104630597.144 9     -1308.516 9        56.736 9  26662853.331 9 107360095.380 9     -1342.650 9        56.736 9  26662853.331 9 107360095.380 9     -1342.650 9        56.736 9  26662853.866 9 105995346.276 9     -1325.583 9        59.747 9  26662853.866 9 105995346.276 9     -1325.583 9        59.747 9                                                                                                                                                                                                
E33                                                                  24120139.806 9 126752127.069 9       681.424 9        57.718 9  24120139.806 9 126752127.069 9       681.424 9        57.718 9  24120143.739 9  94652540.468 9       508.857 9        57.578 9  24120143.739 9  94652540.468 9       508.857 9        57.578 9  24120143.198 9  97121739.353 9       522.132 9        57.578 9  24120143.198 9  97121739.353 9       522.132 9        57.578 9  24120143.463 9  95887139.917 9       515.495 9        60.589 9  24120143.463 9  95887139.917 9       515.495 9        60.589 9                                                                                                                                                                                                
E24                                                                  26763681.992 9 140644016.840 9      1704.432 9        56.868 9  26763681.992 9 140644016.840 9      1704.432 9        56.868 9  26763687.630 9 105026350.177 9      1272.793 9        56.728 9  26763687.630 9 105026350.177 9      1272.793 9        56.728 9  26763686.933 9 107766170.811 9      1305.996 9        56.728 9  26763686.933 9 107766170.811 9      1305.996 9        56.728 9  26763687.275 9 106396260.503 9      1289.394 9        59.738 9  26763687.275 9 106396260.503 9      1289.394 9        59.738 9                                                                                                                                                                                                
E10                                                                  27755024.220 9 145853404.661 9      3137.204 9        56.497 9  27755024.220 9 145853404.661 9      3137.204 9        56.497 9  27755041.900 9 108916435.403 9      2342.722 9        56.357 9  27755041.900 9 108916435.403 9      2342.722 9        56.357 9  27755039.913 9 111757741.721 9      2403.836 9        56.357 9  27755039.913 9 111757741.721 9      2403.836 9        56.357 9  27755040.887 9 110337088.588 9      2373.279 9        59.367 9  27755040.887 9 110337088.588 9      2373.279 9        59.367 9                                                                                                                                                                                                
Q02  39425251.388 9 207180984.298 9       927.531 9        55.960 9  39425251.388 9 207180984.298 9       927.531 9        57.464 9  39425251.388 8 207180984.298 8       927.531 8        53.460 8  39425258.165 9 161439700.272 9       722.752 9        54.460 9  39425259.698 9 154713040.079 9       692.637 9        56.560 9                                                                
Q03  39397891.036 9 207037218.561 9      -527.118 9        55.964 9  39397891.036 9 207037218.561 9      -527.118 9        57.469 9  39397891.036 8 207037218.561 8      -527.118 8        53.464 8  39397896.959 9 161327678.522 9      -410.740 9        54.464 9  39397898.298 9 154605686.660 9      -393.626 9        56.564 9                                                                
Q04  38208016.564 9 200784256.865 9      -167.038 9        56.226 9  38208016.564 9 200784256.865 9      -167.038 9        57.730 9  38208016.564 8 200784256.865 8      -167.038 8        53.726 8  38208030.436 9 156455208.285 9      -130.157 9        54.726 9  38208033.574 9 149936228.960 9      -124.733 9        56.826 9                                                                
Q07  37731199.077 9 198278674.628 9        -4.042 9        56.342 9  37731199.077 9 198278674.628 9        -4.042 9        57.846 9  37731199.077 8 198278674.628 8        -4.042 8        53.842 8  37731206.143 9 154502834.413 9        -3.149 9        54.842 9  37731207.741 9 148065210.041 9        -3.017 9        56.942 9                                                                
C03  37053198.717 8 192945599.321 8        35.514 8        51.996 8  37053203.983 8 149197730.356 8        27.463 8        51.996 8  37053204.442 8 156784074.236 8        28.859 8        51.996 8                                                                                                                                  37053190.490 9 149197804.242 9        27.463 9        54.996 9
C28  22233098.438 8 115773465.930 8     -1502.802 8        52.712 8  22233105.671 8  89523358.686 8     -1162.063 8        52.712 8  22233105.172 8  94075406.136 8     -1221.150 8        52.712 8  22233092.543 9  87247402.023 9     -1132.519 9        58.712 9  22233090.923 9 116835659.916 9     -1516.589 9        55.712 9  22233092.359 9  89523421.946 9     -1162.063 9        55.712 9
C07  36286742.990 8 188954486.574 8      -148.634 8        52.176 8  36286745.669 8 146111550.535 8      -114.933 8        52.176 8  36286743.755 8 153540956.975 8      -120.777 8        52.176 8  36286731.700 9 142396902.564 9      -112.011 9        58.176 9  36286730.181 9 190688034.022 9      -149.998 9        55.176 9  36286731.528 9 146111605.064 9      -114.933 9        55.176 9
C02  36968367.154 8 192503860.520 8         5.856 8        52.024 8  36968370.770 8 148856143.983 8         4.529 8        52.024 8  36968373.080 8 156425126.711 8         4.759 8        52.024 8                                                                                                                                  36968359.195 9 148856224.874 9         4.529 9        55.024 9
C05  38003352.813 8 197893263.561 8         4.210 8        51.762 8  38003360.829 8 153023569.780 8         3.257 8        51.762 8  38003361.079 8 160804451.795 8         3.422 8        51.762 8                                                                                                                                  38003342.751 9 153023665.026 9         3.257 9        54.762 9
C10  36477310.159 8 189946820.344 8       -57.610 8        52.132 8  36477316.073 8 146878899.245 8       -44.547 8        52.132 8  36477313.596 8 154347320.973 8       -46.812 8        52.132 8  36477301.603 9 143144739.901 9       -43.415 9        58.132 9  36477300.090 9 191689485.730 9       -58.139 9        55.132 9  36477301.431 9 146878951.199 9       -44.547 9        55.132 9
C09  36762805.687 8 191433443.437 8     -1254.643 8        52.054 8  36762813.317 8 148028443.371 8      -970.171 8        52.054 8  36762810.190 8 155555317.215 8     -1019.502 8        52.054 8  36762796.184 9 144265066.896 9      -945.506 9        58.054 9  36762793.823 9 193189754.168 9     -1266.154 9        55.054 9  36762795.916 9 148028504.503 9      -970.171 9        55.054 9
C04  40355902.789 8 210143531.664 8        25.708 8        51.276 8  40355914.275 8 162496228.111 8        19.881 8        51.276 8  40355913.119 8 170758774.644 8        20.891 8        51.276 8                                                                                                                                  40355887.581 9 162496356.120 9        19.881 9        54.276 9
C06  37905088.993 8 197381578.912 8     -1530.947 8        51.786 8  37905096.624 8 152627901.645 8     -1183.827 8        51.786 8  37905094.639 8 160388655.372 8     -1244.021 8        51.786 8  37905077.511 9 148747610.505 9     -1153.730 9        57.786 9  37905074.378 9 199192468.790 9     -1544.992 9        54.786 9  37905077.155 9 152627984.384 9     -1183.827 9        54.786 9
C30  25616056.483 8 133389254.267 8      3087.018 8        51.488 8  25616074.172 8 103144961.561 8      2387.090 8        51.488 8  25616072.925 8 108389650.508 8      2508.465 8        51.488 8  25616045.794 9 100522766.213 9      2326.403 9        57.488 9  25616040.171 9 134613125.172 9      3115.339 9        54.488 9  25616045.156 9 103145101.814 9      2387.090 9        54.488 9
> 2023 01 08 10 50  0.0000000  0 40       0.000000000000
G01  20815410.384 9 109385625.845 9       916.388 9        55.808 9                                                                  20815410.384 8 109385625.845 8       916.388 8        52.808 8                                                                  20815417.074 8  85235532.608 8       714.070 8        51.308 8  20815417.074 8  85235532.608 8       714.070 8        49.808 8  20815417.480 9  81684043.402 9       684.318 9        57.908 9
G07  20401840.960 9 107212312.064 9     -1400.941 9        55.977 9                                                                  20401840.960 8 107212312.064 8     -1400.941 8        52.977 8                                                                  20401844.074 8  83542030.846 8     -1091.643 8        51.477 8  20401844.074 8  83542030.846 8     -1091.643 8        49.977 8  20401847.436 9  80061116.712 9     -1046.158 9        58.077 9
G13  23867775.329 9 125425816.337 9       853.455 9        54.598 9                                                                  23867775.329 8 125425816.337 8       853.455 8        51.598 8                                                                  23867784.740 8  97734345.313 8       665.033 8        50.098 8  23867784.740 8  97734345.313 8       665.033 8        48.598 8  23867789.637 9  93662079.428 9       637.324 9        56.698 9
G17  21404254.069 9 112480007.999 9      1485.862 9        55.510 9                                                                  21404254.069 8 112480007.999 8      1485.862 8        52.510 8                                                                  21404258.445 8  87646723.808 8      1157.817 8        51.010 8  21404258.445 8  87646723.808 8      1157.817 8        49.510 8  21404262.093 9  83994779.680 9      1109.575 9        57.610 9
G09  25175878.395 9 132299888.503 9     -2910.842 9        54.209 9                                                                  25175878.395 8 132299888.503 8     -2910.842 8        51.209 8                                                                  25175893.682 8 103090761.092 8     -2268.195 8        49.709 8  25175893.682 8 103090761.092 8     -2268.195 8        48.209 8  25175896.918 9  98795298.596 9     -2173.688 9        56.309 9
G21  21911820.439 9 115147284.865 9     -1783.177 9        55.372 9                                                                  21911820.439 8 115147284.865 8     -1783.177 8        52.372 8                                                                  21911825.144 8  89725121.498 8     -1389.489 8        50.872 8  21911825.144 8  89725121.498 8     -1389.489 8        49.372 8  21911828.645 9  85986576.626 9     -1331.594 9        57.472 9
G08  24071098.918 9 126494309.692 9     -3170.631 9        54.585 9                                                                  24071098.918 8 126494309.692 8     -3170.631 8        51.585 8                                                                  24071110.307 8  98566956.064 8     -2470.624 8        50.085 8  24071110.307 8  98566956.064 8     -2470.624 8        48.585 8  24071111.665 9  94459986.436 9     -2367.682 9        56.685 9
G30  20547250.805 9 107976449.585 9       884.671 9        56.017 9                                                                  20547250.805 8 107976449.585 8       884.671 8        53.017 8                                                                  20547256.586 8  84137475.428 8       689.355 8        51.517 8  20547256.586 8  84137475.428 8       689.355 8        50.017 8  20547257.007 9  80631739.960 9       660.632 9        58.117 9
G14  21642958.465 9 113734409.387 9      1534.425 9        55.504 9                                                                  21642958.465 8 113734409.387 8      1534.425 8        52.504 8                                                                  21642963.392 8  88624182.356 8      1195.658 8        51.004 8  21642963.392 8  88624182.356 8      1195.658 8        49.504 8  21642966.389 9  84931508.380 9      1145.840 9        57.604 9
G19  24358716.637 9 128005712.990 9      3004.994 9        54.443 9                                                                  24358716.637 8 128005712.990 8      3004.994 8        51.443 8                                                                  24358726.393 8  99744647.065 8      2341.562 8        49.943 8  24358726.393 8  99744647.065 8      2341.562 8        48.443 8  24358732.254 9  95588620.495 9      2243.998 9        56.543 9
R11  23285415.134 8 124430008.650 8     -2776.455 8        53.487 8  23285415.134 8 124430008.650 8     -2776.455 8        53.487 8  23285426.732 7  96778847.412 7     -2159.469 7        47.487 7  23285426.732 7  96778847.412 7     -2159.469 7        47.487 7                                                                                                                                                                                                                                                                                                                                                                                                                                                                
R22  20694872.337 9 110470529.512 9     -2862.709 9        54.504 9  20694872.337 9 110470529.512 9     -2862.709 9        54.504 9  20694878.725 8  85921496.432 8     -2226.554 8        48.504 8  20694878.725 8  85921496.432 8     -2226.554 8        48.504 8                                                                                                                                                                                                                                                                                                                                                                                                                                                                
R12  19965511.761 9 106652091.297 9      -227.373 9        54.822 9  19965511.761 9 106652091.297 9      -227.373 9        54.822 9  19965517.193 8  82951603.996 8      -176.845 8        48.822 8  19965517.193 8  82951603.996 8      -176.845 8        48.822 8                                                                                                                                                                                                                                                                                                                                                                                                                                                                
R23  19459310.769 9 104094109.287 9      1663.966 9        55.056 9  19459310.769 9 104094109.287 9      1663.966 9        55.056 9  19459315.769 8  80962064.201 8      1294.197 8        49.056 8  19459315.769 8  80962064.201 8      1294.197 8        49.056 8                                                                                                                                                                                                                                                                                                                                                                                                                                                                
R13  20684615.215 9 110454585.185 9      2485.119 9        54.522 9  20684615.215 9 110454585.185 9      2485.119 9        54.522 9  20684621.699 8  85909094.878 8      1932.874 8        48.522 8  20684621.699 8  85909094.878 8      1932.874 8        48.522 8                                                                                                                                                                                                                                                                                                                                                                                                                                                                
R24  22556672.598 8 120620488.815 8      4131.127 8        53.749 8  22556672.598 8 120620488.815 8      4131.127 8        53.749 8  22556683.379 7  93815890.904 7      3213.108 7        47.749 7  22556683.379 7  93815890.904 7      3213.108 7        47.749 7                                                                                                                                                                                                                                                                                                                                                                                                                                                                
E05                                                                  27766200.352 9 145912267.350 9        58.051 9        56.456 9  27766200.352 9 145912267.350 9        58.051 9        56.456 9  27766208.866 9 108960433.362 9        43.349 9        56.316 9  27766208.866 9 108960433.362 9        43.349 9        56.316 9  27766208.007 9 111802882.910 9        44.480 9        56.316 9  27766208.007 9 111802882.910 9        44.480 9        56.316 9  27766208.428 9 110381658.147 9        43.915 9        59.327 9  27766208.428 9 110381658.147 9        43.915 9        59.327 9                                                                                                                                                                                                
E12                                                                  25593498.946 9 134494627.139 9      2814.409 9        57.192 9  25593498.946 9 134494627.139 9      2814.409 9        57.192 9  25593505.385 9 100434255.098 9      2101.677 9        57.052 9  25593505.385 9 100434255.098 9      2101.677 9        57.052 9  25593504.378 9 103054283.200 9      2156.502 9        57.052 9  25593504.378 9 103054283.200 9      2156.502 9        57.052 9  25593504.872 9 101744269.162 9      2129.089 9        60.063 9  25593504.872 9 101744269.162 9      2129.089 9        60.063 9                                                                                                                                                                                                
E31                                                                  24102637.182 9 126660161.180 9       590.508 9        57.731 9  24102637.182 9 126660161.180 9       590.508 9        57.731 9  24102642.332 9  94583875.945 9       440.965 9        57.591 9  24102642.332 9  94583875.945 9       440.965 9        57.591 9  24102641.886 9  97051283.201 9       452.468 9        57.591 9  24102641.886 9  97051283.201 9       452.468 9        57.591 9  24102642.105 9  95817579.579 9       446.716 9        60.601 9  24102642.105 9  95817579.579 9       446.716 9        60.601 9                                                                                                                                                                                                
E26                                                                  26873821.136 9 141222814.088 9     -1882.748 9        56.912 9  26873821.136 9 141222814.088 9     -1882.748 9        56.912 9  26873825.304 9 105458570.324 9     -1405.948 9        56.772 9  26873825.304 9 105458570.324 9     -1405.948 9        56.772 9  26873824.712 9 108209665.848 9     -1442.624 9        56.772 9  26873824.712 9 108209665.848 9     -1442.624 9        56.772 9  26873825.002 9 106834118.093 9     -1424.286 9        59.782 9  26873825.002 9 106834118.093 9     -1424.286 9        59.782 9                                                                                                                                                                                                
E04                                                                  27625920.461 9 145174956.902 9     -2489.930 9        56.493 9  27625920.461 9 145174956.902 9     -2489.930 9        56.493 9  27625937.531 9 108409798.210 9     -1859.372 9        56.353 9  27625937.531 9 108409798.210 9     -1859.372 9        56.353 9  27625935.519 9 111237888.007 9     -1907.876 9        56.353 9  27625935.519 9 111237888.007 9     -1907.876 9        56.353 9  27625936.506 9 109823843.134 9     -1883.624 9        59.364 9  27625936.506 9 109823843.134 9     -1883.624 9        59.364 9                                                                                                                                                                                                
E01                                                                  25748678.812 9 135310144.678 9     -1130.176 9        57.161 9  25748678.812 9 135310144.678 9     -1130.176 9        57.161 9  25748684.584 9 101043267.639 9      -843.963 9        57.022 9  25748684.584 9 101043267.639 9      -843.963 9        57.022 9  25748683.935 9 103679181.582 9      -865.979 9        57.022 9  25748683.935 9 103679181.582 9      -865.979 9        57.022 9  25748684.254 9 102361224.619 9      -854.971 9        60.032 9  25748684.254 9 102361224.619 9      -854.971 9        60.032 9                                                                                                                                                                                                
E09                                                                  26764899.656 9 140650364.400 9     -1822.014 9        56.843 9  26764899.656 9 140650364.400 9     -1822.014 9        56.843 9  26764910.218 9 105031079.170 9     -1360.600 9        56.703 9  26764910.218 9 105031079.170 9     -1360.600 9        56.703 9  26764909.082 9 107771024.939 9     -1396.093 9        56.703 9  26764909.082 9 107771024.939 9     -1396.093 9        56.703 9  26764909.639 9 106401052.069 9     -1378.347 9        59.713 9  26764909.639 9 106401052.069 9     -1378.347 9        59.713 9                                                                                                                                                                                                
E33                                                                  24085344.893 9 126569280.548 9       537.310 9        57.731 9  24085344.893 9 126569280.548 9       537.310 9        57.731 9  24085348.677 9  94515999.820 9       401.240 9        57.591 9  24085348.677 9  94515999.820 9       401.240 9        57.591 9  24085348.154 9  96981636.707 9       411.707 9        57.591 9  24085348.154 9  96981636.707 9       411.707 9        57.591 9  24085348.410 9  95748818.270 9       406.473 9        60.601 9  24085348.410 9  95748818.270 9       406.473 9        60.601 9                                                                                                                                                                                                
E24                                                                  26665994.256 9 140130666.550 9      1717.871 9        56.900 9  26665994.256 9 140130666.550 9      1717.871 9        56.900 9  26665999.726 9 104643004.840 9      1282.828 9        56.760 9  26665999.726 9 104643004.840 9      1282.828 9        56.760 9  26665999.049 9 107372825.085 9      1316.292 9        56.760 9  26665999.049 9 107372825.085 9      1316.292 9        56.760 9  26665999.381 9 106007914.971 9      1299.560 9        59.771 9  26665999.381 9 106007914.971 9      1299.560 9        59.771 9                                                                                                                                                                                                
E10                                                                  27575927.082 9 144912253.181 9      3136.199 9        56.554 9  27575927.082 9 144912253.181 9      3136.199 9        56.554 9  27575943.982 9 108213630.541 9      2341.978 9        56.414 9  27575943.982 9 108213630.541 9      2341.978 9        56.414 9  27575942.083 9 111036602.462 9      2403.071 9        56.414 9  27575942.083 9 111036602.462 9      2403.071 9        56.414 9  27575943.014 9 109625116.526 9      2372.525 9        59.424 9  27575943.014 9 109625116.526 9      2372.525 9        59.424 9                                                                                                                                                                                                
Q02  39372003.229 9 206901164.128 9       937.761 9        55.971 9  39372003.229 9 206901164.128 9       937.761 9        57.476 9  39372003.229 8 206901164.128 8       937.761 8        53.471 8  39372009.958 9 161221658.781 9       730.724 9        54.471 9  39372011.480 9 154504083.693 9       700.277 9        56.571 9                                                                
Q03  39428105.158 9 207195995.845 9      -531.249 9        55.958 9  39428105.158 9 207195995.845 9      -531.249 9        57.463 9  39428105.158 8 207195995.845 8      -531.249 8        53.458 8  39428111.019 9 161451401.333 9      -413.960 9        54.458 9  39428112.345 9 154724254.409 9      -396.711 9        56.558 9                                                                
Q04  38217265.543 9 200832864.045 9      -157.042 9        56.224 9  38217265.543 9 200832864.045 9      -157.042 9        57.728 9  38217265.543 8 200832864.045 8      -157.042 8        53.724 8  38217279.202 9 156493084.884 9      -122.368 9        54.724 9  38217282.291 9 149972527.557 9      -117.268 9        56.824 9                                                                
Q07  37731428.140 9 198279879.240 9        -3.983 9        56.342 9  37731428.140 9 198279879.240 9        -3.983 9        57.846 9  37731428.140 8 198279879.240 8        -3.983 8        53.842 8  37731435.153 9 154503773.291 9        -3.103 9        54.842 9  37731436.739 9 148066109.847 9        -2.973 9        56.942 9                                                                
C03  37051136.682 8 192934862.839 8        36.067 8        51.997 8  37051141.879 8 149189428.506 8        27.890 8        51.997 8  37051142.355 8 156775350.189 8        29.308 8        51.997 8                                                                                                                                  37051128.560 9 149189501.693 9        27.890 9        54.997 9
C28  22323145.740 8 116242364.814 8     -1622.183 8        52.677 8  22323153.041 8  89885940.775 8     -1254.376 8        52.677 8  22323152.525 8  94456424.669 8     -1318.158 8        52.677 8  22323139.772 9  87600766.473 9     -1222.485 9        58.677 9  22323138.140 9 117308861.071 9     -1637.066 9        55.677 9  22323139.587 9  89886004.605 9     -1254.376 9        55.677 9
C07  36294919.363 8 188997063.712 8      -135.142 8        52.174 8  36294922.002 8 146144474.040 8      -104.500 8        52.174 8  36294920.096 8 153575554.517 8      -109.814 8        52.174 8  36294908.140 9 142428988.608 9      -101.843 9        58.174 9  36294906.618 9 190731001.439 9      -136.382 9        55.174 9  36294907.967 9 146144528.137 9      -104.500 9        55.174 9
C02  36968015.792 8 192502031.849 8         6.341 8        52.024 8  36968019.347 8 148854730.189 8         4.904 8        52.024 8  36968021.671 8 156423640.968 8         5.153 8        52.024 8                                                                                                                                  36968007.933 9 148854810.429 9         4.904 9        55.024 9
C05  38003085.321 8 197891871.803 8         5.076 8        51.762 8  38003093.263 8 153022493.882 8         3.926 8        51.762 8  38003093.531 8 160803321.116 8         4.125 8        51.762 8                                                                                                                                  38003075.385 9 153022588.323 9         3.926 9        54.762 9
C10  36480223.362 8 189961990.822 8       -43.432 8        52.131 8  36480229.233 8 146890630.193 8       -33.584 8        52.131 8  36480226.766 8 154359648.367 8       -35.292 8        52.131 8  36480214.874 9 143156172.169 9       -32.730 9        58.131 9  36480213.360 9 191704795.038 9       -43.831 9        55.131 9  36480214.702 9 146890681.701 9       -33.584 9        55.131 9
C09  36836243.838 8 191815853.701 8     -1294.562 8        52.037 8  36836251.562 8 148324146.865 8     -1001.039 8        52.037 8  36836248.414 8 155866056.574 8     -1051.938 8        52.037 8  36836234.320 9 144553252.937 9      -975.589 9        58.037 9  36836231.903 9 193575673.156 9     -1306.438 9        55.037 9  36836234.045 9 148324208.466 9     -1001.039 9        55.037 9
C04  40354421.115 8 210135818.669 8        25.727 8        51.276 8  40354432.443 8 162490264.576 8        19.896 8        51.276 8  40354431.324 8 170752507.719 8        20.907 8        51.276 8                                                                                                                                  40354406.116 9 162490391.107 9        19.896 9        54.276 9
C06  37994002.829 8 197844574.369 8     -1555.428 8        51.766 8  37994010.604 8 152985918.523 8     -1202.758 8        51.766 8  37994008.585 8 160764876.642 8     -1263.915 8        51.766 8  37993991.336 9 149096525.868 9     -1172.180 9        57.766 9  37993988.114 9 199659712.442 9     -1569.698 9        54.766 9  37993990.970 9 152986001.928 9     -1202.758 9        54.766 9
C30  25439642.296 8 132470632.730 8      3036.392 8        51.548 8  25439659.119 8 102434628.608 8      2347.942 8        51.548 8  25439658.076 8 107643198.068 8      2467.326 8        51.548 8  25439632.127 9  99830487.131 9      2288.250 9        57.548 9  25439626.845 9 133686071.394 9      3064.248 9        54.548 9  25439631.528 9 102434763.122 9      2347.942 9        54.548 9
> 2023 01 08 10 55  0.0000000  0 40       0.000000000000
G01  20769215.660 9 109142872.586 9       701.243 9        55.827 9                                                                  20769215.660 8 109142872.586 8       701.243 8        52.827 8                                                                  20769222.249 8  85046374.640 8       546.424 8        51.327 8  20769222.249 8  85046374.640 8       546.424 8        49.827 8  20769222.632 9  81502767.106 9       523.657 9        57.927 9
G07  20486902.503 9 107659312.307 9     -1578.610 9        55.941 9                                                                  20486902.503 8 107659312.307 8     -1578.610 8        52.941 8                                                                  20486905.690 8  83890342.425 8     -1230.087 8        51.441 8  20486905.690 8  83890342.425 8     -1230.087 8        49.941 8  20486909.069 9  80394915.244 9     -1178.834 9        58.041 9
G13  23824068.864 9 125196140.296 9       677.633 9        54.614 9                                                                  23824068.864 8 125196140.296 8       677.633 8        51.614 8                                                                  23824078.091 8  97555377.720 8       528.028 8        50.114 8  23824078.091 8  97555377.720 8       528.028 8        48.614 8  23824082.947 9  93490568.981 9       506.027 9        56.714 9
G17  21322944.964 9 112052729.065 9      1362.847 9        55.543 9                                                                  21322944.964 8 112052729.065 8      1362.847 8        52.543 8                                                                  21322949.138 8  87313780.015 8      1061.962 8        51.043 8  21322949.138 8  87313780.015 8      1061.962 8        49.543 8  21322952.740 9  83675708.725 9      1017.714 9        57.643 9
G09  25340159.490 9 133163184.375 9     -2843.292 9        54.153 9                                                                  25340159.490 8 133163184.375 8     -2843.292 8        51.153 8                                                                  25340175.214 8 103763457.382 8     -2215.558 8        49.653 8  25340175.214 8 103763457.382 8     -2215.558 8        48.153 8  25340178.549 9  99439965.486 9     -2123.245 9        56.253 9
G21  22018380.010 9 115707258.272 9     -1948.884 9        55.330 9                                                                  22018380.010 8 115707258.272 8     -1948.884 8        52.330 8                                                                  22018384.773 8  90161464.179 8     -1518.611 8        50.830 8  22018384.773 8  90161464.179 8     -1518.611 8        49.330 8  22018388.286 9  86404738.312 9     -1455.336 9        57.430 9
G08  24251754.076 9 127443655.552 9     -3157.588 9        54.520 9                                                                  24251754.076 8 127443655.552 8     -3157.588 8        51.520 8                                                                  24251765.675 8  99306705.227 8     -2460.461 8        50.020 8  24251765.675 8  99306705.227 8     -2460.461 8        48.520 8  24251767.080 9  95168912.531 9     -2357.942 9        56.620 9
G30  20501801.014 9 107737610.405 9       706.799 9        56.036 9                                                                  20501801.014 8 107737610.405 8       706.799 8        53.036 8                                                                  20501806.728 8  83951367.250 8       550.753 8        51.536 8  20501806.728 8  83951367.250 8       550.753 8        50.036 8  20501807.134 9  80453386.349 9       527.805 9        58.136 9
G14  21556208.062 9 113278535.876 9      1504.391 9        55.539 9                                                                  21556208.062 8 113278535.876 8      1504.391 8        52.539 8                                                                  21556212.808 8  88268956.983 8      1172.255 8        51.039 8  21556212.808 8  88268956.983 8      1172.255 8        49.539 8  21556215.765 9  84591084.225 9      1123.412 9        57.639 9
G19  24188901.327 9 127113336.583 9      2943.690 9        54.503 9                                                                  24188901.327 8 127113336.583 8      2943.690 8        51.503 8                                                                  24188910.525 8  99049291.111 8      2293.792 8        50.003 8  24188910.525 8  99049291.111 8      2293.792 8        48.503 8  24188916.259 9  94922238.202 9      2198.218 9        56.603 9
R11  23444020.769 8 125277544.072 8     -2873.449 8        53.428 8  23444020.769 8 125277544.072 8     -2873.449 8        53.428 8  23444032.673 7  97438040.358 7     -2234.909 7        47.428 7  23444032.673 7  97438040.358 7     -2234.909 7        47.428 7                                                                                                                                                                                                                                                                                                                                                                                                                                                                
R22  20860609.404 9 111355242.182 9     -3033.175 9        54.435 9  20860609.404 9 111355242.182 9     -3033.175 9        54.435 9  20860615.979 8  86609605.512 8     -2359.138 8        48.435 8  20860615.979 8  86609605.512 8     -2359.138 8        48.435 8                                                                                                                                                                                                                                                                                                                                                                                                                                                                
R12  19982346.135 9 106742017.840 9      -373.090 9        54.815 9  19982346.135 9 106742017.840 9      -373.090 9        54.815 9  19982351.547 8  83021546.949 8      -290.181 8        48.815 8  19982351.547 8  83021546.949 8      -290.181 8        48.815 8                                                                                                                                                                                                                                                                                                                                                                                                                                                                
R23  19373037.232 9 103632605.917 9      1412.028 9        55.095 9  19373037.232 9 103632605.917 9      1412.028 9        55.095 9  19373042.116 8  80603117.613 8      1098.245 8        49.095 8  19373042.116 8  80603117.613 8      1098.245 8        49.095 8                                                                                                                                                                                                                                                                                                                                                                                                                                                                
R13  20546723.917 9 109718257.602 9      2422.183 9        54.580 9  20546723.917 9 109718257.602 9      2422.183 9        54.580 9  20546730.142 8  85336396.727 8      1883.924 8        48.580 8  20546730.142 8  85336396.727 8      1883.924 8        48.580 8                                                                                                                                                                                                                                                                                                                                                                                                                                                                
R24  22327463.631 8 119394816.027 8      4038.199 8        53.838 8  22327463.631 8 119394816.027 8      4038.199 8        53.838 8  22327473.767 7  92862592.530 7      3140.830 7        47.838 7  22327473.767 7  92862592.530 7      3140.830 7        47.838 7                                                                                                                                                                                                                                                                                                                                                                                                                                                                
E05                                                                  27766431.938 9 145913484.083 9       -65.913 9        56.456 9  27766431.938 9 145913484.083 9       -65.913 9        56.456 9  27766440.471 9 108961341.885 9       -49.221 9        56.316 9  27766440.471 9 108961341.885 9       -49.221 9        56.316 9  27766439.610 9 111803815.143 9       -50.505 9        56.316 9  27766439.610 9 111803815.143 9       -50.505 9        56.316 9  27766440.032 9 110382578.525 9       -49.863 9        59.327 9  27766440.032 9 110382578.525 9       -49.863 9        59.327 9                                                                                                                                                                                                
E12                                                                  25434544.316 9 133659322.329 9      2753.295 9        57.247 9  25434544.316 9 133659322.329 9      2753.295 9        57.247 9  25434550.196 9  99810490.713 9      2056.039 9        57.107 9  25434550.196 9  99810490.713 9      2056.039 9        57.107 9  25434549.252 9 102414246.445 9      2109.674 9        57.107 9  25434549.252 9 102414246.445 9      2109.674 9        57.107 9  25434549.715 9 101112368.591 9      2082.856 9        60.117 9  25434549.715 9 101112368.591 9      2082.856 9        60.117 9                                                                                                                                                                                                
E31                                                                  24069480.574 9 126485922.708 9       570.699 9        57.743 9  24069480.574 9 126485922.708 9       570.699 9        57.743 9  24069485.673 9  94453763.001 9       426.172 9        57.603 9  24069485.673 9  94453763.001 9       426.172 9        57.603 9  24069485.233 9  96917775.983 9       437.290 9        57.603 9  24069485.233 9  96917775.983 9       437.290 9        57.603 9  24069485.449 9  95685769.497 9       431.731 9        60.613 9  24069485.449 9  95685769.497 9       431.731 9        60.613 9                                                                                                                                                                                                
E26                                                                  26984294.467 9 141803356.087 9     -1986.662 9        56.875 9  26984294.467 9 141803356.087 9     -1986.662 9        56.875 9  26984298.581 9 105892092.160 9     -1483.546 9        56.736 9  26984298.581 9 105892092.160 9     -1483.546 9        56.736 9  26984297.994 9 108654496.925 9     -1522.247 9        56.736 9  26984297.994 9 108654496.925 9     -1522.247 9        56.736 9  26984298.282 9 107273294.550 9     -1502.897 9        59.746 9  26984298.282 9 107273294.550 9     -1502.897 9        59.746 9                                                                                                                                                                                                
E04                                                                  27766916.061 9 145915891.472 9     -2448.703 9        56.449 9  27766916.061 9 145915891.472 9     -2448.703 9        56.449 9  27766933.305 9 108963092.823 9     -1828.579 9        56.309 9  27766933.305 9 108963092.823 9     -1828.579 9        56.309 9  27766931.273 9 111805616.472 9     -1876.281 9        56.309 9  27766931.273 9 111805616.472 9     -1876.281 9        56.309 9  27766932.269 9 110384354.674 9     -1852.430 9        59.319 9  27766932.269 9 110384354.674 9     -1852.430 9        59.319 9                                                                                                                                                                                                
E01                                                                  25814147.257 9 135654182.814 9     -1163.773 9        57.139 9  25814147.257 9 135654182.814 9     -1163.773 9        57.139 9  25814153.095 9 101300178.977 9      -869.052 9        56.999 9  25814153.095 9 101300178.977 9      -869.052 9        56.999 9  25814152.439 9 103942794.984 9      -891.723 9        56.999 9  25814152.439 9 103942794.984 9      -891.723 9        56.999 9  25814152.761 9 102621486.989 9      -880.388 9        60.010 9  25814152.761 9 102621486.989 9      -880.388 9        60.010 9                                                                                                                                                                                                
E09                                                                  26870750.391 9 141206608.143 9     -1885.208 9        56.808 9  26870750.391 9 141206608.143 9     -1885.208 9        56.808 9  26870761.378 9 105446454.325 9     -1407.791 9        56.668 9  26870761.378 9 105446454.325 9     -1407.791 9        56.668 9  26870760.194 9 108197236.162 9     -1444.515 9        56.668 9  26870760.194 9 108197236.162 9     -1444.515 9        56.668 9  26870760.774 9 106821845.259 9     -1426.153 9        59.679 9  26870760.774 9 106821845.259 9     -1426.153 9        59.679 9                                                                                                                                                                                                
E33                                                                  24058816.341 9 126429873.862 9       391.910 9        57.740 9  24058816.341 9 126429873.862 9       391.910 9        57.740 9  24058819.990 9  94411897.957 9       292.661 9        57.600 9  24058819.990 9  94411897.957 9       292.661 9        57.600 9  24058819.482 9  96874819.081 9       300.296 9        57.600 9  24058819.482 9  96874819.081 9       300.296 9        57.600 9  24058819.731 9  95643358.526 9       296.479 9        60.611 9  24058819.731 9  95643358.526 9       296.479 9        60.611 9                                                                                                                                                                                                
E24                                                                  26567548.699 9 139613333.840 9      1730.949 9        56.933 9  26567548.699 9 139613333.840 9      1730.949 9        56.933 9  26567554.004 9 104256685.607 9      1292.594 9        56.793 9  26567554.004 9 104256685.607 9      1292.594 9        56.793 9  26567553.345 9 106976427.883 9      1326.313 9        56.793 9  26567553.345 9 106976427.883 9      1326.313 9        56.793 9  26567553.668 9 105616556.753 9      1309.454 9        59.803 9  26567553.668 9 105616556.753 9      1309.454 9        59.803 9                                                                                                                                                                                                
E10                                                                  27397059.160 9 143972307.359 9      3129.177 9        56.610 9  27397059.160 9 143972307.359 9      3129.177 9        56.610 9  27397075.196 9 107511726.338 9      2336.735 9        56.471 9  27397075.196 9 107511726.338 9      2336.735 9        56.471 9  27397073.395 9 110316387.321 9      2397.691 9        56.471 9  27397073.395 9 110316387.321 9      2397.691 9        56.471 9  27397074.278 9 108914056.852 9      2367.213 9        59.481 9  27397074.278 9 108914056.852 9      2367.213 9        59.481 9                                                                                                                                                                                                
Q02  39318202.624 9 206618440.845 9       946.881 9        55.983 9  39318202.624 9 206618440.845 9       946.881 9        57.488 9  39318202.624 8 206618440.845 8       946.881 8        53.483 8  39318209.303 9 161001355.127 9       737.830 9        54.483 9  39318210.814 9 154292959.402 9       707.087 9        56.583 9                                                                
Q03  39458530.625 9 207355883.740 9      -534.520 9        55.951 9  39458530.625 9 207355883.740 9      -534.520 9        57.456 9  39458530.625 8 207355883.740 8      -534.520 8        53.451 8  39458536.425 9 161575989.552 9      -416.508 9        54.451 9  39458537.737 9 154843651.506 9      -399.153 9        56.551 9                                                                
Q04  38225953.616 9 200878523.725 9      -147.392 9        56.222 9  38225953.616 9 200878523.725 9      -147.392 9        57.726 9  38225953.616 8 200878523.725 8      -147.392 8        53.722 8  38225967.056 9 156528664.750 9      -114.848 9        54.722 9  38225970.096 9 150006625.123 9      -110.062 9        56.822 9                                                                
Q07  37731653.793 9 198281065.943 9        -3.922 9        56.341 9  37731653.793 9 198281065.943 9        -3.922 9        57.846 9  37731653.793 8 198281065.943 8        -3.922 8        53.841 8  37731660.750 9 154504698.220 9        -3.056 9        54.841 9  37731662.323 9 148066996.286 9        -2.928 9        56.941 9                                                                
C03  37049043.326 8 192923963.282 8        36.601 8        51.997 8  37049048.452 8 149181000.563 8        28.303 8        51.997 8  37049048.944 8 156766493.636 8        29.742 8        51.997 8                                                                                                                                  37049035.308 9 149181073.045 9        28.303 9        54.997 9
C28  22419893.123 8 116746152.587 8     -1735.361 8        52.639 8  22419900.503 8  90275501.117 8     -1341.892 8        52.639 8  22419899.969 8  94865793.243 8     -1410.124 8        52.639 8  22419887.068 9  87980423.394 9     -1307.777 9        58.639 9  22419885.422 9 117817271.283 9     -1751.282 9        55.639 9  22419886.881 9  90275565.626 9     -1341.892 9        55.639 9
C07  36302307.332 8 189035535.461 8      -121.274 8        52.172 8  36302309.929 8 146174223.007 8       -93.776 8        52.172 8  36302308.034 8 153606816.101 8       -98.545 8        52.172 8  36302296.179 9 142457980.807 9       -91.392 9        58.172 9  36302294.654 9 190769825.791 9      -122.387 9        55.172 9  36302296.006 9 146174276.656 9       -93.776 9        55.172 9
C02  36967636.542 8 192500057.981 8         6.824 8        52.024 8  36967640.033 8 148853204.125 8         5.278 8        52.024 8  36967642.372 8 156422037.244 8         5.546 8        52.024 8                                                                                                                                  36967628.783 9 148853283.707 9         5.278 9        55.024 9
C05  38002768.037 8 197890220.795 8         5.939 8        51.762 8  38002775.903 8 153021217.523 8         4.593 8        51.762 8  38002776.189 8 160801979.783 8         4.826 8        51.762 8                                                                                                                                  38002758.227 9 153021311.150 9         4.593 9        54.762 9
C10  36482304.762 8 189972829.912 8       -28.743 8        52.131 8  36482310.588 8 146899011.846 8       -22.225 8        52.131 8  36482308.132 8 154368456.161 8       -23.356 8        52.131 8  36482296.344 9 143164340.280 9       -21.660 9        58.131 9  36482294.828 9 191715733.211 9       -29.007 9        55.131 9  36482296.172 9 146899062.893 9       -22.225 9        55.131 9
C09  36911945.365 8 192210049.892 8     -1333.203 8        52.019 8  36911953.188 8 148628963.968 8     -1030.919 8        52.019 8  36911950.016 8 156186372.950 8     -1083.338 8        52.019 8  36911935.829 9 144850320.908 9     -1004.709 9        58.019 9  36911933.355 9 193973486.218 9     -1345.435 9        55.019 9  36911935.549 9 148629026.063 9     -1030.919 9        55.019 9
C04  40352938.714 8 210128101.926 8        25.733 8        51.276 8  40352949.880 8 162484298.153 8        19.900 8        51.276 8  40352948.799 8 170746237.757 8        20.912 8        51.276 8                                                                                                                                  40352923.923 9 162484423.193 9        19.900 9        54.276 9
C06  38084278.896 8 198314663.279 8     -1578.228 8        51.745 8  38084286.816 8 153349420.501 8     -1220.388 8        51.745 8  38084284.763 8 161146861.916 8     -1282.441 8        51.745 8  38084267.395 9 149450786.870 9     -1189.362 9        57.745 9  38084264.080 9 200134114.618 9     -1592.707 9        54.745 9  38084267.019 9 153349504.564 9     -1220.388 9        54.745 9
C30  25266284.468 8 131567925.752 8      2980.947 8        51.607 8  25266300.469 8 101736601.618 8      2305.068 8        51.607 8  25266299.619 8 106909677.364 8      2422.272 8        51.607 8  25266274.797 9  99150201.411 9      2246.466 9        57.607 9  25266269.835 9 132775078.400 9      3008.295 9        54.607 9  25266274.234 9 101736730.671 9      2305.068 9        54.607 9
