     3.04           OBSERVATION DATA    M: MIXED            RINEX VERSION / TYPE
PosApp V7.04.00     Spirent             20230108 095918 UTC PGM / RUN BY / DATE 
                                                            MARKER NAME         
GEODETIC                                                    MARKER TYPE         
gpssim              Spirent                                 OBSERVER / AGENCY   
rec_num             rec_type            rec_vers            REC # / TYPE / VERS 
1                   ant_type                                ANT # / TYPE        
    30.000                                                  INTERVAL            
  2023     1     8    10    00    0.0000000     GPS         TIME OF FIRST OBS   
  2023     1     8    14    00    0.0000000     GPS         TIME OF LAST OBS    
  -481819.3135  5507219.9538  3170373.7354                  APPROX POSITION XYZ 
        0.0000        0.0000        0.0000                  ANTENNA: DELTA H/E/N
G   28 C1C L1C D1C S1C C1X L1X D1X S1X C1P L1P D1P S1P C2C  SYS / # / OBS TYPES 
       L2C D2C S2C C2X L2X D2X S2X C2P L2P D2P S2P C5I L5I  SYS / # / OBS TYPES 
       D5I S5I                                              SYS / # / OBS TYPES 
R   44 C1C L1C D1C S1C C1P L1P D1P S1P C2C L2C D2C S2C C2P  SYS / # / OBS TYPES 
       L2P D2P S2P C4A L4A D4A S4A C4B L4B D4B S4B C4X L4X  SYS / # / OBS TYPES 
       D4X S4X C6B L6B D6B S6B C3I L3I D3I S3I C3Q L3Q D3Q  SYS / # / OBS TYPES 
       S3Q C3X L3X D3X S3X                                  SYS / # / OBS TYPES 
E   48 C1A L1A D1A S1A C1B L1B D1B S1B C1C L1C D1C S1C C5I  SYS / # / OBS TYPES 
       L5I D5I S5I C5Q L5Q D5Q S5Q C7I L7I D7I S7I C7Q L7Q  SYS / # / OBS TYPES 
       D7Q S7Q C8I L8I D8I S8I C8Q L8Q D8Q S8Q C6A L6A D6A  SYS / # / OBS TYPES 
       S6A C6B L6B D6B S6B C6C L6C D6C S6C                  SYS / # / OBS TYPES 
C   24 C2I L2I D2I S2I C7I L7I D7I S7I C6I L6I D6I S6I C5X  SYS / # / OBS TYPES 
       L5X D5X S5X C1X L1X D1X S1X C7D L7D D7D S7D          SYS / # / OBS TYPES 
Q   24 C1C L1C D1C S1C C1X L1X D1X S1X C1Z L1Z D1Z S1Z C2X  SYS / # / OBS TYPES 
       L2X D2X S2X C5I L5I D5I S5I C6Z L6Z D6Z S6Z          SYS / # / OBS TYPES 
GNSS SIMULATOR OUTPUTS ALIGNED CARRIER PHASES.              COMMENT             
NO FURTHER PHASE SHIFTS APPLIED IN THE RINEX ENCODER.       COMMENT             
G L1C                                                       SYS / PHASE SHIFT   
G L1X  0.00000                                              SYS / PHASE SHIFT   
G L1P  0.00000                                              SYS / PHASE SHIFT   
G L2C  0.00000                                              SYS / PHASE SHIFT   
G L2X  0.00000                                              SYS / PHASE SHIFT   
G L2P                                                       SYS / PHASE SHIFT   
G L5I                                                       SYS / PHASE SHIFT   
R L1C                                                       SYS / PHASE SHIFT   
R L1P  0.00000                                              SYS / PHASE SHIFT   
R L2C                                                       SYS / PHASE SHIFT   
R L2P  0.00000                                              SYS / PHASE SHIFT   
R L4A                                                       SYS / PHASE SHIFT   
R L4B  0.00000                                              SYS / PHASE SHIFT   
R L4X  0.00000                                              SYS / PHASE SHIFT   
R L6B  0.00000                                              SYS / PHASE SHIFT   
R L3I                                                       SYS / PHASE SHIFT   
R L3Q  0.00000                                              SYS / PHASE SHIFT   
R L3X  0.00000                                              SYS / PHASE SHIFT   
E L1A  0.00000                                              SYS / PHASE SHIFT   
E L1B                                                       SYS / PHASE SHIFT   
E L1C  0.00000                                              SYS / PHASE SHIFT   
E L5I                                                       SYS / PHASE SHIFT   
E L5Q  0.00000                                              SYS / PHASE SHIFT   
E L7I                                                       SYS / PHASE SHIFT   
E L7Q  0.00000                                              SYS / PHASE SHIFT   
E L8I                                                       SYS / PHASE SHIFT   
E L8Q  0.00000                                              SYS / PHASE SHIFT   
E L6A  0.00000                                              SYS / PHASE SHIFT   
E L6B                                                       SYS / PHASE SHIFT   
E L6C  0.00000                                              SYS / PHASE SHIFT   
C L2I                                                       SYS / PHASE SHIFT   
C L7I                                                       SYS / PHASE SHIFT   
C L6I                                                       SYS / PHASE SHIFT   
C L5X  0.00000                                              SYS / PHASE SHIFT   
C L1X  0.00000                                              SYS / PHASE SHIFT   
C L7D                                                       SYS / PHASE SHIFT   
Q L1C                                                       SYS / PHASE SHIFT   
Q L1X  0.00000                                              SYS / PHASE SHIFT   
Q L1Z  0.00000                                              SYS / PHASE SHIFT   
Q L2X  0.00000                                              SYS / PHASE SHIFT   
Q L5I                                                       SYS / PHASE SHIFT   
Q L6Z  0.00000                                              SYS / PHASE SHIFT   
DBHZ                                                        SIGNAL STRENGTH UNIT
 C1C    0.000 C1P    0.000 C2C    0.000 C2P    0.000        GLONASS COD/PHS/BIS 
 26 R01  1 R02 -4 R03  5 R04  6 R05  1 R06 -4 R07  5 R08  6 GLONASS SLOT / FRQ #
    R09 -2 R10 -7 R11  0 R12 -1 R13 -2 R14 -7 R15  0 R16 -1 GLONASS SLOT / FRQ #
    R17  4 R18 -3 R19  3 R20  2 R21  4 R22 -3 R23  3 R24  2 GLONASS SLOT / FRQ #
    R25 -5 R26 -5                                           GLONASS SLOT / FRQ #
                                                            END OF HEADER       
> 2023 01 08 10 00  0.0000000  0 43       0.000000000000
G01  21878644.471 9 114973052.698 9      2660.058 9        55.376 9                                                                  21878644.471 8 114973052.698 8      2660.058 8        52.376 8                                                                  21878645.374 8  89589395.411 8      2072.772 8        50.876 8  21878645.374 8  89589395.411 8      2072.772 8        49.376 8  21878644.471 9  85856500.392 9      1986.407 9        57.476 9
G07  20116751.945 9 105714244.983 9       377.005 9        56.099 9                                                                  20116751.945 8 105714244.983 8       377.005 8        53.099 8                                                                  20116749.777 8  82374727.475 8       293.770 8        51.599 8  20116749.777 8  82374727.475 8       293.770 8        50.099 8  20116751.945 9  78942455.669 9       281.529 9        58.199 9
G13  24828517.020 9 130474737.572 9      2436.809 9        54.257 9                                                                  24828517.020 8 130474737.572 8      2436.809 8        51.257 8                                                                  24828514.762 8 101668617.434 8      1898.813 8        49.757 8  24828514.762 8 101668617.434 8      1898.813 8        48.257 8  24828517.020 9  97432433.901 9      1819.695 9        56.357 9
G17  22600547.613 9 118766679.314 9      2677.287 9        55.042 9                                                                  22600547.613 8 118766679.314 8      2677.287 8        52.042 8                                                                  22600545.445 8  92545455.525 8      2086.198 8        50.542 8  22600545.445 8  92545455.525 8      2086.198 8        49.042 8  22600547.613 9  88689403.384 9      1999.273 9        57.142 9
G09  23410655.896 9 123023827.075 9     -3123.035 9        54.843 9                                                                  23410655.896 8 123023827.075 8     -3123.035 8        51.843 8                                                                  23410656.076 8  95862723.136 8     -2433.534 8        50.343 8  23410656.076 8  95862723.136 8     -2433.534 8        48.843 8  23410655.896 9  91868442.296 9     -2332.136 9        56.943 9
G21  21419849.346 9 112562068.045 9       103.115 9        55.569 9                                                                  21419849.346 8 112562068.045 8       103.115 8        52.569 8                                                                  21419847.359 8  87710694.236 8        80.349 8        51.069 8  21419847.359 8  87710694.236 8        80.349 8        49.569 8  21419849.346 9  84056089.774 9        77.001 9        57.669 9
G08  22285820.590 9 117112777.646 9     -2972.219 9        55.255 9                                                                  22285820.590 8 117112777.646 8     -2972.219 8        52.255 8                                                                  22285821.583 8  91256713.922 8     -2316.015 8        50.755 8  22285821.583 8  91256713.922 8     -2316.015 8        49.255 8  22285820.590 9  87454346.944 9     -2219.515 9        57.355 9
G30  21492536.821 9 112944043.305 9      2305.473 9        55.623 9                                                                  21492536.821 8 112944043.305 8      2305.473 8        52.623 8                                                                  21492537.544 8  88008348.391 8      1796.472 8        51.123 8  21492537.544 8  88008348.391 8      1796.472 8        49.623 8  21492536.821 9  84341331.040 9      1721.619 9        57.723 9
G14  22588771.498 9 118704795.411 9      1767.045 9        55.132 9                                                                  22588771.498 8 118704795.411 8      1767.045 8        52.132 8                                                                  22588769.962 8  92497236.891 8      1376.918 8        50.632 8  22588769.962 8  92497236.891 8      1376.918 8        49.132 8  22588771.498 9  88643191.378 9      1319.546 9        57.232 9
R02  23252044.350 8 124077364.045 8     -2989.922 8        53.503 8  23252044.350 8 124077364.045 8     -2989.922 8        53.503 8  23252044.350 7  96504616.480 7     -2325.495 7        47.503 7  23252044.350 7  96504616.480 7     -2325.495 7        47.503 7                                                                                                                                                                                                                                                                                                                                                                                                                                                                
R11  22008944.931 8 117609128.711 8     -1778.233 8        53.977 8  22008944.931 8 117609128.711 8     -1778.233 8        53.977 8  22008944.931 7  91473766.775 7     -1383.070 7        47.977 7  22008944.931 7  91473766.775 7     -1383.070 7        47.977 7                                                                                                                                                                                                                                                                                                                                                                                                                                                                
R22  19692927.151 9 105122182.497 9      -544.529 9        54.935 9  19692927.151 9 105122182.497 9      -544.529 9        54.935 9  19692927.151 8  81761697.498 8      -423.522 8        48.935 8  19692927.151 8  81761697.498 8      -423.522 8        48.935 8                                                                                                                                                                                                                                                                                                                                                                                                                                                                
R12  20176750.445 9 107780579.291 9       863.017 9        54.731 9  20176750.445 9 107780579.291 9       863.017 9        54.731 9  20176750.445 8  83829339.449 8       671.236 8        48.731 8  20176750.445 8  83829339.449 8       671.236 8        48.731 8                                                                                                                                                                                                                                                                                                                                                                                                                                                                
R21  22438906.049 8 120075118.867 8     -3581.874 8        53.853 8  22438906.049 8 120075118.867 8     -3581.874 8        53.853 8  22438906.049 7  93391759.118 7     -2785.902 7        47.853 7  22438906.049 7  93391759.118 7     -2785.902 7        47.853 7                                                                                                                                                                                                                                                                                                                                                                                                                                                                
R03  23289223.513 8 124669036.899 8      -796.856 8        53.479 8  23289223.513 8 124669036.899 8      -796.856 8        53.479 8  23289223.513 7  96964806.477 7      -619.777 7        47.479 7  23289223.513 7  96964806.477 7      -619.777 7        47.479 7                                                                                                                                                                                                                                                                                                                                                                                                                                                                
R23  21019356.564 9 112439384.248 9      3727.848 9        54.386 9  21019356.564 9 112439384.248 9      3727.848 9        54.386 9  21019356.564 8  87452854.415 8      2899.437 8        48.386 8  21019356.564 8  87452854.415 8      2899.437 8        48.386 8                                                                                                                                                                                                                                                                                                                                                                                                                                                                
R13  22168151.123 8 118376690.214 8      2681.086 8        53.920 8  22168151.123 8 118376690.214 8      2681.086 8        53.920 8  22168151.123 7  92070759.056 7      2085.289 7        47.920 7  22168151.123 7  92070759.056 7      2085.289 7        47.920 7                                                                                                                                                                                                                                                                                                                                                                                                                                                                
E05                                                                  28157120.702 9 147966667.983 9      1297.099 9        56.335 9  28157120.702 9 147966667.983 9      1297.099 9        56.335 9  28157121.643 9 110494593.421 9       968.613 9        56.195 9  28157121.643 9 110494593.421 9       968.613 9        56.195 9  28157121.643 9 113377061.076 9       993.881 9        56.195 9  28157121.643 9 113377061.076 9       993.881 9        56.195 9  28157121.643 9 111935827.248 9       981.247 9        59.205 9  28157121.643 9 111935827.248 9       981.247 9        59.205 9                                                                                                                                                                                                
E12                                                                  27303911.344 9 143483022.543 9      3068.827 9        56.628 9  27303911.344 9 143483022.543 9      3068.827 9        56.628 9  27303908.908 9 107146403.378 9      2291.657 9        56.488 9  27303908.908 9 107146403.378 9      2291.657 9        56.488 9  27303908.908 9 109941526.944 9      2351.439 9        56.488 9  27303908.908 9 109941526.944 9      2351.439 9        56.488 9  27303908.908 9 108543965.161 9      2321.548 9        59.498 9  27303908.908 9 108543965.161 9      2321.548 9        59.498 9                                                                                                                                                                                                
E14                                                                  20595934.651 9 108232367.101 9     -1538.131 9        58.512 9  20595934.651 9 108232367.101 9     -1538.131 9        58.512 9  20595933.876 9  80822868.495 9     -1148.604 9        58.372 9  20595933.876 9  80822868.495 9     -1148.604 9        58.372 9  20595933.876 9  82931291.151 9     -1178.568 9        58.372 9  20595933.876 9  82931291.151 9     -1178.568 9        58.372 9  20595933.876 9  81877079.823 9     -1163.586 9        61.383 9  20595933.876 9  81877079.823 9     -1163.586 9        61.383 9                                                                                                                                                                                                
E31                                                                  24476217.193 9 128623389.487 9       697.082 9        57.596 9  24476217.193 9 128623389.487 9       697.082 9        57.596 9  24476218.412 9  96049938.488 9       520.548 9        57.456 9  24476218.412 9  96049938.488 9       520.548 9        57.456 9  24476218.412 9  98555589.058 9       534.128 9        57.456 9  24476218.412 9  98555589.058 9       534.128 9        57.456 9  24476218.412 9  97302763.773 9       527.338 9        60.467 9  24476218.412 9  97302763.773 9       527.338 9        60.467 9                                                                                                                                                                                                
E26                                                                  26144431.321 9 137389913.899 9      -614.540 9        57.156 9  26144431.321 9 137389913.899 9      -614.540 9        57.156 9  26144430.269 9 102596360.147 9      -458.910 9        57.016 9  26144430.269 9 102596360.147 9      -458.910 9        57.016 9  26144430.269 9 105272786.934 9      -470.882 9        57.016 9  26144430.269 9 105272786.934 9      -470.882 9        57.016 9  26144430.269 9 103934573.540 9      -464.896 9        60.026 9  26144430.269 9 103934573.540 9      -464.896 9        60.026 9                                                                                                                                                                                                
E04                                                                  26153680.682 9 137438519.616 9     -2559.957 9        56.969 9  26153680.682 9 137438519.616 9     -2559.957 9        56.969 9  26153680.017 9 102632658.145 9     -1911.656 9        56.829 9  26153680.017 9 102632658.145 9     -1911.656 9        56.829 9  26153680.017 9 105310031.835 9     -1961.525 9        56.829 9  26153680.017 9 105310031.835 9     -1961.525 9        56.829 9  26153680.017 9 103971344.990 9     -1936.591 9        59.840 9  26153680.017 9 103971344.990 9     -1936.591 9        59.840 9                                                                                                                                                                                                
E01                                                                  25176316.937 9 132302438.473 9      -908.415 9        57.358 9  25176316.937 9 132302438.473 9      -908.415 9        57.358 9  25176316.993 9  98797275.700 9      -678.362 9        57.218 9  25176316.993 9  98797275.700 9      -678.362 9        57.218 9  25176316.993 9 101374595.936 9      -696.058 9        57.218 9  25176316.993 9 101374595.936 9      -696.058 9        57.218 9  25176316.993 9 100085935.818 9      -687.210 9        60.229 9  25176316.993 9 100085935.818 9      -687.210 9        60.229 9                                                                                                                                                                                                
E09                                                                  25972384.557 9 136485802.051 9      -863.264 9        57.106 9  25972384.557 9 136485802.051 9      -863.264 9        57.106 9  25972385.111 9 101921217.991 9      -644.645 9        56.966 9  25972385.111 9 101921217.991 9      -644.645 9        56.966 9  25972385.111 9 104580032.373 9      -661.462 9        56.966 9  25972385.111 9 104580032.373 9      -661.462 9        56.966 9  25972385.111 9 103250625.182 9      -653.054 9        59.977 9  25972385.111 9 103250625.182 9      -653.054 9        59.977 9                                                                                                                                                                                                
E33                                                                  24781494.489 9 130227632.502 9      1840.264 9        57.482 9  24781494.489 9 130227632.502 9      1840.264 9        57.482 9  24781493.658 9  97247904.129 9      1374.223 9        57.342 9  24781493.658 9  97247904.129 9      1374.223 9        57.342 9  24781493.658 9  99784805.976 9      1410.073 9        57.342 9  24781493.658 9  99784805.976 9      1410.073 9        57.342 9  24781493.658 9  98516355.052 9      1392.148 9        60.352 9  24781493.658 9  98516355.052 9      1392.148 9        60.352 9                                                                                                                                                                                                
E24                                                                  27609663.205 9 145089759.417 9      1596.788 9        56.595 9  27609663.205 9 145089759.417 9      1596.788 9        56.595 9  27609662.707 9 108346246.960 9      1192.407 9        56.455 9  27609662.707 9 108346246.960 9      1192.407 9        56.455 9  27609662.707 9 111172670.793 9      1223.513 9        56.455 9  27609662.707 9 111172670.793 9      1223.513 9        56.455 9  27609662.707 9 109759458.877 9      1207.960 9        59.465 9  27609662.707 9 109759458.877 9      1207.960 9        59.465 9                                                                                                                                                                                                
Q02  39869776.106 9 209517087.561 9       789.972 9        55.862 9  39869776.106 9 209517087.561 9       789.972 9        57.367 9  39869776.106 8 209517087.561 8       789.972 8        53.362 8  39869776.106 9 163260068.229 9       615.563 9        54.362 9                                                                                                                                
Q03  39143174.654 9 205698771.159 9      -454.103 9        56.021 9  39143174.654 9 205698771.159 9      -454.103 9        57.526 9  39143174.654 8 205698771.159 8      -454.103 8        53.521 8  39143174.654 9 160284756.747 9      -353.847 9        54.521 9                                                                                                                                
Q04  38096949.276 9 200200819.692 9      -267.436 9        56.251 9  38096949.276 9 200200819.692 9      -267.436 9        57.756 9  38096949.276 8 200200819.692 8      -267.436 8        53.751 8  38096949.276 9 156000638.721 9      -208.392 9        54.751 9                                                                                                                                
Q07  37728986.133 9 198267160.323 9        -4.486 9        56.342 9  37728986.133 9 198267160.323 9        -4.486 9        57.847 9  37728986.133 8 198267160.323 8        -4.486 8        53.842 8  37728986.133 9 154493891.161 9        -3.496 9        54.842 9                                                                                                                                
C01  38742453.003 8 201742119.538 8       -14.152 8        51.550 8  38742451.414 8 155999797.701 8       -10.943 8        51.550 8  38742454.412 8 163932003.490 8       -11.500 8        51.550 8                                                                                                                                  38742454.412 9 155999809.773 9       -10.943 9        54.550 9
C02  36970236.863 8 192513725.031 8         1.418 8        52.024 8  36970232.186 8 148863805.242 8         1.096 8        52.024 8  36970236.443 8 156433169.285 8         1.152 8        52.024 8                                                                                                                                  36970236.443 9 148863822.384 9         1.096 9        55.024 9
C07  36182588.189 8 188412231.694 8      -243.858 8        52.201 8  36182583.992 8 145692272.352 8      -188.566 8        52.201 8  36182583.692 8 153100352.728 8      -198.154 8        52.201 8  36182583.692 9 141988230.353 9      -183.772 9        55.977 9  36182583.692 9 190140760.647 9      -246.095 9        55.201 9  36182583.692 9 145692271.145 9      -188.566 9        55.201 9
C20  26267704.146 8 136782828.629 8     -1977.000 8        51.193 8  26267704.146 8 105769159.753 8     -1528.742 8        51.193 8  26267698.270 8 111147227.759 8     -1606.474 8        51.193 8  26267698.270 9 103080090.260 9     -1489.875 9        55.977 9  26267698.270 9 138037686.087 9     -1995.137 9        54.193 9  26267698.270 9 105769136.093 9     -1528.742 9        54.193 9
C27  22998570.066 8 119759589.591 8      2553.168 8        52.415 8  22998570.066 8  92605711.479 8      1974.272 8        52.415 8  22998571.355 8  97314481.924 8      2074.659 8        52.415 8  22998571.355 9  90251334.043 9      1924.078 9        55.977 9  22998571.355 9 120858308.196 9      2576.592 9        55.415 9  22998571.355 9  92605716.670 9      1974.272 9        55.415 9
C10  36419762.167 8 189647258.835 8      -153.610 8        52.145 8  36419761.237 8 146647286.838 8      -118.781 8        52.145 8  36419760.368 8 154103924.863 8      -124.821 8        52.145 8  36419760.368 9 142918962.574 9      -115.761 9        55.977 9  36419760.368 9 191387132.491 9      -155.019 9        55.145 9  36419760.368 9 146647283.337 9      -118.781 9        55.145 9
C09  36213823.678 8 188574883.082 8      -852.077 8        52.185 8  36213822.719 8 145818057.760 8      -658.880 8        52.185 8  36213821.609 8 153232530.580 8      -692.382 8        52.185 8  36213821.609 9 142110814.650 9      -642.129 9        55.977 9  36213821.609 9 190304917.010 9      -859.894 9        55.185 9  36213821.609 9 145818053.293 9      -658.880 9        55.185 9
C23  23874618.537 8 124321403.872 8     -1670.709 8        52.195 8  23874618.537 8  96133195.655 8     -1291.898 8        52.195 8  23874611.732 8 101021295.452 8     -1357.588 8        52.195 8  23874611.732 9  93689104.653 9     -1259.053 9        55.977 9  23874611.732 9 125461931.449 9     -1686.036 9        55.195 9  23874611.732 9  96133168.253 9     -1291.898 9        55.195 9
C06  37180773.691 8 193610045.546 8     -1244.634 8        51.954 8  37180770.573 8 149711556.085 8      -962.430 8        51.954 8  37180771.113 8 157324010.373 8     -1011.367 8        51.954 8  37180771.113 9 145905332.201 9      -937.962 9        55.977 9  37180771.113 9 195386270.947 9     -1256.053 9        54.954 9  37180771.113 9 149711558.258 9      -962.430 9        54.954 9
C16  37491625.046 8 195228730.126 8     -1267.492 8        51.892 8  37491627.175 8 150963246.807 8      -980.106 8        51.892 8  37491625.796 8 158639338.267 8     -1029.941 8        51.892 8  37491625.796 9 147125192.748 9      -955.188 9        55.977 9  37491625.796 9 197019823.332 9     -1279.121 9        54.892 9  37491625.796 9 150963241.254 9      -980.106 9        54.892 9
> 2023 01 08 10 05  0.0000000  0 43       0.000000000000
G01  21730463.714 9 114194357.566 9      2529.374 9        55.435 9                                                                  21730463.714 8 114194357.566 8      2529.374 8        52.435 8                                                                  21730464.617 8  88982619.984 8      1970.940 8        50.935 8  21730464.617 8  88982619.984 8      1970.940 8        49.435 8  21730463.714 9  85275007.273 9      1888.818 9        57.535 9
G07  20099963.142 9 105626019.229 9       210.393 9        56.106 9                                                                  20099963.142 8 105626019.229 8       210.393 8        53.106 8                                                                  20099960.975 8  82305980.134 8       163.942 8        51.606 8  20099960.975 8  82305980.134 8       163.942 8        50.106 8  20099963.142 9  78876572.801 9       157.111 9        58.206 9
G13  24693203.772 9 129763661.657 9      2302.519 9        54.304 9                                                                  24693203.772 8 129763661.657 8      2302.519 8        51.304 8                                                                  24693201.515 8 101114532.305 8      1794.170 8        49.804 8  24693201.515 8 101114532.305 8      1794.170 8        48.304 8  24693203.772 9  96901435.653 9      1719.413 9        56.404 9
G17  22450791.020 9 117979703.106 9      2568.582 9        55.100 9                                                                  22450791.020 8 117979703.106 8      2568.582 8        52.100 8                                                                  22450788.852 8  91932227.311 8      2001.492 8        50.600 8  22450788.852 8  91932227.311 8      2001.492 8        49.100 8  22450791.020 9  88101726.346 9      1918.097 9        57.200 9
G09  23589588.593 9 123964124.745 9     -3143.933 9        54.776 9                                                                  23589588.593 8 123964124.745 8     -3143.933 8        51.776 8                                                                  23589588.774 8  96595422.619 8     -2449.818 8        50.276 8  23589588.774 8  96595422.619 8     -2449.818 8        48.776 8  23589588.593 9  92570612.634 9     -2347.742 9        56.876 9
G21  21419528.345 9 112560381.174 9       -92.097 9        55.569 9                                                                  21419528.345 8 112560381.174 8       -92.097 8        52.569 8                                                                  21419526.358 8  87709379.792 8       -71.764 8        51.069 8  21419526.358 8  87709379.792 8       -71.764 8        49.569 8  21419528.345 9  84054830.098 9       -68.773 9        57.669 9
G08  22457021.405 9 118012444.004 9     -3024.204 9        55.189 9                                                                  22457021.405 8 118012444.004 8     -3024.204 8        52.189 8                                                                  22457022.399 8  91957752.643 8     -2356.522 8        50.689 8  22457022.399 8  91957752.643 8     -2356.522 8        49.189 8  22457021.405 9  88126175.717 9     -2258.334 9        57.289 9
G30  21363955.052 9 112268341.547 9      2197.832 9        55.676 9                                                                  21363955.052 8 112268341.547 8      2197.832 8        52.676 8                                                                  21363955.774 8  87481827.540 8      1712.596 8        51.176 8  21363955.774 8  87481827.540 8      1712.596 8        49.676 8  21363955.052 9  83836748.557 9      1641.238 9        57.776 9
G14  22488506.341 9 118177898.460 9      1745.644 9        55.171 9                                                                  22488506.341 8 118177898.460 8      1745.644 8        52.171 8                                                                  22488504.806 8  92086667.837 8      1360.242 8        50.671 8  22488504.806 8  92086667.837 8      1360.242 8        49.171 8  22488506.341 9  88249729.369 9      1303.565 9        57.271 9
R02  23421770.804 8 124983056.924 8     -3045.551 8        53.440 8  23421770.804 8 124983056.924 8     -3045.551 8        53.440 8  23421770.804 7  97209044.274 7     -2368.762 7        47.440 7  23421770.804 7  97209044.274 7     -2368.762 7        47.440 7                                                                                                                                                                                                                                                                                                                                                                                                                                                                
R11  22111435.573 8 118156807.629 8     -1873.359 8        53.936 8  22111435.573 8 118156807.629 8     -1873.359 8        53.936 8  22111435.573 7  91899739.267 7     -1457.057 7        47.936 7  22111435.573 7  91899739.267 7     -1457.057 7        47.936 7                                                                                                                                                                                                                                                                                                                                                                                                                                                                
R22  19731084.540 9 105325869.234 9      -812.686 9        54.918 9  19731084.540 9 105325869.234 9      -812.686 9        54.918 9  19731084.540 8  81920120.515 8      -632.089 8        48.918 8  19731084.540 8  81920120.515 8      -632.089 8        48.918 8                                                                                                                                                                                                                                                                                                                                                                                                                                                                
R12  20130421.255 9 107533097.074 9       785.714 9        54.751 9  20130421.255 9 107533097.074 9       785.714 9        54.751 9  20130421.255 8  83636853.279 8       611.111 8        48.751 8  20130421.255 8  83636853.279 8       611.111 8        48.751 8                                                                                                                                                                                                                                                                                                                                                                                                                                                                
R21  22643466.317 8 121169762.178 8     -3713.421 8        53.774 8  22643466.317 8 121169762.178 8     -3713.421 8        53.774 8  22643466.317 7  94243148.361 7     -2888.216 7        47.774 7  22643466.317 7  94243148.361 7     -2888.216 7        47.774 7                                                                                                                                                                                                                                                                                                                                                                                                                                                                
R03  23339567.681 8 124938533.173 8      -998.444 8        53.461 8  23339567.681 8 124938533.173 8      -998.444 8        53.461 8  23339567.681 7  97174414.690 7      -776.567 7        47.461 7  23339567.681 7  97174414.690 7      -776.567 7        47.461 7                                                                                                                                                                                                                                                                                                                                                                                                                                                                
R23  20814579.984 9 111343967.624 9      3572.684 9        54.471 9  20814579.984 9 111343967.624 9      3572.684 9        54.471 9  20814579.984 8  86600863.708 8      2778.755 8        48.471 8  20814579.984 8  86600863.708 8      2778.755 8        48.471 8                                                                                                                                                                                                                                                                                                                                                                                                                                                                
R13  22017268.604 8 117570985.979 8      2689.510 8        53.979 8  22017268.604 8 117570985.979 8      2689.510 8        53.979 8  22017268.604 7  91444100.206 7      2091.841 7        47.979 7  22017268.604 7  91444100.206 7      2091.841 7        47.979 7                                                                                                                                                                                                                                                                                                                                                                                                                                                                
E05                                                                  28086413.129 9 147595097.176 9      1179.590 9        56.357 9  28086413.129 9 147595097.176 9      1179.590 9        56.357 9  28086414.070 9 110217121.715 9       880.863 9        56.217 9  28086414.070 9 110217121.715 9       880.863 9        56.217 9  28086414.070 9 113092350.977 9       903.842 9        56.217 9  28086414.070 9 113092350.977 9       903.842 9        56.217 9  28086414.070 9 111654736.346 9       892.352 9        59.227 9  28086414.070 9 111654736.346 9       892.352 9        59.227 9                                                                                                                                                                                                
E12                                                                  27128575.467 9 142561626.290 9      3072.747 9        56.684 9  27128575.467 9 142561626.290 9      3072.747 9        56.684 9  27128573.031 9 106458347.734 9      2294.584 9        56.544 9  27128573.031 9 106458347.734 9      2294.584 9        56.544 9  27128573.031 9 109235522.023 9      2354.443 9        56.544 9  27128573.031 9 109235522.023 9      2354.443 9        56.544 9  27128573.031 9 107846934.878 9      2324.513 9        59.555 9  27128573.031 9 107846934.878 9      2324.513 9        59.555 9                                                                                                                                                                                                
E14                                                                  20691489.518 9 108734511.313 9     -1808.702 9        58.472 9  20691489.518 9 108734511.313 9     -1808.702 9        58.472 9  20691488.742 9  81197846.315 9     -1350.654 9        58.332 9  20691488.742 9  81197846.315 9     -1350.654 9        58.332 9  20691488.742 9  83316051.001 9     -1385.889 9        58.332 9  20691488.742 9  83316051.001 9     -1385.889 9        58.332 9  20691488.742 9  82256948.658 9     -1368.271 9        61.342 9  20691488.742 9  82256948.658 9     -1368.271 9        61.342 9                                                                                                                                                                                                
E31                                                                  24436595.607 9 128415176.644 9       690.943 9        57.611 9  24436595.607 9 128415176.644 9       690.943 9        57.611 9  24436596.825 9  95894454.871 9       515.964 9        57.471 9  24436596.825 9  95894454.871 9       515.964 9        57.471 9  24436596.825 9  98396049.346 9       529.424 9        57.471 9  24436596.825 9  98396049.346 9       529.424 9        57.471 9  24436596.825 9  97145252.109 9       522.694 9        60.481 9  24436596.825 9  97145252.109 9       522.694 9        60.481 9                                                                                                                                                                                                
E26                                                                  26183521.115 9 137595332.149 9      -754.649 9        57.143 9  26183521.115 9 137595332.149 9      -754.649 9        57.143 9  26183520.062 9 102749756.892 9      -563.537 9        57.003 9  26183520.062 9 102749756.892 9      -563.537 9        57.003 9  26183520.062 9 105430185.332 9      -578.238 9        57.003 9  26183520.062 9 105430185.332 9      -578.238 9        57.003 9  26183520.062 9 104089971.112 9      -570.887 9        60.013 9  26183520.062 9 104089971.112 9      -570.887 9        60.013 9                                                                                                                                                                                                
E04                                                                  26300503.636 9 138210079.448 9     -2582.635 9        56.920 9  26300503.636 9 138210079.448 9     -2582.635 9        56.920 9  26300502.972 9 103208822.955 9     -1928.591 9        56.781 9  26300502.972 9 103208822.955 9     -1928.591 9        56.781 9  26300502.972 9 105901227.032 9     -1978.902 9        56.781 9  26300502.972 9 105901227.032 9     -1978.902 9        56.781 9  26300502.972 9 104555024.993 9     -1953.746 9        59.791 9  26300502.972 9 104555024.993 9     -1953.746 9        59.791 9                                                                                                                                                                                                
E01                                                                  25228554.818 9 132576950.389 9      -921.943 9        57.340 9  25228554.818 9 132576950.389 9      -921.943 9        57.340 9  25228554.873 9  99002268.365 9      -688.464 9        57.200 9  25228554.873 9  99002268.365 9      -688.464 9        57.200 9  25228554.873 9 101584936.235 9      -706.424 9        57.200 9  25228554.873 9 101584936.235 9      -706.424 9        57.200 9  25228554.873 9 100293602.300 9      -697.444 9        60.210 9  25228554.873 9 100293602.300 9      -697.444 9        60.210 9                                                                                                                                                                                                
E09                                                                  26025075.008 9 136762692.242 9      -981.995 9        57.088 9  26025075.008 9 136762692.242 9      -981.995 9        57.088 9  26025075.562 9 102127986.639 9      -733.308 9        56.949 9  26025075.562 9 102127986.639 9      -733.308 9        56.949 9  26025075.562 9 104792194.986 9      -752.438 9        56.949 9  26025075.562 9 104792194.986 9      -752.438 9        56.949 9  26025075.562 9 103460090.813 9      -742.873 9        59.959 9  26025075.562 9 103460090.813 9      -742.873 9        59.959 9                                                                                                                                                                                                
E33                                                                  24679584.648 9 129692092.676 9      1729.089 9        57.518 9  24679584.648 9 129692092.676 9      1729.089 9        57.518 9  24679583.818 9  96847988.025 9      1291.203 9        57.378 9  24679583.818 9  96847988.025 9      1291.203 9        57.378 9  24679583.818 9  99374457.278 9      1324.886 9        57.378 9  24679583.818 9  99374457.278 9      1324.886 9        57.378 9  24679583.818 9  98111222.651 9      1308.044 9        60.388 9  24679583.818 9  98111222.651 9      1308.044 9        60.388 9                                                                                                                                                                                                
E24                                                                  27518257.943 9 144609421.524 9      1605.655 9        56.624 9  27518257.943 9 144609421.524 9      1605.655 9        56.624 9  27518257.445 9 107987553.079 9      1199.028 9        56.484 9  27518257.445 9 107987553.079 9      1199.028 9        56.484 9  27518257.445 9 110804619.681 9      1230.307 9        56.484 9  27518257.445 9 110804619.681 9      1230.307 9        56.484 9  27518257.445 9 109396086.380 9      1214.667 9        59.494 9  27518257.445 9 109396086.380 9      1214.667 9        59.494 9                                                                                                                                                                                                
Q02  39824132.801 9 209277230.374 9       808.939 9        55.872 9  39824132.801 9 209277230.374 9       808.939 9        57.377 9  39824132.801 8 209277230.374 8       808.939 8        53.372 8  39824132.801 9 163073166.525 9       630.342 9        54.372 9                                                                                                                                
Q03  39169416.808 9 205836674.608 9      -465.144 9        56.015 9  39169416.808 9 205836674.608 9      -465.144 9        57.520 9  39169416.808 8 205836674.608 8      -465.144 8        53.515 8  39169416.808 9 160392213.980 9      -362.450 9        54.515 9                                                                                                                                
Q04  38111883.331 9 200279298.678 9      -255.763 9        56.248 9  38111883.331 9 200279298.678 9      -255.763 9        57.752 9  38111883.331 8 200279298.678 8      -255.763 8        53.748 8  38111883.331 9 156061791.178 9      -199.296 9        54.748 9                                                                                                                                
Q07  37729241.097 9 198268500.165 9        -4.446 9        56.342 9  37729241.097 9 198268500.165 9        -4.446 9        57.847 9  37729241.097 8 198268500.165 8        -4.446 8        53.842 8  37729241.097 9 154494935.194 9        -3.464 9        54.842 9                                                                                                                                
C03  37068428.918 8 193025036.830 8        30.468 8        51.993 8  37068425.800 8 149259190.237 8        23.560 8        51.993 8  37068428.228 8 156848650.863 8        24.758 8        51.993 8                                                                                                                                  37068428.228 9 149259200.015 9        23.560 9        54.993 9
C02  36970144.708 8 192513245.156 8         1.914 8        52.024 8  36970140.031 8 148863434.173 8         1.480 8        52.024 8  36970144.288 8 156432779.347 8         1.555 8        52.024 8                                                                                                                                  36970144.288 9 148863451.314 9         1.480 9        55.024 9
C07  36196422.357 8 188484269.834 8      -236.249 8        52.197 8  36196418.159 8 145747976.812 8      -182.683 8        52.197 8  36196417.860 8 153158889.619 8      -191.972 8        52.197 8  36196417.860 9 142042518.598 9      -178.038 9        55.977 9  36196417.860 9 190213459.688 9      -238.416 9        55.197 9  36196417.860 9 145747975.605 9      -182.683 9        55.197 9
C20  26381959.889 8 137377788.265 8     -1988.045 8        51.156 8  26381959.889 8 106229220.284 8     -1537.283 8        51.156 8  26381954.013 8 111630681.198 8     -1615.449 8        51.156 8  26381954.013 9 103528454.337 9     -1498.199 9        55.977 9  26381954.013 9 138638104.069 9     -2006.284 9        54.156 9  26381954.013 9 106229196.624 9     -1537.283 9        54.156 9
C27  22854536.197 8 119009567.439 8      2446.063 8        52.470 8  22854536.197 8  92025746.775 8      1891.451 8        52.470 8  22854537.486 8  96705027.489 8      1987.627 8        52.470 8  22854537.486 9  89686114.203 9      1843.363 9        55.977 9  22854537.486 9 120101405.107 9      2468.504 9        55.470 9  22854537.486 9  92025751.965 9      1891.451 9        55.470 9
C10  36428406.988 8 189692274.689 8      -146.333 8        52.143 8  36428406.059 8 146682095.952 8      -113.154 8        52.143 8  36428405.190 8 154140503.932 8      -118.908 8        52.143 8  36428405.190 9 142952886.711 9      -110.277 9        55.977 9  36428405.190 9 191432561.335 9      -147.676 9        55.143 9  36428405.190 9 146682092.451 9      -113.154 9        55.143 9
C09  36264283.346 8 188837639.816 8      -899.565 8        52.173 8  36264282.387 8 146021237.935 8      -695.600 8        52.173 8  36264281.278 8 153446041.950 8      -730.970 8        52.173 8  36264281.278 9 142308829.227 9      -677.916 9        55.977 9  36264281.278 9 190570084.357 9      -907.817 9        55.173 9  36264281.278 9 146021233.468 9      -695.600 9        55.173 9
C04  40367603.334 8 210204703.779 8        25.078 8        51.273 8  40367599.047 8 162543593.786 8        19.392 8        51.273 8  40367601.595 8 170808533.066 8        20.378 8        51.273 8                                                                                                                                  40367601.595 9 162543604.047 9        19.392 9        54.273 9
C06  37253546.785 8 193988994.144 8     -1281.514 8        51.937 8  37253543.667 8 150004583.180 8      -990.948 8        51.937 8  37253544.207 8 157631937.150 8     -1041.335 8        51.937 8  37253544.207 9 146190909.454 9      -965.754 9        55.977 9  37253544.207 9 195768696.138 9     -1293.271 9        54.937 9  37253544.207 9 150004585.353 9      -990.948 9        54.937 9
C16  37565683.601 8 195614372.457 8     -1303.259 8        51.875 8  37565685.730 8 151261449.920 8     -1007.763 8        51.875 8  37565684.351 8 158952704.250 8     -1059.005 8        51.875 8  37565684.351 9 147415814.426 9      -982.141 9        55.977 9  37565684.351 9 197409003.665 9     -1315.216 9        54.875 9  37565684.351 9 151261444.367 9     -1007.763 9        54.875 9
> 2023 01 08 10 10  0.0000000  0 43       0.000000000000
G01  21590061.275 9 113456537.766 9      2387.611 9        55.491 9                                                                  21590061.275 8 113456537.766 8      2387.611 8        52.491 8                                                                  21590062.178 8  88407695.464 8      1860.476 8        50.991 8  21590062.178 8  88407695.464 8      1860.476 8        49.491 8  21590061.275 9  84724037.942 9      1782.956 9        57.591 9
G07  20092812.836 9 105588444.118 9        39.436 9        56.109 9                                                                  20092812.836 8 105588444.118 8        39.436 8        53.109 8                                                                  20092810.669 8  82276700.827 8        30.729 8        51.609 8  20092810.669 8  82276700.827 8        30.729 8        50.109 8  20092812.836 9  78848513.465 9        29.449 9        58.209 9
G13  24565753.837 9 129093907.725 9      2161.404 9        54.349 9                                                                  24565753.837 8 129093907.725 8      2161.404 8        51.349 8                                                                  24565751.579 8 100592646.124 8      1684.211 8        49.849 8  24565751.579 8 100592646.124 8      1684.211 8        48.349 8  24565753.837 9  96401294.729 9      1614.035 9        56.449 9
G17  22307344.623 9 117225887.203 9      2456.293 9        55.155 9                                                                  22307344.623 8 117225887.203 8      2456.293 8        52.155 8                                                                  22307342.455 8  91344838.296 8      1913.995 8        50.655 8  22307342.455 8  91344838.296 8      1913.995 8        49.155 8  22307344.623 9  87538811.873 9      1834.245 9        57.255 9
G09  23769428.176 9 124909188.130 9     -3154.837 9        54.710 9                                                                  23769428.176 8 124909188.130 8     -3154.837 8        51.710 8                                                                  23769428.356 8  97331835.646 8     -2458.314 8        50.210 8  23769428.356 8  97331835.646 8     -2458.314 8        48.710 8  23769428.176 9  93276341.786 9     -2355.885 9        56.810 9
G21  21430381.772 9 112617416.315 9      -288.211 9        55.565 9                                                                  21430381.772 8 112617416.315 8      -288.211 8        52.565 8                                                                  21430379.785 8  87753822.759 8      -224.580 8        51.065 8  21430379.785 8  87753822.759 8      -224.580 8        49.565 8  21430381.772 9  84097421.274 9      -215.223 9        57.665 9
G08  22630960.157 9 118926498.311 9     -3068.186 9        55.122 9                                                                  22630960.157 8 118926498.311 8     -3068.186 8        52.122 8                                                                  22630961.150 8  92670002.752 8     -2390.794 8        50.622 8  22630961.150 8  92670002.752 8     -2390.794 8        49.122 8  22630960.157 9  88808748.739 9     -2291.178 9        57.222 9
G30  21241752.601 9 111626163.331 9      2081.994 9        55.726 9                                                                  21241752.601 8 111626163.331 8      2081.994 8        52.726 8                                                                  21241753.323 8  86981428.931 8      1622.333 8        51.226 8  21241753.323 8  86981428.931 8      1622.333 8        49.726 8  21241752.601 9  83357199.890 9      1554.736 9        57.826 9
G14  22389456.906 9 117657390.162 9      1724.422 9        55.209 9                                                                  22389456.906 8 117657390.162 8      1724.422 8        52.209 8                                                                  22389455.370 8  91681076.956 8      1343.705 8        50.709 8  22389455.370 8  91681076.956 8      1343.705 8        49.209 8  22389456.906 9  87861038.108 9      1287.718 9        57.309 9
R02  23594209.134 8 125903220.896 8     -3086.423 8        53.376 8  23594209.134 8 125903220.896 8     -3086.423 8        53.376 8  23594209.134 7  97924727.363 7     -2400.551 7        47.376 7  23594209.134 7  97924727.363 7     -2400.551 7        47.376 7                                                                                                                                                                                                                                                                                                                                                                                                                                                                
R11  22219329.799 8 118733361.656 8     -1970.672 8        53.894 8  22219329.799 8 118733361.656 8     -1970.672 8        53.894 8  22219329.799 7  92348170.177 7     -1532.745 7        47.894 7  22219329.799 7  92348170.177 7     -1532.745 7        47.894 7                                                                                                                                                                                                                                                                                                                                                                                                                                                                
R22  19784181.293 9 105609303.302 9     -1075.942 9        54.895 9  19784181.293 9 105609303.302 9     -1075.942 9        54.895 9  19784181.293 8  82140569.235 8      -836.843 8        48.895 8  19784181.293 8  82140569.235 8      -836.843 8        48.895 8                                                                                                                                                                                                                                                                                                                                                                                                                                                                
R12  20088628.924 9 107309849.946 9       701.425 9        54.769 9  20088628.924 9 107309849.946 9       701.425 9        54.769 9  20088628.924 8  83463216.624 8       545.552 8        48.769 8  20088628.924 8  83463216.624 8       545.552 8        48.769 8                                                                                                                                                                                                                                                                                                                                                                                                                                                                
R21  22855008.877 8 122301769.151 8     -3830.964 8        53.693 8  22855008.877 8 122301769.151 8     -3830.964 8        53.693 8  22855008.877 7  95123598.229 7     -2979.638 7        47.693 7  22855008.877 7  95123598.229 7     -2979.638 7        47.693 7                                                                                                                                                                                                                                                                                                                                                                                                                                                                
R03  23400974.800 8 125267250.287 8     -1191.499 8        53.438 8  23400974.800 8 125267250.287 8     -1191.499 8        53.438 8  23400974.800 7  97430083.557 7      -926.721 7        47.438 7  23400974.800 7  97430083.557 7      -926.721 7        47.438 7                                                                                                                                                                                                                                                                                                                                                                                                                                                                
R23  20618878.865 9 110297098.603 9      3404.274 9        54.553 9  20618878.865 9 110297098.603 9      3404.274 9        54.553 9  20618878.865 8  85786632.247 8      2647.769 8        48.553 8  20618878.865 8  85786632.247 8      2647.769 8        48.553 8                                                                                                                                                                                                                                                                                                                                                                                                                                                                
R13  21866046.249 9 116763467.040 9      2693.096 9        54.039 9  21866046.249 9 116763467.040 9      2693.096 9        54.039 9  21866046.249 8  90816029.920 8      2094.630 8        48.039 8  21866046.249 8  90816029.920 8      2094.630 8        48.039 8                                                                                                                                                                                                                                                                                                                                                                                                                                                                
E05                                                                  28022487.044 9 147259163.332 9      1059.582 9        56.376 9  28022487.044 9 147259163.332 9      1059.582 9        56.376 9  28022487.985 9 109966262.026 9       791.246 9        56.237 9  28022487.985 9 109966262.026 9       791.246 9        56.237 9  28022487.985 9 112834947.123 9       811.887 9        56.237 9  28022487.985 9 112834947.123 9       811.887 9        56.237 9  28022487.985 9 111400604.574 9       801.567 9        59.247 9  28022487.985 9 111400604.574 9       801.567 9        59.247 9                                                                                                                                                                                                
E12                                                                  26953199.294 9 141640018.283 9      3070.227 9        56.741 9  26953199.294 9 141640018.283 9      3070.227 9        56.741 9  26953196.858 9 105770133.962 9      2292.702 9        56.601 9  26953196.858 9 105770133.962 9      2292.702 9        56.601 9  26953196.858 9 108529354.848 9      2352.512 9        56.601 9  26953196.858 9 108529354.848 9      2352.512 9        56.601 9  26953196.858 9 107149744.405 9      2322.607 9        59.611 9  26953196.858 9 107149744.405 9      2322.607 9        59.611 9                                                                                                                                                                                                
E14                                                                  20802342.097 9 109317045.550 9     -2073.857 9        58.426 9  20802342.097 9 109317045.550 9     -2073.857 9        58.426 9  20802341.322 9  81632855.648 9     -1548.659 9        58.286 9  20802341.322 9  81632855.648 9     -1548.659 9        58.286 9  20802341.322 9  83762408.404 9     -1589.059 9        58.286 9  20802341.322 9  83762408.404 9     -1589.059 9        58.286 9  20802341.322 9  82697632.026 9     -1568.859 9        61.296 9  20802341.322 9  82697632.026 9     -1568.859 9        61.296 9                                                                                                                                                                                                
E31                                                                  24397336.649 9 128208869.431 9       684.344 9        57.625 9  24397336.649 9 128208869.431 9       684.344 9        57.625 9  24397337.868 9  95740394.291 9       511.036 9        57.485 9  24397337.868 9  95740394.291 9       511.036 9        57.485 9  24397337.868 9  98237969.794 9       524.367 9        57.485 9  24397337.868 9  98237969.794 9       524.367 9        57.485 9  24397337.868 9  96989182.042 9       517.702 9        60.495 9  24397337.868 9  96989182.042 9       517.702 9        60.495 9                                                                                                                                                                                                
E26                                                                  26230559.339 9 137842519.687 9      -892.925 9        57.127 9  26230559.339 9 137842519.687 9      -892.925 9        57.127 9  26230558.287 9 102934344.989 9      -666.794 9        56.987 9  26230558.287 9 102934344.989 9      -666.794 9        56.987 9  26230558.287 9 105619588.771 9      -684.189 9        56.987 9  26230558.287 9 105619588.771 9      -684.189 9        56.987 9  26230558.287 9 104276966.880 9      -675.492 9        59.997 9  26230558.287 9 104276966.880 9      -675.492 9        59.997 9                                                                                                                                                                                                
E04                                                                  26448426.725 9 138987420.529 9     -2598.505 9        56.872 9  26448426.725 9 138987420.529 9     -2598.505 9        56.872 9  26448426.061 9 103789304.930 9     -1940.442 9        56.732 9  26448426.061 9 103789304.930 9     -1940.442 9        56.732 9  26448426.061 9 106496852.016 9     -1991.062 9        56.732 9  26448426.061 9 106496852.016 9     -1991.062 9        56.732 9  26448426.061 9 105143078.473 9     -1965.752 9        59.742 9  26448426.061 9 105143078.473 9     -1965.752 9        59.742 9                                                                                                                                                                                                
E01                                                                  25281613.377 9 132855774.996 9      -937.184 9        57.322 9  25281613.377 9 132855774.996 9      -937.184 9        57.322 9  25281613.432 9  99210481.546 9      -699.845 9        57.182 9  25281613.432 9  99210481.546 9      -699.845 9        57.182 9  25281613.432 9 101798581.064 9      -718.102 9        57.182 9  25281613.432 9 101798581.064 9      -718.102 9        57.182 9  25281613.432 9 100504531.305 9      -708.974 9        60.192 9  25281613.432 9 100504531.305 9      -708.974 9        60.192 9                                                                                                                                                                                                
E09                                                                  26084424.727 9 137074577.117 9     -1096.499 9        57.068 9  26084424.727 9 137074577.117 9     -1096.499 9        57.068 9  26084425.281 9 102360887.683 9      -818.814 9        56.929 9  26084425.281 9 102360887.683 9      -818.814 9        56.929 9  26084425.281 9 105031171.709 9      -840.175 9        56.929 9  26084425.281 9 105031171.709 9      -840.175 9        56.929 9  26084425.281 9 103696029.696 9      -829.494 9        59.939 9  26084425.281 9 103696029.696 9      -829.494 9        59.939 9                                                                                                                                                                                                
E33                                                                  24584175.124 9 129190712.242 9      1612.592 9        57.552 9  24584175.124 9 129190712.242 9      1612.592 9        57.552 9  24584174.293 9  96473580.558 9      1204.208 9        57.412 9  24584174.293 9  96473580.558 9      1204.208 9        57.412 9  24584174.293 9  98990282.659 9      1235.623 9        57.412 9  24584174.293 9  98990282.659 9      1235.623 9        57.412 9  24584174.293 9  97731931.609 9      1219.915 9        60.422 9  24584174.293 9  97731931.609 9      1219.915 9        60.422 9                                                                                                                                                                                                
E24                                                                  27426314.447 9 144126255.190 9      1615.624 9        56.653 9  27426314.447 9 144126255.190 9      1615.624 9        56.653 9  27426313.948 9 107626747.050 9      1206.473 9        56.513 9  27426313.948 9 107626747.050 9      1206.473 9        56.513 9  27426313.948 9 110434401.321 9      1237.946 9        56.513 9  27426313.948 9 110434401.321 9      1237.946 9        56.513 9  27426313.948 9 109030574.186 9      1222.209 9        59.524 9  27426313.948 9 109030574.186 9      1222.209 9        59.524 9                                                                                                                                                                                                
Q02  39777430.681 9 209031809.076 9       827.060 9        55.882 9  39777430.681 9 209031809.076 9       827.060 9        57.387 9  39777430.681 8 209031809.076 8       827.060 8        53.382 8  39777430.681 9 162881929.150 9       644.463 9        54.382 9                                                                                                                                
Q03  39196270.108 9 205977789.653 9      -475.509 9        56.009 9  39196270.108 9 205977789.653 9      -475.509 9        57.514 9  39196270.108 8 205977789.653 8      -475.509 8        53.509 8  39196270.108 9 160502173.756 9      -370.527 9        54.509 9                                                                                                                                
Q04  38126152.150 9 200354281.829 9      -244.136 9        56.244 9  38126152.150 9 200354281.829 9      -244.136 9        57.749 9  38126152.150 8 200354281.829 8      -244.136 8        53.744 8  38126152.150 9 156120219.607 9      -190.236 9        54.744 9                                                                                                                                
Q07  37729493.665 9 198269827.418 9        -4.402 9        56.342 9  37729493.665 9 198269827.418 9        -4.402 9        57.847 9  37729493.665 8 198269827.418 8        -4.402 8        53.842 8  37729493.665 9 154495969.417 9        -3.430 9        54.842 9                                                                                                                                
C03  37066653.725 8 193015792.937 8        31.155 8        51.993 8  37066650.607 8 149252042.272 8        24.091 8        51.993 8  37066653.036 8 156841139.442 8        25.316 8        51.993 8                                                                                                                                  37066653.036 9 149252052.050 9        24.091 9        54.993 9
C28  21817666.368 8 113610314.144 8      -518.498 8        52.875 8  21817666.368 8  87850701.632 8      -400.936 8        52.875 8  21817667.567 8  92317691.535 8      -421.322 8        52.875 8  21817667.567 9  85617213.923 9      -390.742 9        55.977 9  21817667.567 9 114652616.906 9      -523.255 9        55.875 9  21817667.567 9  87850706.460 9      -400.936 9        55.875 9
C07  36209793.117 8 188553894.895 8      -227.778 8        52.194 8  36209788.920 8 145801815.326 8      -176.133 8        52.194 8  36209788.621 8 153215465.684 8      -185.089 8        52.194 8  36209788.621 9 142094988.336 9      -171.655 9        55.977 9  36209788.621 9 190283723.511 9      -229.868 9        55.194 9  36209788.621 9 145801814.118 9      -176.133 9        55.194 9
C05  38003803.888 8 197895779.757 8        -1.872 8        51.762 8  38003801.100 8 153025558.966 8        -1.447 8        51.762 8  38003803.888 8 160806531.389 8        -1.521 8        51.762 8                                                                                                                                  38003803.888 9 153025570.192 9        -1.447 9        54.762 9
C08  40838653.247 8 212657584.292 8      1769.812 8        51.122 8  40838649.530 8 164440318.887 8      1368.531 8        51.122 8  40838649.770 8 172801692.049 8      1438.117 8        51.122 8  40838649.770 9 160259633.755 9      1333.738 9        55.977 9  40838649.770 9 214608553.029 9      1786.049 9        54.122 9  40838649.770 9 164440319.853 9      1368.531 9        54.122 9
C10  36436604.943 8 189734963.588 8      -138.104 8        52.141 8  36436604.013 8 146715105.717 8      -106.791 8        52.141 8  36436603.144 8 154175192.159 8      -112.221 8        52.141 8  36436603.144 9 142985057.244 9      -104.076 9        55.977 9  36436603.144 9 191475641.875 9      -139.371 9        55.141 9  36436603.144 9 146715102.216 9      -106.791 9        55.141 9
C09  36317465.800 8 189114574.807 8      -946.582 8        52.160 8  36317464.840 8 146235381.637 8      -731.958 8        52.160 8  36317463.731 8 153671074.315 8      -769.176 8        52.160 8  36317463.731 9 142517528.598 9      -713.348 9        55.977 9  36317463.731 9 190849560.036 9      -955.267 9        55.160 9  36317463.731 9 146235377.171 9      -731.958 9        55.160 9
C04  40366154.927 8 210197161.547 8        25.202 8        51.273 8  40366150.640 8 162537761.653 8        19.488 8        51.273 8  40366153.189 8 170802404.384 8        20.478 8        51.273 8                                                                                                                                  40366153.189 9 162537771.914 9        19.488 9        54.273 9
C06  37328413.293 8 194378843.696 8     -1317.294 8        51.919 8  37328410.175 8 150306039.583 8     -1018.616 8        51.919 8  37328410.715 8 157948721.845 8     -1070.410 8        51.919 8  37328410.715 9 146484701.711 9      -992.719 9        55.977 9  37328410.715 9 196162122.292 9     -1329.380 9        54.919 9  37328410.715 9 150306041.756 9     -1018.616 9        54.919 9
C13  40991397.721 8 213452964.851 8      1496.233 8        51.110 8  40991401.319 8 165055387.044 8      1156.982 8        51.110 8  40991400.539 8 173448030.545 8      1215.812 8        51.110 8  40991400.539 9 160859060.586 9      1127.568 9        55.977 9  40991400.539 9 215411263.741 9      1509.960 9        54.110 9  40991400.539 9 165055383.906 9      1156.982 9        54.110 9
> 2023 01 08 10 15  0.0000000  0 43       0.000000000000
G01  21458059.302 9 112762862.721 9      2235.144 9        55.545 9                                                                  21458059.302 8 112762862.721 8      2235.144 8        52.545 8                                                                  21458060.206 8  87867169.455 8      1741.671 8        51.045 8  21458060.206 8  87867169.455 8      1741.671 8        49.545 8  21458059.302 9  84206033.850 9      1669.101 9        57.645 9
G07  20095531.164 9 105602729.029 9      -135.231 9        56.108 9                                                                  20095531.164 8 105602729.029 8      -135.231 8        53.108 8                                                                  20095528.997 8  82287831.926 8      -105.375 8        51.608 8  20095528.997 8  82287831.926 8      -105.375 8        50.108 8  20095531.164 9  78859180.768 9      -100.984 9        58.208 9
G13  24446543.565 9 128467453.519 9      2013.937 9        54.391 9                                                                  24446543.565 8 128467453.519 8      2013.937 8        51.391 8                                                                  24446541.307 8 100104499.990 8      1569.302 8        49.891 8  24446541.307 8 100104499.990 8      1569.302 8        48.391 8  24446543.565 9  95933488.018 9      1503.914 9        56.491 9
G17  22170400.071 9 116506238.726 9      2340.877 9        55.208 9                                                                  22170400.071 8 116506238.726 8      2340.877 8        52.208 8                                                                  22170397.904 8  90784073.249 8      1824.060 8        50.708 8  22170397.904 8  90784073.249 8      1824.060 8        49.208 8  22170400.071 9  87001412.036 9      1748.057 9        57.308 9
G09  23949609.602 9 125856047.915 9     -3155.944 9        54.644 9                                                                  23949609.602 8 125856047.915 8     -3155.944 8        51.644 8                                                                  23949609.782 8  98069648.465 8     -2459.177 8        50.144 8  23949609.782 8  98069648.465 8     -2459.177 8        48.644 8  23949609.602 9  93983412.404 9     -2356.711 9        56.744 9
G21  21452434.804 9 112733305.783 9      -484.306 9        55.556 9                                                                  21452434.804 8 112733305.783 8      -484.306 8        52.556 8                                                                  21452432.817 8  87844126.241 8      -377.381 8        51.056 8  21452432.817 8  87844126.241 8      -377.381 8        49.556 8  21452434.804 9  84183962.111 9      -361.657 9        57.656 9
G08  22807188.232 9 119852583.096 9     -3104.458 9        55.054 9                                                                  22807188.232 8 119852583.096 8     -3104.458 8        52.054 8                                                                  22807189.225 8  93391627.260 8     -2419.058 8        50.554 8  22807189.225 8  93391627.260 8     -2419.058 8        49.054 8  22807188.232 9  89500305.559 9     -2318.264 9        57.154 9
G30  21126394.885 9 111019954.444 9      1958.058 9        55.773 9                                                                  21126394.885 8 111019954.444 8      1958.058 8        52.773 8                                                                  21126395.608 8  86509058.369 8      1525.759 8        51.273 8  21126395.608 8  86509058.369 8      1525.759 8        49.773 8  21126394.885 9  82904511.435 9      1462.186 9        57.873 9
G14  22291618.629 9 117143246.549 9      1703.178 9        55.247 9                                                                  22291618.629 8 117143246.549 8      1703.178 8        52.247 8                                                                  22291617.094 8  91280445.569 8      1327.152 8        50.747 8  22291617.094 8  91280445.569 8      1327.152 8        49.247 8  22291618.629 9  87477099.696 9      1271.854 9        57.347 9
R02  23768534.772 8 126833455.905 8     -3112.729 8        53.312 8  23768534.772 8 126833455.905 8     -3112.729 8        53.312 8  23768534.772 7  98648243.481 7     -2421.011 7        47.312 7  23768534.772 7  98648243.481 7     -2421.011 7        47.312 7                                                                                                                                                                                                                                                                                                                                                                                                                                                                
R11  22332739.611 8 119339389.306 8     -2069.783 8        53.850 8  22332739.611 8 119339389.306 8     -2069.783 8        53.850 8  22332739.611 7  92819525.015 7     -1609.831 7        47.850 7  22332739.611 7  92819525.015 7     -1609.831 7        47.850 7                                                                                                                                                                                                                                                                                                                                                                                                                                                                
R22  19851902.884 9 105970805.757 9     -1332.920 9        54.865 9  19851902.884 9 105970805.757 9     -1332.920 9        54.865 9  19851902.884 8  82421737.811 8     -1036.716 8        48.865 8  19851902.884 8  82421737.811 8     -1036.716 8        48.865 8                                                                                                                                                                                                                                                                                                                                                                                                                                                                
R12  20051769.583 9 107112953.958 9       610.023 9        54.785 9  20051769.583 9 107112953.958 9       610.023 9        54.785 9  20051769.583 8  83310075.301 8       474.462 8        48.785 8  20051769.583 8  83310075.301 8       474.462 8        48.785 8                                                                                                                                                                                                                                                                                                                                                                                                                                                                
R21  23072749.274 8 123466941.994 8     -3934.540 8        53.610 8  23072749.274 8 123466941.994 8     -3934.540 8        53.610 8  23072749.274 7  96029843.773 7     -3060.198 7        47.610 7  23072749.274 7  96029843.773 7     -3060.198 7        47.610 7                                                                                                                                                                                                                                                                                                                                                                                                                                                                
R03  23472940.136 8 125652486.368 8     -1375.088 8        53.411 8  23472940.136 8 125652486.368 8     -1375.088 8        53.411 8  23472940.136 7  97729711.619 7     -1069.513 7        47.411 7  23472940.136 7  97729711.619 7     -1069.513 7        47.411 7                                                                                                                                                                                                                                                                                                                                                                                                                                                                
R23  20432982.266 9 109302677.145 9      3223.128 9        54.632 9  20432982.266 9 109302677.145 9      3223.128 9        54.632 9  20432982.266 8  85013193.335 8      2506.877 8        48.632 8  20432982.266 8  85013193.335 8      2506.877 8        48.632 8                                                                                                                                                                                                                                                                                                                                                                                                                                                                
R13  21714770.642 9 115955663.739 9      2691.317 9        54.099 9  21714770.642 9 115955663.739 9      2691.317 9        54.099 9  21714770.642 8  90187738.464 8      2093.247 8        48.099 8  21714770.642 8  90187738.464 8      2093.247 8        48.099 8                                                                                                                                                                                                                                                                                                                                                                                                                                                                
E05                                                                  27965474.260 9 146959559.132 9       937.457 9        56.394 9  27965474.260 9 146959559.132 9       937.457 9        56.394 9  27965475.201 9 109742531.617 9       700.049 9        56.254 9  27965475.201 9 109742531.617 9       700.049 9        56.254 9  27965475.201 9 112605380.268 9       718.312 9        56.254 9  27965475.201 9 112605380.268 9       718.312 9        56.254 9  27965475.201 9 111173955.943 9       709.180 9        59.265 9  27965475.201 9 111173955.943 9       709.180 9        59.265 9                                                                                                                                                                                                
E12                                                                  26778152.376 9 140720140.518 9      3061.203 9        56.798 9  26778152.376 9 140720140.518 9      3061.203 9        56.798 9  26778149.940 9 105083212.255 9      2285.963 9        56.658 9  26778149.940 9 105083212.255 9      2285.963 9        56.658 9  26778149.940 9 107824513.444 9      2345.597 9        56.658 9  26778149.940 9 107824513.444 9      2345.597 9        56.658 9  26778149.940 9 106453862.849 9      2315.780 9        59.668 9  26778149.940 9 106453862.849 9      2315.780 9        59.668 9                                                                                                                                                                                                
E14                                                                  20928148.245 9 109978161.320 9     -2332.384 9        58.373 9  20928148.245 9 109978161.320 9     -2332.384 9        58.373 9  20928147.470 9  82126545.996 9     -1741.715 9        58.233 9  20928147.470 9  82126545.996 9     -1741.715 9        58.233 9  20928147.470 9  84268977.630 9     -1787.151 9        58.233 9  20928147.470 9  84268977.630 9     -1787.151 9        58.233 9  20928147.470 9  83197761.813 9     -1764.433 9        61.244 9  20928147.470 9  83197761.813 9     -1764.433 9        61.244 9                                                                                                                                                                                                
E31                                                                  24358472.490 9 128004636.897 9       677.078 9        57.639 9  24358472.490 9 128004636.897 9       677.078 9        57.639 9  24358473.709 9  95587882.983 9       505.610 9        57.499 9  24358473.709 9  95587882.983 9       505.610 9        57.499 9  24358473.709 9  98081479.930 9       518.800 9        57.499 9  24358473.709 9  98081479.930 9       518.800 9        57.499 9  24358473.709 9  96834681.456 9       512.205 9        60.509 9  24358473.709 9  96834681.456 9       512.205 9        60.509 9                                                                                                                                                                                                
E26                                                                  26285428.146 9 138130857.213 9     -1028.908 9        57.108 9  26285428.146 9 138130857.213 9     -1028.908 9        57.108 9  26285427.094 9 103149661.972 9      -768.340 9        56.968 9  26285427.094 9 103149661.972 9      -768.340 9        56.968 9  26285427.094 9 105840522.719 9      -788.384 9        56.968 9  26285427.094 9 105840522.719 9      -788.384 9        56.968 9  26285427.094 9 104495092.346 9      -778.362 9        59.979 9  26285427.094 9 104495092.346 9      -778.362 9        59.979 9                                                                                                                                                                                                
E04                                                                  26597062.652 9 139768507.596 9     -2607.618 9        56.823 9  26597062.652 9 139768507.596 9     -2607.618 9        56.823 9  26597061.988 9 104372584.234 9     -1947.247 9        56.683 9  26597061.988 9 104372584.234 9     -1947.247 9        56.683 9  26597061.988 9 107095347.301 9     -1998.045 9        56.683 9  26597061.988 9 107095347.301 9     -1998.045 9        56.683 9  26597061.988 9 105733965.767 9     -1972.646 9        59.693 9  26597061.988 9 105733965.767 9     -1972.646 9        59.693 9                                                                                                                                                                                                
E01                                                                  25335593.413 9 133139442.004 9      -954.241 9        57.303 9  25335593.413 9 133139442.004 9      -954.241 9        57.303 9  25335593.469 9  99422310.804 9      -712.583 9        57.163 9  25335593.469 9  99422310.804 9      -712.583 9        57.163 9  25335593.469 9 102015936.304 9      -731.172 9        57.163 9  25335593.469 9 102015936.304 9      -731.172 9        57.163 9  25335593.469 9 100719123.554 9      -721.877 9        60.173 9  25335593.469 9 100719123.554 9      -721.877 9        60.173 9                                                                                                                                                                                                
E09                                                                  26150181.834 9 137420133.045 9     -1206.410 9        57.046 9  26150181.834 9 137420133.045 9     -1206.410 9        57.046 9  26150182.387 9 102618932.694 9      -900.891 9        56.906 9  26150182.387 9 102618932.694 9      -900.891 9        56.906 9  26150182.387 9 105295948.329 9      -924.392 9        56.906 9  26150182.387 9 105295948.329 9      -924.392 9        56.906 9  26150182.387 9 103957440.511 9      -912.641 9        59.917 9  26150182.387 9 103957440.511 9      -912.641 9        59.917 9                                                                                                                                                                                                
E33                                                                  24495559.607 9 128725034.559 9      1491.132 9        57.583 9  24495559.607 9 128725034.559 9      1491.132 9        57.583 9  24495558.777 9  96125834.236 9      1113.508 9        57.443 9  24495558.777 9  96125834.236 9      1113.508 9        57.443 9  24495558.777 9  98633464.694 9      1142.556 9        57.443 9  24495558.777 9  98633464.694 9      1142.556 9        57.443 9  24495558.777 9  97379649.465 9      1128.032 9        60.454 9  24495558.777 9  97379649.465 9      1128.032 9        60.454 9                                                                                                                                                                                                
E24                                                                  27333773.319 9 143639948.282 9      1626.570 9        56.683 9  27333773.319 9 143639948.282 9      1626.570 9        56.683 9  27333772.821 9 107263595.787 9      1214.646 9        56.543 9  27333772.821 9 107263595.787 9      1214.646 9        56.543 9  27333772.821 9 110061776.547 9      1246.333 9        56.543 9  27333772.821 9 110061776.547 9      1246.333 9        56.543 9  27333772.821 9 108662686.167 9      1230.489 9        59.553 9  27333772.821 9 108662686.167 9      1230.489 9        59.553 9                                                                                                                                                                                                
Q02  39729719.010 9 208781082.553 9       844.302 9        55.893 9  39729719.010 9 208781082.553 9       844.302 9        57.398 9  39729719.010 8 208781082.553 8       844.302 8        53.393 8  39729719.010 9 162686557.834 9       657.898 9        54.393 9                                                                                                                                
Q03  39223695.257 9 206121909.786 9      -485.173 9        56.003 9  39223695.257 9 206121909.786 9      -485.173 9        57.508 9  39223695.257 8 206121909.786 8      -485.173 8        53.503 8  39223695.257 9 160614475.158 9      -378.057 9        54.503 9                                                                                                                                
Q04  38139759.469 9 200425788.774 9      -232.594 9        56.241 9  38139759.469 9 200425788.774 9      -232.594 9        57.746 9  38139759.469 8 200425788.774 8      -232.594 8        53.741 8  38139759.469 9 156175939.305 9      -181.242 9        54.741 9                                                                                                                                
Q07  37729743.711 9 198271141.422 9        -4.357 9        56.342 9  37729743.711 9 198271141.422 9        -4.357 9        57.847 9  37729743.711 8 198271141.422 8        -4.357 8        53.842 8  37729743.711 9 154496993.316 9        -3.395 9        54.842 9                                                                                                                                
C03  37064839.371 8 193006345.119 8        31.827 8        51.994 8  37064836.253 8 149244736.620 8        24.611 8        51.994 8  37064838.682 8 156833462.317 8        25.862 8        51.994 8                                                                                                                                  37064838.682 9 149244746.398 9        24.611 9        54.994 9
C28  21851985.970 8 113789025.318 8      -672.342 8        52.862 8  21851985.970 8  87988892.447 8      -519.898 8        52.862 8  21851987.169 8  92462909.002 8      -546.333 8        52.862 8  21851987.169 9  85751891.413 9      -506.680 9        55.977 9  21851987.169 9 114832967.631 9      -678.510 9        55.862 9  21851987.169 9  87988897.276 9      -519.898 9        55.862 9
C07  36222652.220 8 188620855.615 8      -218.495 8        52.191 8  36222648.023 8 145853593.602 8      -168.954 8        52.191 8  36222647.723 8 153269876.754 8      -177.545 8        52.191 8  36222647.723 9 142145450.215 9      -164.659 9        55.977 9  36222647.723 9 190351298.549 9      -220.500 9        55.191 9  36222647.723 9 145853592.395 9      -168.954 9        55.191 9
C05  38003886.736 8 197896211.171 8        -1.004 8        51.762 8  38003883.948 8 153025892.563 8        -0.776 8        51.762 8  38003886.736 8 160806881.948 8        -0.816 8        51.762 8                                                                                                                                  38003886.736 9 153025903.789 9        -0.776 9        54.762 9
C08  40735734.945 8 212121661.685 8      1802.650 8        51.144 8  40735731.228 8 164025909.532 8      1393.924 8        51.144 8  40735731.468 8 172366211.032 8      1464.801 8        51.144 8  40735731.468 9 159855760.231 9      1358.485 9        55.977 9  40735731.468 9 214067713.701 9      1819.189 9        54.144 9  40735731.468 9 164025910.498 9      1393.924 9        54.144 9
C10  36444302.352 8 189775046.018 8      -128.964 8        52.140 8  36444301.423 8 146746099.994 8       -99.723 8        52.140 8  36444300.553 8 154207762.417 8      -104.794 8        52.140 8  36444300.553 9 143015263.532 9       -97.188 9        55.977 9  36444300.553 9 191516092.034 9      -130.147 9        55.140 9  36444300.553 9 146746096.494 9       -99.723 9        55.140 9
C09  36373341.195 8 189405532.655 8      -993.034 8        52.147 8  36373340.236 8 146460368.701 8      -767.877 8        52.147 8  36373339.127 8 153907501.399 8      -806.922 8        52.147 8  36373339.127 9 142736795.653 9      -748.355 9        55.977 9  36373339.127 9 191143187.222 9     -1002.145 9        55.147 9  36373339.127 9 146460364.235 9      -767.877 9        55.147 9
C04  40364699.760 8 210189584.109 8        25.313 8        51.274 8  40364695.473 8 162531902.298 8        19.573 8        51.274 8  40364698.021 8 170796247.096 8        20.568 8        51.274 8                                                                                                                                  40364698.021 9 162531912.559 9        19.573 9        54.274 9
C06  37405307.717 8 194779253.138 8     -1351.900 8        51.901 8  37405304.599 8 150615661.563 8     -1045.375 8        51.901 8  37405305.138 8 158274087.316 8     -1098.530 8        51.901 8  37405305.138 9 146786451.946 9     -1018.798 9        55.977 9  37405305.138 9 196566205.215 9     -1364.303 9        54.901 9  37405305.138 9 150615663.736 9     -1045.375 9        54.901 9
C13  40904138.153 8 212998581.382 8      1532.675 8        51.128 8  40904141.751 8 164704028.923 8      1185.162 8        51.128 8  40904140.972 8 173078806.756 8      1245.424 8        51.128 8  40904140.972 9 160516635.298 9      1155.031 9        55.977 9  40904140.972 9 214952711.617 9      1546.737 9        54.128 9  40904140.972 9 164704025.784 9      1185.162 9        54.128 9
> 2023 01 08 10 20  0.0000000  0 44       0.000000000000
G01  21335056.318 9 112116477.675 9      2072.427 9        55.594 9                                                                  21335056.318 8 112116477.675 8      2072.427 8        52.594 8                                                                  21335057.221 8  87363492.795 8      1614.878 8        51.094 8  21335057.221 8  87363492.795 8      1614.878 8        49.594 8  21335056.318 9  83723343.718 9      1547.591 9        57.694 9
G07  20108310.753 9 105669886.219 9      -312.930 9        56.102 9                                                                  20108310.753 8 105669886.219 8      -312.930 8        53.102 8                                                                  20108308.585 8  82340162.204 8      -243.841 8        51.602 8  20108308.585 8  82340162.204 8      -243.841 8        50.102 8  20108310.753 9  78909330.618 9      -233.681 9        58.202 9
G13  24335920.914 9 127886127.562 9      1860.640 9        54.430 9                                                                  24335920.914 8 127886127.562 8      1860.640 8        51.430 8                                                                  24335918.656 8  99651518.725 8      1449.850 8        49.930 8  24335918.656 8  99651518.725 8      1449.850 8        48.430 8  24335920.914 9  95499380.971 9      1389.439 9        56.530 9
G17  22040122.576 9 115821625.866 9      2222.802 9        55.258 9                                                                  22040122.576 8 115821625.866 8      2222.802 8        52.258 8                                                                  22040120.408 8  90250608.682 8      1732.054 8        50.758 8  22040120.408 8  90250608.682 8      1732.054 8        49.258 8  22040122.576 9  86490175.160 9      1659.885 9        57.358 9
G09  24129579.840 9 126801797.902 9     -3147.478 9        54.579 9                                                                  24129579.840 8 126801797.902 8     -3147.478 8        51.579 8                                                                  24129580.021 8  98806596.507 8     -2452.580 8        50.079 8  24129580.021 8  98806596.507 8     -2452.580 8        48.579 8  24129579.840 9  94689654.277 9     -2350.389 9        56.679 9
G21  21485660.132 9 112907906.060 9      -679.466 9        55.542 9                                                                  21485660.132 8 112907906.060 8      -679.466 8        52.542 8                                                                  21485658.145 8  87980178.404 8      -529.454 8        51.042 8  21485658.145 8  87980178.404 8      -529.454 8        49.542 8  21485660.132 9  84314345.434 9      -507.394 9        57.642 9
G08  22985274.314 9 120788431.777 9     -3133.333 9        54.987 9                                                                  22985274.314 8 120788431.777 8     -3133.333 8        51.987 8                                                                  22985275.308 8  94120859.998 8     -2441.558 8        50.487 8  22985275.308 8  94120859.998 8     -2441.558 8        48.987 8  22985274.314 9  90199153.600 9     -2339.826 9        57.087 9
G30  21018340.072 9 110452122.568 9      1826.179 9        55.818 9                                                                  21018340.072 8 110452122.568 8      1826.179 8        52.818 8                                                                  21018340.794 8  86066591.973 8      1422.996 8        51.318 8  21018340.794 8  86066591.973 8      1422.996 8        49.818 8  21018340.072 9  82480481.139 9      1363.705 9        57.918 9
G14  22194998.798 9 116635505.911 9      1681.699 9        55.285 9                                                                  22194998.798 8 116635505.911 8      1681.699 8        52.285 8                                                                  22194997.263 8  90884803.513 8      1310.414 8        50.785 8  22194997.263 8  90884803.513 8      1310.414 8        49.285 8  22194998.798 9  87097942.725 9      1255.814 9        57.385 9
R02  23943935.692 8 127769428.820 8     -3124.722 8        53.248 8  23943935.692 8 127769428.820 8     -3124.722 8        53.248 8  23943935.692 7  99376222.415 7     -2430.339 7        47.248 7  23943935.692 7  99376222.415 7     -2430.339 7        47.248 7                                                                                                                                                                                                                                                                                                                                                                                                                                                                
R11  22451754.423 8 119975368.378 8     -2170.277 8        53.804 8  22451754.423 8 119975368.378 8     -2170.277 8        53.804 8  22451754.423 7  93314175.405 7     -1687.993 7        47.804 7  22451754.423 7  93314175.405 7     -1687.993 7        47.804 7                                                                                                                                                                                                                                                                                                                                                                                                                                                                
R22  19933859.997 9 106408298.389 9     -1582.338 9        54.829 9  19933859.997 9 106408298.389 9     -1582.338 9        54.829 9  19933859.997 8  82762009.858 8     -1230.707 8        48.829 8  19933859.997 8  82762009.858 8     -1230.707 8        48.829 8                                                                                                                                                                                                                                                                                                                                                                                                                                                                
R12  20020244.994 9 106944555.266 9       511.435 9        54.798 9  20020244.994 9 106944555.266 9       511.435 9        54.798 9  20020244.994 8  83179098.541 8       397.783 8        48.798 8  20020244.994 8  83179098.541 8       397.783 8        48.798 8                                                                                                                                                                                                                                                                                                                                                                                                                                                                
R21  23295907.442 8 124661106.431 8     -4024.267 8        53.526 8  23295907.442 8 124661106.431 8     -4024.267 8        53.526 8  23295907.442 7  96958638.335 7     -3129.986 7        47.526 7  23295907.442 7  96958638.335 7     -3129.986 7        47.526 7                                                                                                                                                                                                                                                                                                                                                                                                                                                                
R03  23554909.046 8 126091272.361 8     -1548.364 8        53.381 8  23554909.046 8 126091272.361 8     -1548.364 8        53.381 8  23554909.046 7  98070989.614 7     -1204.283 7        47.381 7  23554909.046 7  98070989.614 7     -1204.283 7        47.381 7                                                                                                                                                                                                                                                                                                                                                                                                                                                                
R23  20257587.573 9 108364433.809 9      3029.865 9        54.707 9  20257587.573 9 108364433.809 9      3029.865 9        54.707 9  20257587.573 8  84283448.518 8      2356.562 8        48.707 8  20257587.573 8  84283448.518 8      2356.562 8        48.707 8                                                                                                                                                                                                                                                                                                                                                                                                                                                                
R13  21563758.123 9 115149265.313 9      2683.643 9        54.160 9  21563758.123 9 115149265.313 9      2683.643 9        54.160 9  21563758.123 8  89560539.688 8      2087.278 8        48.160 8  21563758.123 8  89560539.688 8      2087.278 8        48.160 8                                                                                                                                                                                                                                                                                                                                                                                                                                                                
R24  24011876.589 8 128402295.087 8      4445.339 8        53.207 8  24011876.589 8 128402295.087 8      4445.339 8        53.207 8  24011876.589 7  99868451.734 7      3457.486 7        47.207 7  24011876.589 7  99868451.734 7      3457.486 7        47.207 7                                                                                                                                                                                                                                                                                                                                                                                                                                                                
E05                                                                  27915484.326 9 146696860.255 9       813.614 9        56.410 9  27915484.326 9 146696860.255 9       813.614 9        56.410 9  27915485.267 9 109546360.378 9       607.569 9        56.270 9  27915485.267 9 109546360.378 9       607.569 9        56.270 9  27915485.267 9 112404091.518 9       623.419 9        56.270 9  27915485.267 9 112404091.518 9       623.419 9        56.270 9  27915485.267 9 110975225.948 9       615.494 9        59.280 9  27915485.267 9 110975225.948 9       615.494 9        59.280 9                                                                                                                                                                                                
E12                                                                  26603807.387 9 139803951.418 9      3045.630 9        56.855 9  26603807.387 9 139803951.418 9      3045.630 9        56.855 9  26603804.951 9 104399045.070 9      2274.334 9        56.715 9  26603804.951 9 104399045.070 9      2274.334 9        56.715 9  26603804.951 9 107122498.419 9      2333.664 9        56.715 9  26603804.951 9 107122498.419 9      2333.664 9        56.715 9  26603804.951 9 105760771.745 9      2303.999 9        59.725 9  26603804.951 9 105760771.745 9      2303.999 9        59.725 9                                                                                                                                                                                                
E14                                                                  21068496.810 9 110715698.008 9     -2583.149 9        58.315 9  21068496.810 9 110715698.008 9     -2583.149 9        58.315 9  21068496.035 9  82677303.912 9     -1928.975 9        58.175 9  21068496.035 9  82677303.912 9     -1928.975 9        58.175 9  21068496.035 9  84834103.144 9     -1979.296 9        58.175 9  21068496.035 9  84834103.144 9     -1979.296 9        58.175 9  21068496.035 9  83755703.528 9     -1954.135 9        61.186 9  21068496.035 9  83755703.528 9     -1954.135 9        61.186 9                                                                                                                                                                                                
E31                                                                  24320047.034 9 127802709.760 9       668.940 9        57.652 9  24320047.034 9 127802709.760 9       668.940 9        57.652 9  24320048.252 9  95437093.237 9       499.533 9        57.512 9  24320048.252 9  95437093.237 9       499.533 9        57.512 9  24320048.252 9  97926756.539 9       512.565 9        57.512 9  24320048.252 9  97926756.539 9       512.565 9        57.512 9  24320048.252 9  96681924.888 9       506.049 9        60.523 9  24320048.252 9  96681924.888 9       506.049 9        60.523 9                                                                                                                                                                                                
E26                                                                  26347984.077 9 138459590.852 9     -1162.161 9        57.087 9  26347984.077 9 138459590.852 9     -1162.161 9        57.087 9  26347983.025 9 103395144.885 9      -867.847 9        56.947 9  26347983.025 9 103395144.885 9      -867.847 9        56.947 9  26347983.025 9 106092409.534 9      -890.487 9        56.947 9  26347983.025 9 106092409.534 9      -890.487 9        56.947 9  26347983.025 9 104743777.209 9      -879.167 9        59.958 9  26347983.025 9 104743777.209 9      -879.167 9        59.958 9                                                                                                                                                                                                
E04                                                                  26746027.483 9 140551323.064 9     -2610.041 9        56.774 9  26746027.483 9 140551323.064 9     -2610.041 9        56.774 9  26746026.818 9 104957154.226 9     -1949.056 9        56.635 9  26746026.818 9 104957154.226 9     -1949.056 9        56.635 9  26746026.818 9 107695166.945 9     -1999.901 9        56.635 9  26746026.818 9 107695166.945 9     -1999.901 9        56.635 9  26746026.818 9 106326160.586 9     -1974.479 9        59.645 9  26746026.818 9 106326160.586 9     -1974.479 9        59.645 9                                                                                                                                                                                                
E01                                                                  25390601.149 9 133428509.605 9      -973.202 9        57.284 9  25390601.149 9 133428509.605 9      -973.202 9        57.284 9  25390601.204 9  99638172.974 9      -726.742 9        57.144 9  25390601.204 9  99638172.974 9      -726.742 9        57.144 9  25390601.204 9 102237429.660 9      -745.700 9        57.144 9  25390601.204 9 102237429.660 9      -745.700 9        57.144 9  25390601.204 9 100937801.317 9      -736.221 9        60.154 9  25390601.204 9 100937801.317 9      -736.221 9        60.154 9                                                                                                                                                                                                
E09                                                                  26222074.339 9 137797930.713 9     -1311.389 9        57.022 9  26222074.339 9 137797930.713 9     -1311.389 9        57.022 9  26222074.893 9 102901054.328 9      -979.284 9        56.882 9  26222074.893 9 102901054.328 9      -979.284 9        56.882 9  26222074.893 9 105585429.659 9     -1004.831 9        56.882 9  26222074.893 9 105585429.659 9     -1004.831 9        56.882 9  26222074.893 9 104243241.994 9      -992.057 9        59.893 9  26222074.893 9 104243241.994 9      -992.057 9        59.893 9                                                                                                                                                                                                
E33                                                                  24414010.589 9 128296491.576 9      1365.094 9        57.612 9  24414010.589 9 128296491.576 9      1365.094 9        57.612 9  24414009.759 9  95805818.372 9      1019.388 9        57.472 9  24414009.759 9  95805818.372 9      1019.388 9        57.472 9  24414009.759 9  98305100.591 9      1045.981 9        57.472 9  24414009.759 9  98305100.591 9      1045.981 9        57.472 9  24414009.759 9  97055459.482 9      1032.684 9        60.483 9  24414009.759 9  97055459.482 9      1032.684 9        60.483 9                                                                                                                                                                                                
E24                                                                  27240582.701 9 143150228.278 9      1638.354 9        56.713 9  27240582.701 9 143150228.278 9      1638.354 9        56.713 9  27240582.203 9 106897895.785 9      1223.446 9        56.573 9  27240582.203 9 106897895.785 9      1223.446 9        56.573 9  27240582.203 9 109686536.544 9      1255.362 9        56.573 9  27240582.203 9 109686536.544 9      1255.362 9        56.573 9  27240582.203 9 108292216.164 9      1239.404 9        59.583 9  27240582.203 9 108292216.164 9      1239.404 9        59.583 9                                                                                                                                                                                                
Q02  39681048.930 9 208525319.559 9       860.632 9        55.904 9  39681048.930 9 208525319.559 9       860.632 9        57.408 9  39681048.930 8 208525319.559 8       860.632 8        53.404 8  39681048.930 9 162487261.994 9       670.622 9        54.404 9                                                                                                                                
Q03  39251651.484 9 206268820.746 9      -494.111 9        55.997 9  39251651.484 9 206268820.746 9      -494.111 9        57.501 9  39251651.484 8 206268820.746 8      -494.111 8        53.497 8  39251651.484 9 160728951.231 9      -385.021 9        54.497 9                                                                                                                                
Q04  38152711.099 9 200493850.048 9      -221.171 9        56.238 9  38152711.099 9 200493850.048 9      -221.171 9        57.743 9  38152711.099 8 200493850.048 8      -221.171 8        53.738 8  38152711.099 9 156228974.063 9      -172.341 9        54.738 9                                                                                                                                
Q07  37729991.114 9 198272441.532 9        -4.310 9        56.342 9  37729991.114 9 198272441.532 9        -4.310 9        57.847 9  37729991.114 8 198272441.532 8        -4.310 8        53.842 8  37729991.114 9 154498006.388 9        -3.358 9        54.842 9                                                                                                                                
C03  37062986.760 8 192996698.084 8        32.483 8        51.994 8  37062983.642 8 149237276.921 8        25.118 8        51.994 8  37062986.070 8 156825623.310 8        26.396 8        51.994 8                                                                                                                                  37062986.070 9 149237286.698 9        25.118 9        54.994 9
C01  38731141.714 8 201683218.684 8        30.146 8        51.553 8  38731140.125 8 155954251.825 8        23.310 8        51.553 8  38731143.123 8 163884141.721 8        24.496 8        51.553 8                                                                                                                                  38731143.123 9 155954263.896 9        23.310 9        54.553 9
C07  36234954.267 8 188684915.603 8      -208.449 8        52.188 8  36234950.070 8 145903128.848 8      -161.186 8        52.188 8  36234949.770 8 153321930.741 8      -169.382 8        52.188 8  36234949.770 9 142193726.091 9      -157.088 9        55.977 9  36234949.770 9 190415946.243 9      -210.361 9        55.188 9  36234949.770 9 145903127.641 9      -161.186 9        55.188 9
C27  22461549.720 8 116963183.728 8      2094.311 8        52.620 8  22461549.720 8  90443353.079 8      1619.454 8        52.620 8  22461551.009 8  95042173.097 8      1701.799 8        52.620 8  22461551.009 9  88143950.856 9      1578.282 9        55.977 9  22461551.009 9 118036247.234 9      2113.525 9        55.620 9  22461551.009 9  90443358.270 9      1619.454 9        55.620 9
C16  37799717.662 8 196833049.226 8     -1402.908 8        51.821 8  37799719.791 8 152203808.104 8     -1084.817 8        51.821 8  37799718.412 8 159942978.952 8     -1139.977 8        51.821 8  37799718.412 9 148334214.350 9     -1057.237 9        55.977 9  37799718.412 9 198638860.956 9     -1415.778 9        54.821 9  37799718.412 9 152203802.551 9     -1084.817 9        54.821 9
C10  36451448.039 8 189812255.489 8      -118.958 8        52.138 8  36451447.110 8 146774872.717 8       -91.986 8        52.138 8  36451446.241 8 154237998.159 8       -96.663 8        52.138 8  36451446.241 9 143043304.745 9       -89.648 9        55.977 9  36451446.241 9 191553642.875 9      -120.050 9        55.138 9  36451446.241 9 146774869.216 9       -91.986 9        55.138 9
C09  36431874.179 8 189710329.263 8     -1038.825 8        52.133 8  36431873.220 8 146696056.773 8      -803.285 8        52.133 8  36431872.111 8 154155173.610 8      -844.130 8        52.133 8  36431872.111 9 142966491.655 9      -782.863 9        55.977 9  36431872.111 9 191450780.129 9     -1048.356 9        55.133 9  36431872.111 9 146696052.307 9      -803.285 9        55.133 9
C04  40363238.580 8 210181975.360 8        25.410 8        51.274 8  40363234.293 8 162526018.730 8        19.649 8        51.274 8  40363236.841 8 170790064.363 8        20.648 8        51.274 8                                                                                                                                  40363236.841 9 162526028.991 9        19.649 9        54.274 9
C06  37484160.247 8 195189858.957 8     -1385.258 8        51.883 8  37484157.129 8 150933168.028 8     -1071.169 8        51.883 8  37484157.669 8 158607738.178 8     -1125.636 8        51.883 8  37484157.669 9 147095886.213 9     -1043.936 9        55.977 9  37484157.669 9 196980578.059 9     -1397.967 9        54.883 9  37484157.669 9 150933170.201 9     -1071.169 9        54.883 9
C30  26533721.267 8 138168049.585 8      3262.424 8        51.182 8  26533721.267 8 106840300.466 8      2522.713 8        51.182 8  26533724.175 8 112272870.421 8      2650.987 8        51.182 8  26533724.175 9 104124033.052 9      2458.576 9        55.977 9  26533724.175 9 139435661.652 9      3292.354 9        54.182 9  26533724.175 9 106840312.175 9      2522.713 9        54.182 9
> 2023 01 08 10 25  0.0000000  0 45       0.000000000000
G01  21221622.593 9 111520379.429 9      1899.994 9        55.640 9                                                                  21221622.593 8 111520379.429 8      1899.994 8        52.640 8                                                                  21221623.497 8  86899000.656 8      1480.515 8        51.140 8  21221623.497 8  86899000.656 8      1480.515 8        49.640 8  21221622.593 9  83278205.418 9      1418.827 9        57.740 9
G07  20131304.391 9 105790718.603 9      -492.944 9        56.092 9                                                                  20131304.391 8 105790718.603 8      -492.944 8        53.092 8                                                                  20131302.223 8  82434317.308 8      -384.112 8        51.592 8  20131302.223 8  82434317.308 8      -384.112 8        50.092 8  20131304.391 9  78999562.593 9      -368.107 9        58.192 9
G13  24234202.587 9 127351594.147 9      1702.086 9        54.467 9                                                                  24234202.587 8 127351594.147 8      1702.086 8        51.467 8                                                                  24234200.329 8  99234999.180 8      1326.301 8        49.967 8  24234200.329 8  99234999.180 8      1326.301 8        48.467 8  24234202.587 9  95100216.408 9      1271.038 9        56.567 9
G17  21916650.166 9 115172773.977 9      2102.551 9        55.307 9                                                                  21916650.166 8 115172773.977 8      2102.551 8        52.307 8                                                                  21916647.999 8  89745009.807 8      1638.352 8        50.807 8  21916647.999 8  89745009.807 8      1638.352 8        49.307 8  21916650.166 9  86005642.905 9      1570.087 9        57.407 9
G09  24308799.291 9 127743602.470 9     -3129.684 9        54.515 9                                                                  24308799.291 8 127743602.470 8     -3129.684 8        51.515 8                                                                  24308799.471 8  99540470.197 8     -2438.715 8        50.015 8  24308799.471 8  99540470.197 8     -2438.715 8        48.515 8  24308799.291 9  95392949.897 9     -2337.102 9        56.615 9
G21  21529978.804 9 113140802.253 9      -872.799 9        55.525 9                                                                  21529978.804 8 113140802.253 8      -872.799 8        52.525 8                                                                  21529976.817 8  88161655.957 8      -680.103 8        51.025 8  21529976.817 8  88161655.957 8      -680.103 8        49.525 8  21529978.804 9  84488261.422 9      -651.765 9        57.625 9
G08  23164805.502 9 121731874.536 9     -3155.142 9        54.919 9                                                                  23164805.502 8 121731874.536 8     -3155.142 8        51.919 8                                                                  23164806.496 8  94856010.200 8     -2458.552 8        50.419 8  23164806.496 8  94856010.200 8     -2458.552 8        48.919 8  23164805.502 9  90903672.543 9     -2356.112 9        57.019 9
G30  20918035.692 9 109925019.493 9      1686.574 9        55.860 9                                                                  20918035.692 8 109925019.493 8      1686.574 8        52.860 8                                                                  20918036.414 8  85655862.304 8      1314.213 8        51.360 8  20918036.414 8  85655862.304 8      1314.213 8        49.860 8  20918035.692 9  82086865.206 9      1259.455 9        57.960 9
G14  22099617.311 9 116134272.813 9      1659.756 9        55.323 9                                                                  22099617.311 8 116134272.813 8      1659.756 8        52.323 8                                                                  22099615.776 8  90494232.269 8      1293.316 8        50.823 8  22099615.776 8  90494232.269 8      1293.316 8        49.323 8  22099617.311 9  86723645.282 9      1239.428 9        57.423 9
G19  25254571.779 9 132713670.441 9      3255.588 9        54.130 9                                                                  25254571.779 8 132713670.441 8      3255.588 8        51.130 8                                                                  25254568.798 8 103413237.490 8      2536.822 8        49.630 8  25254568.798 8 103413237.490 8      2536.822 8        48.130 8  25254571.779 9  99104364.290 9      2431.121 9        56.230 9
R11  22576439.606 8 120641648.192 8     -2271.713 8        53.756 8  22576439.606 8 120641648.192 8     -2271.713 8        53.756 8  22576439.606 7  93832393.038 7     -1766.888 7        47.756 7  22576439.606 7  93832393.038 7     -1766.888 7        47.756 7                                                                                                                                                                                                                                                                                                                                                                                                                                                                
R22  20029594.121 9 106919333.650 9     -1823.018 9        54.788 9  20029594.121 9 106919333.650 9     -1823.018 9        54.788 9  20029594.121 8  83159481.727 8     -1417.903 8        48.788 8  20029594.121 8  83159481.727 8     -1417.903 8        48.788 8                                                                                                                                                                                                                                                                                                                                                                                                                                                                
R12  19994459.384 9 106806813.163 9       405.648 9        54.810 9  19994459.384 9 106806813.163 9       405.648 9        54.810 9  19994459.384 8  83071965.794 8       315.504 8        48.810 8  19994459.384 8  83071965.794 8       315.504 8        48.810 8                                                                                                                                                                                                                                                                                                                                                                                                                                                                
R21  23523712.049 8 125880134.900 8     -4100.338 8        53.441 8  23523712.049 8 125880134.900 8     -4100.338 8        53.441 8  23523712.049 7  97906771.589 7     -3189.151 7        47.441 7  23523712.049 7  97906771.589 7     -3189.151 7        47.441 7                                                                                                                                                                                                                                                                                                                                                                                                                                                                
R03  23646281.853 8 126580398.149 8     -1710.567 8        53.347 8  23646281.853 8 126580398.149 8     -1710.567 8        53.347 8  23646281.853 7  98451420.782 7     -1330.441 7        47.347 7  23646281.853 7  98451420.782 7     -1330.441 7        47.347 7                                                                                                                                                                                                                                                                                                                                                                                                                                                                
R23  20093354.449 9 107485897.338 9      2825.213 9        54.777 9  20093354.449 9 107485897.338 9      2825.213 9        54.777 9  20093354.449 8  83600142.374 8      2197.388 8        48.777 8  20093354.449 8  83600142.374 8      2197.388 8        48.777 8                                                                                                                                                                                                                                                                                                                                                                                                                                                                
R13  21413354.690 9 114346119.374 9      2669.547 9        54.221 9  21413354.690 9 114346119.374 9      2669.547 9        54.221 9  21413354.690 8  88935870.625 8      2076.314 8        48.221 8  21413354.690 8  88935870.625 8      2076.314 8        48.221 8                                                                                                                                                                                                                                                                                                                                                                                                                                                                
R24  23763083.657 8 127071887.471 8      4422.111 8        53.297 8  23763083.657 8 127071887.471 8      4422.111 8        53.297 8  23763083.657 7  98833690.255 7      3439.419 7        47.297 7  23763083.657 7  98833690.255 7      3439.419 7        47.297 7                                                                                                                                                                                                                                                                                                                                                                                                                                                                
E05                                                                  27872603.716 9 146471521.128 9       688.462 9        56.423 9  27872603.716 9 146471521.128 9       688.462 9        56.423 9  27872604.657 9 109378087.653 9       514.111 9        56.283 9  27872604.657 9 109378087.653 9       514.111 9        56.283 9  27872604.657 9 112231429.070 9       527.523 9        56.283 9  27872604.657 9 112231429.070 9       527.523 9        56.283 9  27872604.657 9 110804758.362 9       520.817 9        59.293 9  27872604.657 9 110804758.362 9       520.817 9        59.293 9                                                                                                                                                                                                
E12                                                                  26430539.155 9 138893420.712 9      3023.477 9        56.912 9  26430539.155 9 138893420.712 9      3023.477 9        56.912 9  26430536.718 9 103719103.308 9      2257.791 9        56.772 9  26430536.718 9 103719103.308 9      2257.791 9        56.772 9  26430536.718 9 106424819.047 9      2316.690 9        56.772 9  26430536.718 9 106424819.047 9      2316.690 9        56.772 9  26430536.718 9 105071961.178 9      2287.241 9        59.782 9  26430536.718 9 105071961.178 9      2287.241 9        59.782 9                                                                                                                                                                                                
E14                                                                  21222914.566 9 111527168.792 9     -2825.113 9        58.252 9  21222914.566 9 111527168.792 9     -2825.113 9        58.252 9  21222913.791 9  83283272.354 9     -2109.663 9        58.112 9  21222913.791 9  83283272.354 9     -2109.663 9        58.112 9  21222913.791 9  85455879.459 9     -2164.697 9        58.112 9  21222913.791 9  85455879.459 9     -2164.697 9        58.112 9  21222913.791 9  84369575.907 9     -2137.180 9        61.122 9  21222913.791 9  84369575.907 9     -2137.180 9        61.122 9                                                                                                                                                                                                
E31                                                                  24282115.909 9 127603380.356 9       659.726 9        57.666 9  24282115.909 9 127603380.356 9       659.726 9        57.666 9  24282117.128 9  95288243.358 9       492.652 9        57.526 9  24282117.128 9  95288243.358 9       492.652 9        57.526 9  24282117.128 9  97774023.619 9       505.504 9        57.526 9  24282117.128 9  97774023.619 9       505.504 9        57.526 9  24282117.128 9  96531133.488 9       499.078 9        60.536 9  24282117.128 9  96531133.488 9       499.078 9        60.536 9                                                                                                                                                                                                
E26                                                                  26418059.230 9 138827838.264 9     -1292.266 9        57.064 9  26418059.230 9 138827838.264 9     -1292.266 9        57.064 9  26418058.178 9 103670134.835 9      -965.004 9        56.924 9  26418058.178 9 103670134.835 9      -965.004 9        56.924 9  26418058.178 9 106374573.135 9      -990.178 9        56.924 9  26418058.178 9 106374573.135 9      -990.178 9        56.924 9  26418058.178 9 105022353.985 9      -977.591 9        59.934 9  26418058.178 9 105022353.985 9      -977.591 9        59.934 9                                                                                                                                                                                                
E04                                                                  26894941.654 9 141333872.316 9     -2605.859 9        56.726 9  26894941.654 9 141333872.316 9     -2605.859 9        56.726 9  26894940.989 9 105541525.421 9     -1945.933 9        56.586 9  26894940.989 9 105541525.421 9     -1945.933 9        56.586 9  26894940.989 9 108294782.606 9     -1996.697 9        56.586 9  26894940.989 9 108294782.606 9     -1996.697 9        56.586 9  26894940.989 9 106918154.014 9     -1971.315 9        59.597 9  26894940.989 9 106918154.014 9     -1971.315 9        59.597 9                                                                                                                                                                                                
E01                                                                  25446747.478 9 133723560.558 9      -994.142 9        57.265 9  25446747.478 9 133723560.558 9      -994.142 9        57.265 9  25446747.534 9  99858503.232 9      -742.379 9        57.125 9  25446747.534 9  99858503.232 9      -742.379 9        57.125 9  25446747.534 9 102463507.664 9      -761.745 9        57.125 9  25446747.534 9 102463507.664 9      -761.745 9        57.125 9  25446747.534 9 101161005.448 9      -752.062 9        60.135 9  25446747.534 9 101161005.448 9      -752.062 9        60.135 9                                                                                                                                                                                                
E09                                                                  26299811.577 9 138206442.655 9     -1411.122 9        56.996 9  26299811.577 9 138206442.655 9     -1411.122 9        56.996 9  26299812.131 9 103206111.948 9     -1053.760 9        56.856 9  26299812.131 9 103206111.948 9     -1053.760 9        56.856 9  26299812.131 9 105898445.303 9     -1081.249 9        56.856 9  26299812.131 9 105898445.303 9     -1081.249 9        56.856 9  26299812.131 9 104552278.625 9     -1067.504 9        59.867 9  26299812.131 9 104552278.625 9     -1067.504 9        59.867 9                                                                                                                                                                                                
E33                                                                  24339777.813 9 127906395.707 9      1234.888 9        57.639 9  24339777.813 9 127906395.707 9      1234.888 9        57.639 9  24339776.983 9  95514513.015 9       922.157 9        57.499 9  24339776.983 9  95514513.015 9       922.157 9        57.499 9  24339776.983 9  98006195.964 9       946.213 9        57.499 9  24339776.983 9  98006195.964 9       946.213 9        57.499 9  24339776.983 9  96760354.489 9       934.185 9        60.509 9  24339776.983 9  96760354.489 9       934.185 9        60.509 9                                                                                                                                                                                                
E24                                                                  27146698.831 9 142656865.213 9      1650.832 9        56.743 9  27146698.831 9 142656865.213 9      1650.832 9        56.743 9  27146698.333 9 106529475.314 9      1232.764 9        56.603 9  27146698.333 9 106529475.314 9      1232.764 9        56.603 9  27146698.333 9 109308505.105 9      1264.923 9        56.603 9  27146698.333 9 109308505.105 9      1264.923 9        56.603 9  27146698.333 9 107918990.210 9      1248.843 9        59.614 9  27146698.333 9 107918990.210 9      1248.843 9        59.614 9                                                                                                                                                                                                
E10                                                                  28466861.172 9 149594365.140 9      3082.072 9        56.276 9  28466861.172 9 149594365.140 9      3082.072 9        56.276 9  28466861.338 9 111710078.516 9      2301.547 9        56.136 9  28466861.338 9 111710078.516 9      2301.547 9        56.136 9  28466861.338 9 114624254.477 9      2361.588 9        56.136 9  28466861.338 9 114624254.477 9      2361.588 9        56.136 9  28466861.338 9 113167166.497 9      2331.567 9        59.146 9  28466861.338 9 113167166.497 9      2331.567 9        59.146 9                                                                                                                                                                                                
Q02  39631473.412 9 208264798.454 9       876.018 9        55.914 9  39631473.412 9 208264798.454 9       876.018 9        57.419 9  39631473.412 8 208264798.454 8       876.018 8        53.414 8  39631473.412 9 162284258.536 9       682.611 9        54.414 9                                                                                                                                
Q03  39280096.619 9 206418300.942 9      -502.298 9        55.990 9  39280096.619 9 206418300.942 9      -502.298 9        57.495 9  39280096.619 8 206418300.942 8      -502.298 8        53.490 8  39280096.619 9 160845429.306 9      -391.401 9        54.490 9                                                                                                                                
Q04  38165014.884 9 200558506.872 9      -209.903 9        56.235 9  38165014.884 9 200558506.872 9      -209.903 9        57.740 9  38165014.884 8 200558506.872 8      -209.903 8        53.735 8  38165014.884 9 156279356.004 9      -163.561 9        54.735 9                                                                                                                                
Q07  37730235.753 9 198273727.120 9        -4.260 9        56.342 9  37730235.753 9 198273727.120 9        -4.260 9        57.846 9  37730235.753 8 198273727.120 8        -4.260 8        53.842 8  37730235.753 9 154499008.145 9        -3.320 9        54.842 9                                                                                                                                
C03  37061096.817 8 192986856.656 8        33.123 8        51.994 8  37061093.699 8 149229666.905 8        25.613 8        51.994 8  37061096.127 8 156817626.344 8        26.915 8        51.994 8                                                                                                                                  37061096.127 9 149229676.682 9        25.613 9        54.994 9
C28  21946680.189 8 114282122.965 8      -968.550 8        52.824 8  21946680.189 8  88370186.828 8      -748.945 8        52.824 8  21946681.388 8  92863591.232 8      -787.027 8        52.824 8  21946681.388 9  86123491.869 9      -729.904 9        55.977 9  21946681.388 9 115330589.111 9      -977.436 9        55.824 9  21946681.388 9  88370191.656 9      -748.945 9        55.824 9
C07  36246656.805 8 188745853.791 8      -197.692 8        52.185 8  36246652.608 8 145950250.121 8      -152.868 8        52.185 8  36246652.308 8 153371448.011 8      -160.641 8        52.185 8  36246652.308 9 142239649.365 9      -148.981 9        55.977 9  36246652.308 9 190477443.498 9      -199.505 9        55.185 9  36246652.308 9 145950248.914 9      -152.868 9        55.185 9
C02  36969475.378 8 192509759.780 8         3.893 8        52.024 8  36969470.701 8 148860739.059 8         3.011 8        52.024 8  36969474.958 8 156429947.194 8         3.164 8        52.024 8                                                                                                                                  36969474.958 9 148860756.201 9         3.011 9        55.024 9
C16  37881425.307 8 197258522.375 8     -1433.335 8        51.803 8  37881427.436 8 152532810.931 8     -1108.345 8        51.803 8  37881426.057 8 160288710.737 8     -1164.702 8        51.803 8  37881426.057 9 148654852.699 9     -1080.167 9        55.977 9  37881426.057 9 199068237.528 9     -1446.485 9        54.803 9  37881426.057 9 152532805.378 9     -1108.345 9        54.803 9
C10  36457993.435 8 189846339.080 8      -108.133 8        52.136 8  36457992.505 8 146801228.312 8       -83.615 8        52.136 8  36457991.636 8 154265693.870 8       -87.867 8        52.136 8  36457991.636 9 143068990.282 9       -81.489 9        55.977 9  36457991.636 9 191588039.161 9      -109.125 9        55.136 9  36457991.636 9 146801224.811 9       -83.615 9        55.136 9
C09  36493023.956 8 190028752.198 8     -1083.861 8        52.118 8  36493022.997 8 146942281.585 8      -838.110 8        52.118 8  36493021.888 8 154413918.328 8      -880.726 8        52.118 8  36493021.888 9 143206456.514 9      -816.802 9        55.977 9  36493021.888 9 191772124.375 9     -1093.805 9        55.118 9  36493021.888 9 146942277.118 9      -838.110 9        55.118 9
C04  40361772.137 8 210174339.207 8        25.495 8        51.274 8  40361767.850 8 162520113.973 8        19.714 8        51.274 8  40361770.398 8 170783859.364 8        20.717 8        51.274 8                                                                                                                                  40361770.398 9 162520124.233 9        19.714 9        54.274 9
C06  37564896.913 8 195610275.963 8     -1417.297 8        51.864 8  37564893.795 8 151258261.126 8     -1095.944 8        51.864 8  37564894.335 8 158949361.433 8     -1151.670 8        51.864 8  37564894.335 9 147412714.232 9     -1068.081 9        55.977 9  37564894.335 9 197404852.102 9     -1430.299 9        54.864 9  37564894.335 9 151258263.299 9     -1095.944 9        54.864 9
C30  26346440.761 8 137192830.847 8      3238.107 8        51.244 8  26346440.761 8 106086199.475 8      2503.909 8        51.244 8  26346443.669 8 111480425.313 8      2631.227 8        51.244 8  26346443.669 9 103389104.121 9      2440.251 9        55.977 9  26346443.669 9 138451495.953 9      3267.814 9        54.244 9  26346443.669 9 106086211.185 9      2503.909 9        54.244 9
> 2023 01 08 10 30  0.0000000  0 43       0.000000000000
G01  21118295.516 9 110977391.972 9      1718.464 9        55.683 9                                                                  21118295.516 8 110977391.972 8      1718.464 8        52.683 8                                                                  21118296.419 8  86475893.546 8      1339.063 8        51.183 8  21118296.419 8  86475893.546 8      1339.063 8        49.683 8  21118295.516 9  82872727.771 9      1283.268 9        57.783 9
G07  20164623.071 9 105965809.450 9      -674.526 9        56.078 9                                                                  20164623.071 8 105965809.450 8      -674.526 8        53.078 8                                                                  20164620.904 8  82570751.735 8      -525.605 8        51.578 8  20164620.904 8  82570751.735 8      -525.605 8        50.078 8  20164623.071 9  79130312.252 9      -503.705 9        58.178 9
G13  24141671.328 9 126865339.099 9      1538.891 9        54.500 9                                                                  24141671.328 8 126865339.099 8      1538.891 8        51.500 8                                                                  24141669.070 8  98856099.143 8      1199.136 8        50.000 8  24141669.070 8  98856099.143 8      1199.136 8        48.500 8  24141671.328 9  94737103.872 9      1149.172 9        56.600 9
G17  21800093.141 9 114560262.675 9      1980.614 9        55.353 9                                                                  21800093.141 8 114560262.675 8      1980.614 8        52.353 8                                                                  21800090.974 8  89267728.273 8      1543.335 8        50.853 8  21800090.974 8  89267728.273 8      1543.335 8        49.353 8  21800093.141 9  85548248.101 9      1479.030 9        57.453 9
G09  24486743.037 9 128678703.169 9     -3102.832 9        54.451 9                                                                  24486743.037 8 128678703.169 8     -3102.832 8        51.451 8                                                                  24486743.218 8 100269120.092 8     -2417.791 8        49.951 8  24486743.218 8 100269120.092 8     -2417.791 8        48.451 8  24486743.037 9  96091239.380 9     -2317.050 9        56.551 9
G21  21585261.600 9 113431315.305 9     -1063.438 9        55.502 9                                                                  21585261.600 8 113431315.305 8     -1063.438 8        52.502 8                                                                  21585259.613 8  88388029.764 8      -828.653 8        51.002 8  21585259.613 8  88388029.764 8      -828.653 8        49.502 8  21585261.600 9  84705202.987 9      -794.125 9        57.602 9
G08  23345388.216 9 122680843.102 9     -3170.230 9        54.851 9                                                                  23345388.216 8 122680843.102 8     -3170.230 8        51.851 8                                                                  23345389.209 8  95595466.225 8     -2470.309 8        50.351 8  23345389.209 8  95595466.225 8     -2470.309 8        48.851 8  23345388.216 9  91612317.901 9     -2367.380 9        56.951 9
G30  20825915.124 9 109440922.641 9      1539.523 9        55.899 9                                                                  20825915.124 8 109440922.641 8      1539.523 8        52.899 8                                                                  20825915.846 8  85278643.977 8      1199.628 8        51.399 8  20825915.846 8  85278643.977 8      1199.628 8        49.899 8  20825915.124 9  81725364.310 9      1149.643 9        57.999 9
G14  22005507.373 9 115639721.747 9      1637.111 9        55.360 9                                                                  22005507.373 8 115639721.747 8      1637.111 8        52.360 8                                                                  22005505.837 8  90108867.802 8      1275.671 8        50.860 8  22005505.837 8  90108867.802 8      1275.671 8        49.360 8  22005507.373 9  86354337.669 9      1222.518 9        57.460 9
G19  25069891.537 9 131743169.222 9      3213.676 9        54.194 9                                                                  25069891.537 8 131743169.222 8      3213.676 8        51.194 8                                                                  25069888.557 8 102657002.774 8      2504.163 8        49.694 8  25069888.557 8 102657002.774 8      2504.163 8        48.194 8  25069891.537 9  98379639.354 9      2399.823 9        56.294 9
R11  22706835.236 8 121338442.905 8     -2373.632 8        53.706 8  22706835.236 8 121338442.905 8     -2373.632 8        53.706 8  22706835.236 7  94374344.482 7     -1846.158 7        47.706 7  22706835.236 7  94374344.482 7     -1846.158 7        47.706 7                                                                                                                                                                                                                                                                                                                                                                                                                                                                
R22  20138583.854 9 107501128.243 9     -2053.900 9        54.741 9  20138583.854 9 107501128.243 9     -2053.900 9        54.741 9  20138583.854 8  83611988.633 8     -1597.478 8        48.741 8  20138583.854 8  83611988.633 8     -1597.478 8        48.741 8                                                                                                                                                                                                                                                                                                                                                                                                                                                                
R12  19974816.073 9 106701882.122 9       292.708 9        54.818 9  19974816.073 9 106701882.122 9       292.708 9        54.818 9  19974816.073 8  82990352.762 8       227.662 8        48.818 8  19974816.073 8  82990352.762 8       227.662 8        48.818 8                                                                                                                                                                                                                                                                                                                                                                                                                                                                
R21  23755404.344 8 127119967.170 8     -4163.007 8        53.356 8  23755404.344 8 127119967.170 8     -4163.007 8        53.356 8  23755404.344 7  98871085.577 7     -3237.894 7        47.356 7  23755404.344 7  98871085.577 7     -3237.894 7        47.356 7                                                                                                                                                                                                                                                                                                                                                                                                                                                                
R03  23746418.942 8 127116439.828 8     -1861.032 8        53.311 8  23746418.942 8 127116439.828 8     -1861.032 8        53.311 8  23746418.942 7  98868342.089 7     -1447.470 7        47.311 7  23746418.942 7  98868342.089 7     -1447.470 7        47.311 7                                                                                                                                                                                                                                                                                                                                                                                                                                                                
R23  19940898.720 9 106670361.985 9      2610.006 9        54.844 9  19940898.720 9 106670361.985 9      2610.006 9        54.844 9  19940898.720 8  82965837.099 8      2030.005 8        48.844 8  19940898.720 8  82965837.099 8      2030.005 8        48.844 8                                                                                                                                                                                                                                                                                                                                                                                                                                                                
R13  21263935.697 9 113548230.284 9      2648.512 9        54.282 9  21263935.697 9 113548230.284 9      2648.512 9        54.282 9  21263935.697 8  88315290.221 8      2059.954 8        48.282 8  21263935.697 8  88315290.221 8      2059.954 8        48.282 8                                                                                                                                                                                                                                                                                                                                                                                                                                                                
R24  23515919.616 8 125750190.268 8      4387.256 8        53.388 8  23515919.616 8 125750190.268 8      4387.256 8        53.388 8  23515919.616 7  97805703.542 7      3412.310 7        47.388 7  23515919.616 7  97805703.542 7      3412.310 7        47.388 7                                                                                                                                                                                                                                                                                                                                                                                                                                                                
E05                                                                  27836895.152 9 146283871.356 9       562.423 9        56.434 9  27836895.152 9 146283871.356 9       562.423 9        56.434 9  27836896.093 9 109237959.577 9       419.991 9        56.294 9  27836896.093 9 109237959.577 9       419.991 9        56.294 9  27836896.093 9 112087645.479 9       430.947 9        56.294 9  27836896.093 9 112087645.479 9       430.947 9        56.294 9  27836896.093 9 110662802.528 9       425.469 9        59.305 9  27836896.093 9 110662802.528 9       425.469 9        59.305 9                                                                                                                                                                                                
E12                                                                  26258723.622 9 137990523.995 9      2994.736 9        56.968 9  26258723.622 9 137990523.995 9      2994.736 9        56.968 9  26258721.186 9 103044862.254 9      2236.329 9        56.829 9  26258721.186 9 103044862.254 9      2236.329 9        56.829 9  26258721.186 9 105732989.095 9      2294.668 9        56.829 9  26258721.186 9 105732989.095 9      2294.668 9        56.829 9  26258721.186 9 104388925.675 9      2265.499 9        59.839 9  26258721.186 9 104388925.675 9      2265.499 9        59.839 9                                                                                                                                                                                                
E14                                                                  21390871.887 9 112409790.470 9     -3057.342 9        58.184 9  21390871.887 9 112409790.470 9     -3057.342 9        58.184 9  21390871.112 9  83942372.958 9     -2283.080 9        58.044 9  21390871.112 9  83942372.958 9     -2283.080 9        58.044 9  21390871.112 9  86132173.992 9     -2342.639 9        58.044 9  21390871.112 9  86132173.992 9     -2342.639 9        58.044 9  21390871.112 9  85037273.475 9     -2312.860 9        61.054 9  21390871.112 9  85037273.475 9     -2312.860 9        61.054 9                                                                                                                                                                                                
E31                                                                  24244746.403 9 127407002.275 9       649.231 9        57.679 9  24244746.403 9 127407002.275 9       649.231 9        57.679 9  24244747.621 9  95141597.388 9       484.815 9        57.540 9  24244747.621 9  95141597.388 9       484.815 9        57.540 9  24244747.621 9  97623552.103 9       497.463 9        57.540 9  24244747.621 9  97623552.103 9       497.463 9        57.540 9  24244747.621 9  96382574.746 9       491.139 9        60.550 9  24244747.621 9  96382574.746 9       491.139 9        60.550 9                                                                                                                                                                                                
E26                                                                  26495462.555 9 139234595.481 9     -1418.830 9        57.038 9  26495462.555 9 139234595.481 9     -1418.830 9        57.038 9  26495461.503 9 103973882.108 9     -1059.516 9        56.898 9  26495461.503 9 103973882.108 9     -1059.516 9        56.898 9  26495461.503 9 106686244.249 9     -1087.155 9        56.898 9  26495461.503 9 106686244.249 9     -1087.155 9        56.898 9  26495461.503 9 105330063.178 9     -1073.335 9        59.908 9  26495461.503 9 105330063.178 9     -1073.335 9        59.908 9                                                                                                                                                                                                
E04                                                                  27043430.912 9 142114188.634 9     -2595.173 9        56.678 9  27043430.912 9 142114188.634 9     -2595.173 9        56.678 9  27043430.247 9 106124229.164 9     -1937.954 9        56.539 9  27043430.247 9 106124229.164 9     -1937.954 9        56.539 9  27043430.247 9 108892687.317 9     -1988.509 9        56.539 9  27043430.247 9 108892687.317 9     -1988.509 9        56.539 9  27043430.247 9 107508458.240 9     -1963.231 9        59.549 9  27043430.247 9 107508458.240 9     -1963.231 9        59.549 9                                                                                                                                                                                                
E01                                                                  25504147.199 9 134025198.124 9     -1017.122 9        57.245 9  25504147.199 9 134025198.124 9     -1017.122 9        57.245 9  25504147.254 9 100083752.063 9      -759.539 9        57.105 9  25504147.254 9 100083752.063 9      -759.539 9        57.105 9  25504147.254 9 102694632.552 9      -779.353 9        57.105 9  25504147.254 9 102694632.552 9      -779.353 9        57.105 9  25504147.254 9 101389192.307 9      -769.446 9        60.115 9  25504147.254 9 101389192.307 9      -769.446 9        60.115 9                                                                                                                                                                                                
E09                                                                  26383085.704 9 138644051.143 9     -1505.320 9        56.969 9  26383085.704 9 138644051.143 9     -1505.320 9        56.969 9  26383086.257 9 103532897.507 9     -1124.103 9        56.829 9  26383086.257 9 103532897.507 9     -1124.103 9        56.829 9  26383086.257 9 106233755.703 9     -1153.427 9        56.829 9  26383086.257 9 106233755.703 9     -1153.427 9        56.829 9  26383086.257 9 104883326.605 9     -1138.765 9        59.839 9  26383086.257 9 104883326.605 9     -1138.765 9        59.839 9                                                                                                                                                                                                
E33                                                                  24273086.836 9 127555932.257 9      1100.952 9        57.663 9  24273086.836 9 127555932.257 9      1100.952 9        57.663 9  24273086.006 9  95252803.297 9       822.139 9        57.523 9  24273086.006 9  95252803.297 9       822.139 9        57.523 9  24273086.006 9  97737659.035 9       843.586 9        57.523 9  24273086.006 9  97737659.035 9       843.586 9        57.523 9  24273086.006 9  96495231.166 9       832.863 9        60.533 9  24273086.006 9  96495231.166 9       832.863 9        60.533 9                                                                                                                                                                                                
E24                                                                  27052086.582 9 142159674.487 9      1663.846 9        56.774 9  27052086.582 9 142159674.487 9      1663.846 9        56.774 9  27052086.084 9 106158196.525 9      1242.482 9        56.634 9  27052086.084 9 106158196.525 9      1242.482 9        56.634 9  27052086.084 9 108927540.782 9      1274.895 9        56.634 9  27052086.084 9 108927540.782 9      1274.895 9        56.634 9  27052086.084 9 107542868.653 9      1258.688 9        59.644 9  27052086.084 9 107542868.653 9      1258.688 9        59.644 9                                                                                                                                                                                                
E10                                                                  28290241.640 9 148666223.232 9      3104.584 9        56.330 9  28290241.640 9 148666223.232 9      3104.584 9        56.330 9  28290241.806 9 111016985.533 9      2318.358 9        56.190 9  28290241.806 9 111016985.533 9      2318.358 9        56.190 9  28290241.806 9 113913080.807 9      2378.837 9        56.190 9  28290241.806 9 113913080.807 9      2378.837 9        56.190 9  28290241.806 9 112465033.170 9      2348.598 9        59.201 9  28290241.806 9 112465033.170 9      2348.598 9        59.201 9                                                                                                                                                                                                
Q02  39581047.201 9 207999806.924 9       890.429 9        55.925 9  39581047.201 9 207999806.924 9       890.429 9        57.430 9  39581047.201 8 207999806.924 8       890.429 8        53.425 8  39581047.201 9 162077771.629 9       693.841 9        54.425 9                                                                                                                                
Q03  39308987.185 9 206570121.889 9      -509.712 9        55.984 9  39308987.185 9 206570121.889 9      -509.712 9        57.489 9  39308987.185 8 206570121.889 8      -509.712 8        53.484 8  39308987.185 9 160963731.342 9      -397.178 9        54.484 9                                                                                                                                
Q04  38176680.656 9 200619810.918 9      -198.825 9        56.233 9  38176680.656 9 200619810.918 9      -198.825 9        57.738 9  38176680.656 8 200619810.918 8      -198.825 8        53.733 8  38176680.656 9 156327125.390 9      -154.929 9        54.733 9                                                                                                                                
Q07  37730477.513 9 198274997.576 9        -4.209 9        56.342 9  37730477.513 9 198274997.576 9        -4.209 9        57.846 9  37730477.513 8 198274997.576 8        -4.209 8        53.842 8  37730477.513 9 154499998.111 9        -3.280 9        54.842 9                                                                                                                                
C03  37059170.492 8 192976825.779 8        33.746 8        51.995 8  37059167.375 8 149221910.394 8        26.095 8        51.995 8  37059169.803 8 156809475.435 8        27.422 8        51.995 8                                                                                                                                  37059169.803 9 149221920.172 9        26.095 9        54.995 9
C28  22006577.219 8 114594022.521 8     -1109.979 8        52.801 8  22006577.219 8  88611367.349 8      -858.306 8        52.801 8  22006578.418 8  93117035.170 8      -901.949 8        52.801 8  22006578.418 9  86358540.682 9      -836.485 9        55.977 9  22006578.418 9 115645350.130 9     -1120.162 9        55.801 9  22006578.418 9  88611372.178 9      -858.306 9        55.801 9
C07  36257720.404 8 188803464.851 8      -186.277 8        52.183 8  36257716.207 8 145994798.647 8      -144.041 8        52.183 8  36257715.907 8 153418261.716 8      -151.365 8        52.183 8  36257715.907 9 142283065.301 9      -140.379 9        55.977 9  36257715.907 9 190535583.099 9      -187.986 9        55.183 9  36257715.907 9 145994797.440 9      -144.041 9        55.183 9
C02  36969236.879 8 192508517.852 8         4.386 8        52.024 8  36969232.202 8 148859778.722 8         3.392 8        52.024 8  36969236.459 8 156428938.026 8         3.564 8        52.024 8                                                                                                                                  36969236.459 9 148859795.863 9         3.392 9        55.024 9
C16  37964842.821 8 197692899.259 8     -1462.255 8        51.784 8  37964844.949 8 152868698.692 8     -1130.709 8        51.784 8  37964843.570 8 160641677.536 8     -1188.202 8        51.784 8  37964843.570 9 148982200.941 9     -1101.962 9        55.977 9  37964843.570 9 199506599.521 9     -1475.670 9        54.784 9  37964843.570 9 152868693.139 9     -1130.709 9        54.784 9
C10  36463892.674 8 189877057.967 8       -96.535 8        52.135 8  36463891.745 8 146824982.104 8       -74.647 8        52.135 8  36463890.875 8 154290655.481 8       -78.443 8        52.135 8  36463890.875 9 143092140.164 9       -72.749 9        55.977 9  36463890.875 9 191619039.872 9       -97.421 9        55.135 9  36463890.875 9 146824978.603 9       -74.647 9        55.135 9
C09  36556744.371 8 190360561.121 8     -1128.050 8        52.103 8  36556743.412 8 147198857.293 8      -872.280 8        52.103 8  36556742.303 8 154683540.258 8      -916.633 8        52.103 8  36556742.303 9 143456509.110 9      -850.103 9        55.977 9  36556742.303 9 192106977.417 9     -1138.399 9        55.103 9  36556742.303 9 147198852.826 9      -872.280 9        55.103 9
C04  40360301.185 8 210166679.573 8        25.567 8        51.275 8  40360296.898 8 162514191.058 8        19.770 8        51.275 8  40360299.446 8 170777635.284 8        20.775 8        51.275 8                                                                                                                                  40360299.446 9 162514201.318 9        19.770 9        54.275 9
C06  37647439.737 8 196040098.110 8     -1447.948 8        51.845 8  37647436.619 8 151590626.875 8     -1119.645 8        51.845 8  37647437.159 8 159298627.135 8     -1176.576 8        51.845 8  37647437.159 9 147736630.005 9     -1091.180 9        55.977 9  37647437.159 9 197838617.571 9     -1461.232 9        54.845 9  37647437.159 9 151590629.048 9     -1119.645 9        54.845 9
C30  26160719.869 8 136225733.424 8      3208.297 8        51.305 8  26160719.869 8 105338378.401 8      2480.858 8        51.305 8  26160722.777 8 110694579.438 8      2607.004 8        51.305 8  26160722.777 9 102660295.447 9      2417.786 9        55.977 9  26160722.777 9 137475526.076 9      3237.730 9        54.305 9  26160722.777 9 105338390.111 9      2480.858 9        54.305 9
> 2023 01 08 10 35  0.0000000  0 43       0.000000000000
G01  21025575.004 9 110490142.393 9      1528.531 9        55.721 9                                                                  21025575.004 8 110490142.393 8      1528.531 8        52.721 8                                                                  21025575.907 8  86096218.550 8      1191.063 8        51.221 8  21025575.907 8  86096218.550 8      1191.063 8        49.721 8  21025575.004 9  82508872.566 9      1141.435 9        57.821 9
G07  20208334.430 9 106195514.192 9      -856.907 9        56.059 9                                                                  20208334.430 8 106195514.192 8      -856.907 8        53.059 8                                                                  20208332.263 8  82749742.442 8      -667.719 8        51.559 8  20208332.263 8  82749742.442 8      -667.719 8        50.059 8  20208334.430 9  79301845.013 9      -639.898 9        58.159 9
G13  24058573.396 9 126428656.517 9      1371.717 9        54.529 9                                                                  24058573.396 8 126428656.517 8      1371.717 8        51.529 8                                                                  24058571.138 8  98515827.001 8      1068.870 8        50.029 8  24058571.138 8  98515827.001 8      1068.870 8        48.529 8  24058573.396 9  94411009.736 9      1024.334 9        56.629 9
G17  21690533.714 9 113984524.001 9      1857.483 9        55.396 9                                                                  21690533.714 8 113984524.001 8      1857.483 8        52.396 8                                                                  21690531.547 8  88819100.735 8      1447.389 8        50.896 8  21690531.547 8  88819100.735 8      1447.389 8        49.396 8  21690533.714 9  85118313.377 9      1387.082 9        57.496 9
G09  24662901.953 9 129604424.522 9     -3067.205 9        54.389 9                                                                  24662901.953 8 129604424.522 8     -3067.205 8        51.389 8                                                                  24662902.134 8 100990461.406 8     -2390.029 8        49.889 8  24662902.134 8 100990461.406 8     -2390.029 8        48.389 8  24662901.953 9  96782524.805 9     -2290.445 9        56.489 9
G21  21651330.890 9 113778511.771 9     -1250.554 9        55.476 9                                                                  21651330.890 8 113778511.771 8     -1250.554 8        52.476 8                                                                  21651328.903 8  88658572.464 8      -974.457 8        50.976 8  21651328.903 8  88658572.464 8      -974.457 8        49.476 8  21651330.890 9  84964473.075 9      -933.855 9        57.576 9
G08  23526648.919 9 123633374.528 9     -3178.954 9        54.784 9                                                                  23526648.919 8 123633374.528 8     -3178.954 8        51.784 8                                                                  23526649.913 8  96337698.506 8     -2477.107 8        50.284 8  23526649.913 8  96337698.506 8     -2477.107 8        48.784 8  23526648.919 9  92323623.836 9     -2373.894 9        56.884 9
G30  20742393.988 9 109002016.111 9      1385.368 9        55.934 9                                                                  20742393.988 8 109002016.111 8      1385.368 8        52.934 8                                                                  20742394.711 8  84936638.890 8      1079.507 8        51.434 8  20742394.711 8  84936638.890 8      1079.507 8        49.934 8  20742393.988 9  81397609.434 9      1034.528 9        58.034 9
G14  21912716.110 9 115152100.372 9      1613.516 9        55.396 9                                                                  21912716.110 8 115152100.372 8      1613.516 8        52.396 8                                                                  21912714.575 8  89728903.094 8      1257.285 8        50.896 8  21912714.575 8  89728903.094 8      1257.285 8        49.396 8  21912716.110 9  85990204.823 9      1204.898 9        57.496 9
G19  24887728.343 9 130785895.176 9      3167.441 9        54.257 9                                                                  24887728.343 8 130785895.176 8      3167.441 8        51.257 8                                                                  24887725.363 8 101911074.946 8      2468.136 8        49.757 8  24887725.363 8 101911074.946 8      2468.136 8        48.257 8  24887728.343 9  97664791.852 9      2365.297 9        56.357 9
R11  22842955.061 8 122065825.979 8     -2475.555 8        53.654 8  22842955.061 8 122065825.979 8     -2475.555 8        53.654 8  22842955.061 7  94940086.873 7     -1925.432 7        47.654 7  22842955.061 7  94940086.873 7     -1925.432 7        47.654 7                                                                                                                                                                                                                                                                                                                                                                                                                                                                
R22  20260251.702 9 108150599.481 9     -2274.050 9        54.689 9  20260251.702 9 108150599.481 9     -2274.050 9        54.689 9  20260251.702 8  84117132.930 8     -1768.706 8        48.689 8  20260251.702 8  84117132.930 8     -1768.706 8        48.689 8                                                                                                                                                                                                                                                                                                                                                                                                                                                                
R12  19961713.963 9 106631893.001 9       172.726 9        54.824 9  19961713.963 9 106631893.001 9       172.726 9        54.824 9  19961713.963 8  82935916.778 8       134.342 8        48.824 8  19961713.963 8  82935916.778 8       134.342 8        48.824 8                                                                                                                                                                                                                                                                                                                                                                                                                                                                
R21  23990241.539 8 128376628.435 8     -4212.587 8        53.270 8  23990241.539 8 128376628.435 8     -4212.587 8        53.270 8  23990241.539 7  99848488.783 7     -3276.457 7        47.270 7  23990241.539 7  99848488.783 7     -3276.457 7        47.270 7                                                                                                                                                                                                                                                                                                                                                                                                                                                                
R03  23854645.986 8 127695787.671 8     -1999.187 8        53.271 8  23854645.986 8 127695787.671 8     -1999.187 8        53.271 8  23854645.986 7  99318945.966 7     -1554.923 7        47.271 7  23854645.986 7  99318945.966 7     -1554.923 7        47.271 7                                                                                                                                                                                                                                                                                                                                                                                                                                                                
R23  19800786.336 9 105920855.209 9      2385.188 9        54.905 9  19800786.336 9 105920855.209 9      2385.188 9        54.905 9  19800786.336 8  82382887.385 8      1855.146 8        48.905 8  19800786.336 8  82382887.385 8      1855.146 8        48.905 8                                                                                                                                                                                                                                                                                                                                                                                                                                                                
R13  21115905.319 9 112757756.326 9      2620.030 9        54.342 9  21115905.319 9 112757756.326 9      2620.030 9        54.342 9  21115905.319 8  87700477.142 8      2037.801 8        48.342 8  21115905.319 8  87700477.142 8      2037.801 8        48.342 8                                                                                                                                                                                                                                                                                                                                                                                                                                                                
R24  23271038.545 8 124440701.132 8      4340.717 8        53.479 8  23271038.545 8 124440701.132 8      4340.717 8        53.479 8  23271038.545 7  96787211.992 7      3376.114 7        47.479 7  23271038.545 7  96787211.992 7      3376.114 7        47.479 7                                                                                                                                                                                                                                                                                                                                                                                                                                                                
E05                                                                  27808397.061 9 146134112.877 9       435.926 9        56.443 9  27808397.061 9 146134112.877 9       435.926 9        56.443 9  27808398.002 9 109126126.946 9       325.529 9        56.303 9  27808398.002 9 109126126.946 9       325.529 9        56.303 9  27808398.002 9 111972895.475 9       334.021 9        56.303 9  27808398.002 9 111972895.475 9       334.021 9        56.303 9  27808398.002 9 110549511.211 9       329.775 9        59.314 9  27808398.002 9 110549511.211 9       329.775 9        59.314 9                                                                                                                                                                                                
E12                                                                  26088736.755 9 137097236.979 9      2959.416 9        57.025 9  26088736.755 9 137097236.979 9      2959.416 9        57.025 9  26088734.319 9 102377797.274 9      2209.953 9        56.885 9  26088734.319 9 102377797.274 9      2209.953 9        56.885 9  26088734.319 9 105048522.421 9      2267.604 9        56.885 9  26088734.319 9 105048522.421 9      2267.604 9        56.885 9  26088734.319 9 103713159.848 9      2238.779 9        59.896 9  26088734.319 9 103713159.848 9      2238.779 9        59.896 9                                                                                                                                                                                                
E14                                                                  21571789.025 9 113360516.448 9     -3279.016 9        58.111 9  21571789.025 9 113360516.448 9     -3279.016 9        58.111 9  21571788.250 9  84652330.669 9     -2448.616 9        57.971 9  21571788.250 9  84652330.669 9     -2448.616 9        57.971 9  21571788.250 9  86860652.339 9     -2512.493 9        57.971 9  21571788.250 9  86860652.339 9     -2512.493 9        57.971 9  21571788.250 9  85756491.504 9     -2480.554 9        60.981 9  21571788.250 9  85756491.504 9     -2480.554 9        60.981 9                                                                                                                                                                                                
E31                                                                  24208017.330 9 127213989.690 9       637.256 9        57.693 9  24208017.330 9 127213989.690 9       637.256 9        57.693 9  24208018.548 9  94997464.614 9       475.873 9        57.553 9  24208018.548 9  94997464.614 9       475.873 9        57.553 9  24208018.548 9  97475659.343 9       488.287 9        57.553 9  24208018.548 9  97475659.343 9       488.287 9        57.553 9  24208018.548 9  96236561.979 9       482.080 9        60.563 9  24208018.548 9  96236561.979 9       482.080 9        60.563 9                                                                                                                                                                                                
E26                                                                  26579981.281 9 139678744.383 9     -1541.485 9        57.009 9  26579981.281 9 139678744.383 9     -1541.485 9        57.009 9  26579980.229 9 104305551.742 9     -1151.109 9        56.869 9  26579980.229 9 104305551.742 9     -1151.109 9        56.869 9  26579980.229 9 107026566.135 9     -1181.138 9        56.869 9  26579980.229 9 107026566.135 9     -1181.138 9        56.869 9  26579980.229 9 105666058.939 9     -1166.123 9        59.880 9  26579980.229 9 105666058.939 9     -1166.123 9        59.880 9                                                                                                                                                                                                
E04                                                                  27191127.181 9 142890337.764 9     -2578.098 9        56.631 9  27191127.181 9 142890337.764 9     -2578.098 9        56.631 9  27191126.516 9 106703821.048 9     -1925.203 9        56.491 9  27191126.516 9 106703821.048 9     -1925.203 9        56.491 9  27191126.516 9 109487398.988 9     -1975.426 9        56.491 9  27191126.516 9 109487398.988 9     -1975.426 9        56.491 9  27191126.516 9 108095610.018 9     -1950.314 9        59.501 9  27191126.516 9 108095610.018 9     -1950.314 9        59.501 9                                                                                                                                                                                                
E01                                                                  25562918.209 9 134334041.871 9     -1042.190 9        57.225 9  25562918.209 9 134334041.871 9     -1042.190 9        57.225 9  25562918.265 9 100314382.134 9      -778.259 9        57.085 9  25562918.265 9 100314382.134 9      -778.259 9        57.085 9  25562918.265 9 102931279.059 9      -798.561 9        57.085 9  25562918.265 9 102931279.059 9      -798.561 9        57.085 9  25562918.265 9 101622830.596 9      -788.410 9        60.095 9  25562918.265 9 101622830.596 9      -788.410 9        60.095 9                                                                                                                                                                                                
E09                                                                  26471573.250 9 139109056.339 9     -1593.725 9        56.939 9  26471573.250 9 139109056.339 9     -1593.725 9        56.939 9  26471573.804 9 103880141.647 9     -1190.119 9        56.799 9  26471573.804 9 103880141.647 9     -1190.119 9        56.799 9  26471573.804 9 106590058.386 9     -1221.166 9        56.799 9  26471573.804 9 106590058.386 9     -1221.166 9        56.799 9  26471573.804 9 105235100.016 9     -1205.643 9        59.810 9  26471573.804 9 105235100.016 9     -1205.643 9        59.810 9                                                                                                                                                                                                
E33                                                                  24214137.714 9 127246152.530 9       963.741 9        57.684 9  24214137.714 9 127246152.530 9       963.741 9        57.684 9  24214136.884 9  95021474.279 9       719.677 9        57.544 9  24214136.884 9  95021474.279 9       719.677 9        57.544 9  24214136.884 9  97500295.348 9       738.451 9        57.544 9  24214136.884 9  97500295.348 9       738.451 9        57.544 9  24214136.884 9  96260884.813 9       729.064 9        60.555 9  24214136.884 9  96260884.813 9       729.064 9        60.555 9                                                                                                                                                                                                
E24                                                                  26956719.963 9 141658519.524 9      1677.232 9        56.805 9  26956719.963 9 141658519.524 9      1677.232 9        56.805 9  26956719.465 9 105783957.429 9      1252.478 9        56.665 9  26956719.465 9 105783957.429 9      1252.478 9        56.665 9  26956719.465 9 108543538.928 9      1285.152 9        56.665 9  26956719.465 9 108543538.928 9      1285.152 9        56.665 9  26956719.465 9 107163748.178 9      1268.815 9        59.675 9  26956719.465 9 107163748.178 9      1268.815 9        59.675 9                                                                                                                                                                                                
E10                                                                  28112501.352 9 147732191.715 9      3121.322 9        56.385 9  28112501.352 9 147732191.715 9      3121.322 9        56.385 9  28112501.518 9 110319494.465 9      2330.857 9        56.245 9  28112501.518 9 110319494.465 9      2330.857 9        56.245 9  28112501.518 9 113197394.321 9      2391.662 9        56.245 9  28112501.518 9 113197394.321 9      2391.662 9        56.245 9  28112501.518 9 111758444.393 9      2361.259 9        59.256 9  28112501.518 9 111758444.393 9      2361.259 9        59.256 9                                                                                                                                                                                                
Q02  39529826.759 9 207730641.687 9       903.838 9        55.937 9  39529826.759 9 207730641.687 9       903.838 9        57.441 9  39529826.759 8 207730641.687 8       903.838 8        53.437 8  39529826.759 9 161868032.484 9       704.289 9        54.437 9                                                                                                                                
Q03  39338278.473 9 206724048.649 9      -516.333 9        55.978 9  39338278.473 9 206724048.649 9      -516.333 9        57.482 9  39338278.473 8 206724048.649 8      -516.333 8        53.478 8  39338278.473 9 161083674.272 9      -402.338 9        54.478 9                                                                                                                                
Q04  38187720.187 9 200677824.045 9      -187.969 9        56.230 9  38187720.187 9 200677824.045 9      -187.969 9        57.735 9  38187720.187 8 200677824.045 8      -187.969 8        53.730 8  38187720.187 9 156372330.425 9      -146.470 9        54.730 9                                                                                                                                
Q07  37730716.280 9 198276252.306 9        -4.156 9        56.342 9  37730716.280 9 198276252.306 9        -4.156 9        57.846 9  37730716.280 8 198276252.306 8        -4.156 8        53.842 8  37730716.280 9 154500975.823 9        -3.238 9        54.842 9                                                                                                                                
C03  37057208.757 8 192966610.509 8        34.353 8        51.995 8  37057205.639 8 149214011.300 8        26.564 8        51.995 8  37057208.068 8 156801174.692 8        27.914 8        51.995 8                                                                                                                                  37057208.068 9 149214021.077 9        26.564 9        54.995 9
C28  22074479.802 8 114947609.089 8     -1246.400 8        52.774 8  22074479.802 8  88884782.913 8      -963.795 8        52.774 8  22074481.001 8  93404353.220 8     -1012.802 8        52.774 8  22074481.001 9  86625005.002 9      -939.292 9        55.977 9  22074481.001 9 116002180.612 9     -1257.834 9        55.774 9  22074481.001 9  88884787.742 9      -963.795 9        55.774 9
C07  36268108.727 8 188857559.578 8      -174.259 8        52.180 8  36268104.530 8 146036628.121 8      -134.748 8        52.180 8  36268104.230 8 153462218.113 8      -141.599 8        52.180 8  36268104.230 9 142323831.315 9      -131.322 9        55.977 9  36268104.230 9 190590174.108 9      -175.857 9        55.180 9  36268104.230 9 146036626.914 9      -134.748 9        55.180 9
C02  36968970.036 8 192507128.332 8         4.877 8        52.024 8  36968965.359 8 148858704.256 8         3.771 8        52.024 8  36968969.616 8 156427808.926 8         3.963 8        52.024 8                                                                                                                                  36968969.616 9 148858721.397 9         3.771 9        55.024 9
C16  38049881.593 8 198135718.462 8     -1489.607 8        51.764 8  38049883.722 8 153211114.590 8     -1151.858 8        51.764 8  38049882.343 8 161001504.412 8     -1210.427 8        51.764 8  38049882.343 9 149315911.350 9     -1122.574 9        55.977 9  38049882.343 9 199953481.286 9     -1503.273 9        54.764 9  38049882.343 9 153211109.037 9     -1151.858 9        54.764 9
C10  36469102.693 8 189904187.903 8       -84.215 8        52.134 8  36469101.764 8 146845960.692 8       -65.120 8        52.134 8  36469100.894 8 154312700.777 8       -68.431 8        52.134 8  36469100.894 9 143112585.398 9       -63.465 9        55.977 9  36469100.894 9 191646418.707 9       -84.987 9        55.134 9  36469100.894 9 146845957.191 9       -65.120 9        55.134 9
C09  36622984.010 8 190705488.300 8     -1171.301 8        52.087 8  36622983.050 8 147465576.868 8      -905.724 8        52.087 8  36622981.941 8 154963821.845 8      -951.778 8        52.087 8  36622981.941 9 143716447.679 9      -882.697 9        55.977 9  36622981.941 9 192455069.066 9     -1182.047 9        55.087 9  36622981.941 9 147465572.401 9      -905.724 9        55.087 9
C04  40358826.478 8 210159000.388 8        25.626 8        51.275 8  40358822.191 8 162508253.025 8        19.815 8        51.275 8  40358824.739 8 170771395.317 8        20.823 8        51.275 8                                                                                                                                  40358824.739 9 162508263.285 9        19.815 9        54.275 9
C06  37731706.903 8 196478899.353 8     -1477.147 8        51.826 8  37731703.785 8 151929935.831 8     -1142.224 8        51.826 8  37731704.324 8 159655189.089 8     -1200.303 8        51.826 8  37731704.324 9 148067312.462 9     -1113.184 9        55.977 9  37731704.324 9 198281444.514 9     -1490.698 9        54.826 9  37731704.324 9 151929938.004 9     -1142.224 9        54.826 9
C30  25976872.329 8 135268391.036 8      3173.091 8        51.366 8  25976872.329 8 104598100.539 8      2453.635 8        51.366 8  25976875.237 8 109916660.329 8      2578.396 8        51.366 8  25976875.237 9 101938838.208 9      2391.255 9        55.977 9  25976875.237 9 136509400.731 9      3202.202 9        54.366 9  25976875.237 9 104598112.248 9      2453.635 9        54.366 9
> 2023 01 08 10 40  0.0000000  0 43       0.000000000000
G01  20943919.065 9 110061037.536 9      1330.967 9        55.755 9                                                                  20943919.065 8 110061037.536 8      1330.967 8        52.755 8                                                                  20943919.968 8  85761851.129 8      1037.117 8        51.255 8  20943919.968 8  85761851.129 8      1037.117 8        49.755 8  20943919.065 9  82188437.121 9       993.904 9        57.855 9
G07  20262461.620 9 106479954.494 9     -1039.298 9        56.036 9                                                                  20262461.620 8 106479954.494 8     -1039.298 8        53.036 8                                                                  20262459.453 8  82971384.237 8      -809.843 8        51.536 8  20262459.453 8  82971384.237 8      -809.843 8        50.036 8  20262461.620 9  79514251.733 9      -776.099 9        58.136 9
G13  23985116.273 9 126042636.734 9      1201.259 9        54.556 9                                                                  23985116.273 8 126042636.734 8      1201.259 8        51.556 8                                                                  23985114.015 8  98215032.365 8       936.046 8        50.056 8  23985114.015 8  98215032.365 8       936.046 8        48.556 8  23985116.273 9  94122748.210 9       897.044 9        56.656 9
G17  21588025.881 9 113445841.701 9      1733.654 9        55.437 9                                                                  21588025.881 8 113445841.701 8      1733.654 8        52.437 8                                                                  21588023.714 8  88399348.294 8      1350.899 8        50.937 8  21588023.714 8  88399348.294 8      1350.899 8        49.437 8  21588025.881 9  84716050.621 9      1294.612 9        57.537 9
G09  24836783.668 9 130518179.099 9     -3023.105 9        54.327 9                                                                  24836783.668 8 130518179.099 8     -3023.105 8        51.327 8                                                                  24836783.848 8 101702477.960 8     -2355.666 8        49.827 8  24836783.848 8 101702477.960 8     -2355.666 8        48.327 8  24836783.668 9  97464874.002 9     -2257.513 9        56.427 9
G21  21727962.945 9 114181215.935 9     -1433.362 9        55.445 9                                                                  21727962.945 8 114181215.935 8     -1433.362 8        52.445 8                                                                  21727960.958 8  88972367.917 8     -1116.906 8        50.945 8  21727960.958 8  88972367.917 8     -1116.906 8        49.445 8  21727962.945 9  85265193.717 9     -1070.368 9        57.545 9
G08  23708234.664 9 124587614.056 9     -3181.679 9        54.717 9                                                                  23708234.664 8 124587614.056 8     -3181.679 8        51.717 8                                                                  23708235.657 8  97081261.774 8     -2479.230 8        50.217 8  23708235.657 8  97081261.774 8     -2479.230 8        48.717 8  23708234.664 9  93036205.302 9     -2375.929 9        56.817 9
G30  20667866.495 9 108610371.493 9      1224.517 9        55.965 9                                                                  20667866.495 8 108610371.493 8      1224.517 8        52.965 8                                                                  20667867.218 8  84631461.265 8       954.169 8        51.465 8  20667867.218 8  84631461.265 8       954.169 8        49.965 8  20667866.495 9  81105147.543 9       914.412 9        58.065 9
G14  21821305.109 9 114671732.317 9      1588.712 9        55.433 9                                                                  21821305.109 8 114671732.317 8      1588.712 8        52.433 8                                                                  21821303.573 8  89354590.324 8      1237.958 8        50.933 8  21821303.573 8  89354590.324 8      1237.958 8        49.433 8  21821305.109 9  85631488.419 9      1186.376 9        57.533 9
G19  24708323.071 9 129843114.109 9      3117.092 9        54.319 9                                                                  24708323.071 8 129843114.109 8      3117.092 8        51.319 8                                                                  24708320.091 8 101176440.349 8      2428.903 8        49.819 8  24708320.091 8 101176440.349 8      2428.903 8        48.319 8  24708323.071 9  96960767.030 9      2327.699 9        56.419 9
R11  22984785.686 8 122823725.836 8     -2576.995 8        53.600 8  22984785.686 8 122823725.836 8     -2576.995 8        53.600 8  22984785.686 7  95529564.539 7     -2004.329 7        47.600 7  22984785.686 7  95529564.539 7     -2004.329 7        47.600 7                                                                                                                                                                                                                                                                                                                                                                                                                                                                
R22  20393971.243 9 108864403.471 9     -2482.662 9        54.631 9  20393971.243 9 108864403.471 9     -2482.662 9        54.631 9  20393971.243 8  84672313.810 8     -1930.959 8        48.631 8  20393971.243 8  84672313.810 8     -1930.959 8        48.631 8                                                                                                                                                                                                                                                                                                                                                                                                                                                                
R12  19955543.891 9 106598933.585 9        45.878 9        54.827 9  19955543.891 9 106598933.585 9        45.878 9        54.827 9  19955543.891 8  82910281.677 8        35.683 8        48.827 8  19955543.891 8  82910281.677 8        35.683 8        48.827 8                                                                                                                                                                                                                                                                                                                                                                                                                                                                
R21  24227499.744 8 129646245.015 8     -4249.439 8        53.184 8  24227499.744 8 129646245.015 8     -4249.439 8        53.184 8  24227499.744 7 100835968.345 7     -3305.120 7        47.184 7  24227499.744 7 100835968.345 7     -3305.120 7        47.184 7                                                                                                                                                                                                                                                                                                                                                                                                                                                                
R03  23970259.205 8 128314674.280 8     -2124.552 8        53.229 8  23970259.205 8 128314674.280 8     -2124.552 8        53.229 8  23970259.205 7  99800302.217 7     -1652.429 7        47.229 7  23970259.205 7  99800302.217 7     -1652.429 7        47.229 7                                                                                                                                                                                                                                                                                                                                                                                                                                                                
R23  19673527.533 9 105240106.427 9      2151.801 9        54.961 9  19673527.533 9 105240106.427 9      2151.801 9        54.961 9  19673527.533 8  81853416.110 8      1673.623 8        48.961 8  19673527.533 8  81853416.110 8      1673.623 8        48.961 8                                                                                                                                                                                                                                                                                                                                                                                                                                                                
R13  20969695.781 9 111977005.551 9      2583.611 9        54.403 9  20969695.781 9 111977005.551 9      2583.611 9        54.403 9  20969695.781 8  87093226.540 8      2009.475 8        48.403 8  20969695.781 8  87093226.540 8      2009.475 8        48.403 8                                                                                                                                                                                                                                                                                                                                                                                                                                                                
R24  23029096.568 8 123146928.650 8      4282.480 8        53.569 8  23029096.568 8 123146928.650 8      4282.480 8        53.569 8  23029096.568 7  95780944.506 7      3330.818 7        47.569 7  23029096.568 7  95780944.506 7      3330.818 7        47.569 7                                                                                                                                                                                                                                                                                                                                                                                                                                                                
E05                                                                  27787123.181 9 146022317.886 9       309.406 9        56.450 9  27787123.181 9 146022317.886 9       309.406 9        56.450 9  27787124.122 9 109042643.674 9       231.050 9        56.310 9  27787124.122 9 109042643.674 9       231.050 9        56.310 9  27787124.122 9 111887234.378 9       237.077 9        56.310 9  27787124.122 9 111887234.378 9       237.077 9        56.310 9  27787124.122 9 110464939.026 9       234.064 9        59.320 9  27787124.122 9 110464939.026 9       234.064 9        59.320 9                                                                                                                                                                                                
E12                                                                  25920953.385 9 136215529.420 9      2917.547 9        57.081 9  25920953.385 9 136215529.420 9      2917.547 9        57.081 9  25920950.949 9 101719379.292 9      2178.687 9        56.942 9  25920950.949 9 101719379.292 9      2178.687 9        56.942 9  25920950.949 9 104372928.317 9      2235.523 9        56.942 9  25920950.949 9 104372928.317 9      2235.523 9        56.942 9  25920950.949 9 103046153.804 9      2207.105 9        59.952 9  25920950.949 9 103046153.804 9      2207.105 9        59.952 9                                                                                                                                                                                                
E14                                                                  21765042.840 9 114376072.098 9     -3489.435 9        58.033 9  21765042.840 9 114376072.098 9     -3489.435 9        58.033 9  21765042.065 9  85410700.148 9     -2605.747 9        57.893 9  21765042.065 9  85410700.148 9     -2605.747 9        57.893 9  21765042.065 9  87638805.370 9     -2673.723 9        57.893 9  21765042.065 9  87638805.370 9     -2673.723 9        57.893 9  21765042.065 9  86524752.759 9     -2639.735 9        60.904 9  21765042.065 9  86524752.759 9     -2639.735 9        60.904 9                                                                                                                                                                                                
E31                                                                  24172018.843 9 127024816.365 9       623.604 9        57.706 9  24172018.843 9 127024816.365 9       623.604 9        57.706 9  24172020.061 9  94856198.819 9       465.678 9        57.566 9  24172020.061 9  94856198.819 9       465.678 9        57.566 9  24172020.061 9  97330708.353 9       477.826 9        57.566 9  24172020.061 9  97330708.353 9       477.826 9        57.566 9  24172020.061 9  96093453.586 9       471.752 9        60.576 9  24172020.061 9  96093453.586 9       471.752 9        60.576 9                                                                                                                                                                                                
E26                                                                  26671382.438 9 140159060.709 9     -1659.892 9        56.979 9  26671382.438 9 140159060.709 9     -1659.892 9        56.979 9  26671381.386 9 104664229.518 9     -1239.530 9        56.839 9  26671381.386 9 104664229.518 9     -1239.530 9        56.839 9  26671381.386 9 107394600.723 9     -1271.865 9        56.839 9  26671381.386 9 107394600.723 9     -1271.865 9        56.839 9  26671381.386 9 106029415.120 9     -1255.697 9        59.849 9  26671381.386 9 106029415.120 9     -1255.697 9        59.849 9                                                                                                                                                                                                
E04                                                                  27337669.367 9 143660422.152 9     -2554.764 9        56.584 9  27337669.367 9 143660422.152 9     -2554.764 9        56.584 9  27337668.703 9 107278884.065 9     -1907.778 9        56.444 9  27337668.703 9 107278884.065 9     -1907.778 9        56.444 9  27337668.703 9 110077463.649 9     -1957.546 9        56.444 9  27337668.703 9 110077463.649 9     -1957.546 9        56.444 9  27337668.703 9 108678173.857 9     -1932.662 9        59.455 9  27337668.703 9 108678173.857 9     -1932.662 9        59.455 9                                                                                                                                                                                                
E01                                                                  25623180.696 9 134650723.377 9     -1069.378 9        57.204 9  25623180.696 9 134650723.377 9     -1069.378 9        57.204 9  25623180.752 9 100550865.077 9      -798.561 9        57.064 9  25623180.752 9 100550865.077 9      -798.561 9        57.064 9  25623180.752 9 103173931.122 9      -819.393 9        57.064 9  25623180.752 9 103173931.122 9      -819.393 9        57.064 9  25623180.752 9 101862398.099 9      -808.977 9        60.075 9  25623180.752 9 101862398.099 9      -808.977 9        60.075 9                                                                                                                                                                                                
E09                                                                  26564936.712 9 139599684.640 9     -1676.104 9        56.908 9  26564936.712 9 139599684.640 9     -1676.104 9        56.908 9  26564937.265 9 104246519.924 9     -1251.636 9        56.769 9  26564937.265 9 104246519.924 9     -1251.636 9        56.769 9  26564937.265 9 106965994.356 9     -1284.288 9        56.769 9  26564937.265 9 106965994.356 9     -1284.288 9        56.769 9  26564937.265 9 105606257.140 9     -1267.962 9        59.779 9  26564937.265 9 105606257.140 9     -1267.962 9        59.779 9                                                                                                                                                                                                
E33                                                                  24163103.837 9 126977967.696 9       823.733 9        57.703 9  24163103.837 9 126977967.696 9       823.733 9        57.703 9  24163103.007 9  94821206.384 9       615.125 9        57.563 9  24163103.007 9  94821206.384 9       615.125 9        57.563 9  24163103.007 9  97294803.072 9       631.172 9        57.563 9  24163103.007 9  97294803.072 9       631.172 9        57.563 9  24163103.007 9  96058004.728 9       623.149 9        60.573 9  24163103.007 9  96058004.728 9       623.149 9        60.573 9                                                                                                                                                                                                
E24                                                                  26860582.604 9 141153314.292 9      1690.818 9        56.836 9  26860582.604 9 141153314.292 9      1690.818 9        56.836 9  26860582.106 9 105406693.782 9      1262.624 9        56.696 9  26860582.106 9 105406693.782 9      1262.624 9        56.696 9  26860582.106 9 108156433.620 9      1295.562 9        56.696 9  26860582.106 9 108156433.620 9      1295.562 9        56.696 9  26860582.106 9 106781563.701 9      1279.093 9        59.707 9  26860582.106 9 106781563.701 9      1279.093 9        59.707 9                                                                                                                                                                                                
E10                                                                  27933972.289 9 146794015.158 9      3132.205 9        56.441 9  27933972.289 9 146794015.158 9      3132.205 9        56.441 9  27933972.455 9 109618908.075 9      2338.984 9        56.301 9  27933972.455 9 109618908.075 9      2338.984 9        56.301 9  27933972.455 9 112478531.764 9      2400.001 9        56.301 9  27933972.455 9 112478531.764 9      2400.001 9        56.301 9  27933972.455 9 111048719.920 9      2369.493 9        59.311 9  27933972.455 9 111048719.920 9      2369.493 9        59.311 9                                                                                                                                                                                                
Q02  39477870.210 9 207457608.179 9       916.213 9        55.948 9  39477870.210 9 207457608.179 9       916.213 9        57.453 9  39477870.210 8 207457608.179 8       916.213 8        53.448 8  39477870.210 9 161655279.101 9       713.932 9        54.448 9                                                                                                                                
Q03  39367924.635 9 206879840.281 9      -522.142 9        55.971 9  39367924.635 9 206879840.281 9      -522.142 9        57.476 9  39367924.635 8 206879840.281 8      -522.142 8        53.471 8  39367924.635 9 161205070.349 9      -406.864 9        54.471 9                                                                                                                                
Q04  38198147.133 9 200732618.016 9      -177.369 9        56.228 9  38198147.133 9 200732618.016 9      -177.369 9        57.733 9  38198147.133 8 200732618.016 8      -177.369 8        53.728 8  38198147.133 9 156415027.026 9      -138.210 9        54.728 9                                                                                                                                
Q07  37730951.946 9 198277490.737 9        -4.100 9        56.342 9  37730951.946 9 198277490.737 9        -4.100 9        57.846 9  37730951.946 8 198277490.737 8        -4.100 8        53.842 8  37730951.946 9 154501940.834 9        -3.195 9        54.842 9                                                                                                                                
C03  37055212.604 8 192956216.014 8        34.941 8        51.996 8  37055209.486 8 149205973.617 8        27.019 8        51.996 8  37055211.914 8 156792728.313 8        28.393 8        51.996 8                                                                                                                                  37055211.914 9 149205983.395 9        27.019 9        54.996 9
C28  22150088.687 8 115341324.394 8     -1377.447 8        52.744 8  22150088.687 8  89189228.562 8     -1065.129 8        52.744 8  22150089.886 8  93724279.156 8     -1119.288 8        52.744 8  22150089.886 9  86921710.507 9     -1038.050 9        55.977 9  22150089.886 9 116399507.984 9     -1390.084 9        55.744 9  22150089.886 9  89189233.390 9     -1065.129 9        55.744 9
C07  36277788.605 8 188907965.242 8      -161.692 8        52.178 8  36277784.408 8 146075604.978 8      -125.031 8        52.178 8  36277784.108 8 153503176.844 8      -131.388 8        52.178 8  36277784.108 9 142361817.235 9      -121.852 9        55.977 9  36277784.108 9 190641042.210 9      -163.176 9        55.178 9  36277784.108 9 146075603.771 9      -125.031 9        55.178 9
C02  36968674.939 8 192505591.686 8         5.367 8        52.024 8  36968670.262 8 148857516.024 8         4.150 8        52.024 8  36968674.520 8 156426560.276 8         4.361 8        52.024 8                                                                                                                                  36968674.520 9 148857533.166 9         4.150 9        55.024 9
C16  38136449.512 8 198586500.332 8     -1515.330 8        51.744 8  38136451.640 8 153559687.726 8     -1171.749 8        51.744 8  38136450.261 8 161367801.606 8     -1231.330 8        51.744 8  38136450.261 9 149655622.457 9     -1141.959 9        55.977 9  38136450.261 9 200408398.769 9     -1529.232 9        54.744 9  38136450.261 9 153559682.173 9     -1171.749 9        54.744 9
C10  36473583.316 8 189927519.684 8       -71.223 8        52.133 8  36473582.387 8 146864002.304 8       -55.074 8        52.133 8  36473581.518 8 154331659.760 8       -57.874 8        52.133 8  36473581.518 9 143130168.326 9       -53.674 9        55.977 9  36473581.518 9 191669964.540 9       -71.876 9        55.133 9  36473581.518 9 146863998.804 9       -55.074 9        55.133 9
C09  36691686.306 8 191063239.184 8     -1213.526 8        52.071 8  36691685.346 8 147742212.545 8      -938.376 8        52.071 8  36691684.237 8 155254523.743 8      -986.090 8        52.071 8  36691684.237 9 143986050.246 9      -914.519 9        55.977 9  36691684.237 9 192816102.068 9     -1224.660 9        55.071 9  36691684.237 9 147742208.078 9      -938.376 9        55.071 9
C04  40357348.773 8 210151305.592 8        25.671 8        51.275 8  40357344.486 8 162502302.920 8        19.850 8        51.275 8  40357347.034 8 170765142.665 8        20.860 8        51.275 8                                                                                                                                  40357347.034 9 162502313.181 9        19.850 9        54.275 9
C06  37817612.924 8 196926234.552 8     -1504.831 8        51.806 8  37817609.806 8 152275843.783 8     -1163.631 8        51.806 8  37817610.346 8 160018685.581 8     -1222.798 8        51.806 8  37817610.346 9 148404426.144 9     -1134.047 9        55.977 9  37817610.346 9 198732883.705 9     -1518.637 9        54.806 9  37817610.346 9 152275845.956 9     -1163.631 9        54.806 9
C30  25795205.731 8 134322405.390 8      3132.606 8        51.427 8  25795205.731 8 103866604.430 8      2422.330 8        51.427 8  25795208.639 8 109147969.503 8      2545.499 8        51.427 8  25795208.639 9 101225939.458 9      2360.745 9        55.977 9  25795208.639 9 135554736.318 9      3161.345 9        54.427 9  25795208.639 9 103866616.140 9      2422.330 9        54.427 9
> 2023 01 08 10 45  0.0000000  0 42       0.000000000000
G01  20873739.577 9 109692241.841 9      1126.616 9        55.784 9                                                                  20873739.577 8 109692241.841 8      1126.616 8        52.784 8                                                                  20873740.481 8  85474477.860 8       877.882 8        51.284 8  20873740.481 8  85474477.860 8       877.882 8        49.784 8  20873739.577 9  81913037.738 9       841.304 9        57.884 9
G07  20326982.633 9 106819014.705 9     -1220.907 9        56.009 9                                                                  20326982.633 8 106819014.705 8     -1220.907 8        53.009 8                                                                  20326980.465 8  83235586.999 8      -951.356 8        51.509 8  20326980.465 8  83235586.999 8      -951.356 8        50.009 8  20326982.633 9  79767446.046 9      -911.716 9        58.109 9
G13  23921466.651 9 125708155.710 9      1028.249 9        54.579 9                                                                  23921466.651 8 125708155.710 8      1028.249 8        51.579 8                                                                  23921464.393 8  97954397.801 8       801.233 8        50.079 8  23921464.393 8  97954397.801 8       801.233 8        48.579 8  23921466.651 9  93872973.420 9       767.848 9        56.679 9
G17  21492595.499 9 112944351.660 9      1609.616 9        55.475 9                                                                  21492595.499 8 112944351.660 8      1609.616 8        52.475 8                                                                  21492593.332 8  88008576.833 8      1254.246 8        50.975 8  21492593.332 8  88008576.833 8      1254.246 8        49.475 8  21492595.499 9  84341561.304 9      1201.986 9        57.575 9
G09  25007913.406 9 131417471.942 9     -2970.847 9        54.268 9                                                                  25007913.406 8 131417471.942 8     -2970.847 8        51.268 8                                                                  25007913.586 8 102403225.630 8     -2314.945 8        49.768 8  25007913.586 8 102403225.630 8     -2314.945 8        48.268 8  25007913.406 9  98136423.853 9     -2218.489 9        56.368 9
G21  21814890.631 9 114638024.006 9     -1611.129 9        55.411 9                                                                  21814890.631 8 114638024.006 8     -1611.129 8        52.411 8                                                                  21814888.644 8  89328322.258 8     -1255.425 8        50.911 8  21814888.644 8  89328322.258 8     -1255.425 8        49.411 8  21814890.631 9  85606316.628 9     -1203.116 9        57.511 9
G08  23889813.472 9 125541817.132 9     -3178.773 9        54.651 9                                                                  23889813.472 8 125541817.132 8     -3178.773 8        51.651 8                                                                  23889814.465 8  97824796.638 8     -2476.966 8        50.151 8  23889814.465 8  97824796.638 8     -2476.966 8        48.651 8  23889813.472 9  93748759.546 9     -2373.759 9        56.751 9
G30  20602701.798 9 108267928.699 9      1057.439 9        55.993 9                                                                  20602701.798 8 108267928.699 8      1057.439 8        52.993 8                                                                  20602702.521 8  84364622.724 8       823.979 8        51.493 8  20602702.521 8  84364622.724 8       823.979 8        49.993 8  20602701.798 9  80849427.275 9       789.646 9        58.093 9
G14  21731350.855 9 114199019.521 9      1562.436 9        55.469 9                                                                  21731350.855 8 114199019.521 8      1562.436 8        52.469 8                                                                  21731349.319 8  88986242.690 8      1217.483 8        50.969 8  21731349.319 8  88986242.690 8      1217.483 8        49.469 8  21731350.855 9  85278488.603 9      1166.754 9        57.569 9
G19  24531904.240 9 128916026.890 9      3062.854 9        54.381 9                                                                  24531904.240 8 128916026.890 8      3062.854 8        51.381 8                                                                  24531901.259 8 100454034.723 8      2386.639 8        49.881 8  24531901.259 8 100454034.723 8      2386.639 8        48.381 8  24531904.240 9  96268461.639 9      2287.196 9        56.481 9
R11  23132285.989 8 123611922.732 8     -2677.452 8        53.544 8  23132285.989 8 123611922.732 8     -2677.452 8        53.544 8  23132285.989 7  96142606.570 7     -2082.463 7        47.544 7  23132285.989 7  96142606.570 7     -2082.463 7        47.544 7                                                                                                                                                                                                                                                                                                                                                                                                                                                                
R22  20539074.447 9 109638974.224 9     -2679.061 9        54.570 9  20539074.447 9 109638974.224 9     -2679.061 9        54.570 9  20539074.447 8  85274757.730 8     -2083.714 8        48.570 8  20539074.447 8  85274757.730 8     -2083.714 8        48.570 8                                                                                                                                                                                                                                                                                                                                                                                                                                                                
R12  19956684.908 9 106605028.693 9       -87.592 9        54.826 9  19956684.908 9 106605028.693 9       -87.592 9        54.826 9  19956684.908 8  82915022.317 8       -68.127 8        48.826 8  19956684.908 8  82915022.317 8       -68.127 8        48.826 8                                                                                                                                                                                                                                                                                                                                                                                                                                                                
R03  24092530.580 8 128969202.524 8     -2236.741 8        53.185 8  24092530.580 8 128969202.524 8     -2236.741 8        53.185 8  24092530.580 7 100309379.741 7     -1739.687 7        47.185 7  24092530.580 7 100309379.741 7     -1739.687 7        47.185 7                                                                                                                                                                                                                                                                                                                                                                                                                                                                
R23  19559571.329 9 104630517.575 9      1910.985 9        55.011 9  19559571.329 9 104630517.575 9      1910.985 9        55.011 9  19559571.329 8  81379291.447 8      1486.322 8        49.011 8  19559571.329 8  81379291.447 8      1486.322 8        49.011 8                                                                                                                                                                                                                                                                                                                                                                                                                                                                
R13  20825766.303 9 111208430.167 9      2538.785 9        54.462 9  20825766.303 9 111208430.167 9      2538.785 9        54.462 9  20825766.303 8  86495445.686 8      1974.610 8        48.462 8  20825766.303 8  86495445.686 8      1974.610 8        48.462 8                                                                                                                                                                                                                                                                                                                                                                                                                                                                
R24  22790749.286 8 121872378.619 8      4212.577 8        53.660 8  22790749.286 8 121872378.619 8      4212.577 8        53.660 8  22790749.286 7  94789627.815 7      3276.449 7        47.660 7  22790749.286 7  94789627.815 7      3276.449 7        47.660 7                                                                                                                                                                                                                                                                                                                                                                                                                                                                
E05                                                                  27773062.318 9 145948427.551 9       183.301 9        56.454 9  27773062.318 9 145948427.551 9       183.301 9        56.454 9  27773063.259 9 108987465.826 9       136.881 9        56.314 9  27773063.259 9 108987465.826 9       136.881 9        56.314 9  27773063.259 9 111830617.109 9       140.452 9        56.314 9  27773063.259 9 111830617.109 9       140.452 9        56.314 9  27773063.259 9 110409041.468 9       138.666 9        59.325 9  27773063.259 9 110409041.468 9       138.666 9        59.325 9                                                                                                                                                                                                
E12                                                                  25755746.000 9 135347358.749 9      2869.181 9        57.137 9  25755746.000 9 135347358.749 9      2869.181 9        57.137 9  25755743.564 9 101071070.025 9      2142.570 9        56.997 9  25755743.564 9 101071070.025 9      2142.570 9        56.997 9  25755743.564 9 103707706.634 9      2198.463 9        56.997 9  25755743.564 9 103707706.634 9      2198.463 9        56.997 9  25755743.564 9 102389388.329 9      2170.516 9        60.008 9  25755743.564 9 102389388.329 9      2170.516 9        60.008 9                                                                                                                                                                                                
E14                                                                  21969973.825 9 115452991.693 9     -3688.024 9        57.952 9  21969973.825 9 115452991.693 9     -3688.024 9        57.952 9  21969973.050 9  86214893.352 9     -2754.044 9        57.812 9  21969973.050 9  86214893.352 9     -2754.044 9        57.812 9  21969973.050 9  88463977.526 9     -2825.889 9        57.812 9  21969973.050 9  88463977.526 9     -2825.889 9        57.812 9  21969973.050 9  87339435.439 9     -2789.966 9        60.822 9  21969973.050 9  87339435.439 9     -2789.966 9        60.822 9                                                                                                                                                                                                
E31                                                                  24136852.187 9 126840014.340 9       608.083 9        57.718 9  24136852.187 9 126840014.340 9       608.083 9        57.718 9  24136853.405 9  94718197.307 9       454.088 9        57.579 9  24136853.405 9  94718197.307 9       454.088 9        57.579 9  24136853.405 9  97189106.802 9       465.933 9        57.579 9  24136853.405 9  97189106.802 9       465.933 9        57.579 9  24136853.405 9  95953652.055 9       460.010 9        60.589 9  24136853.405 9  95953652.055 9       460.010 9        60.589 9                                                                                                                                                                                                
E26                                                                  26769414.469 9 140674222.505 9     -1773.739 9        56.946 9  26769414.469 9 140674222.505 9     -1773.739 9        56.946 9  26769413.417 9 105048928.262 9     -1324.545 9        56.806 9  26769413.417 9 105048928.262 9     -1324.545 9        56.806 9  26769413.417 9 107789335.086 9     -1359.099 9        56.806 9  26769413.417 9 107789335.086 9     -1359.099 9        56.806 9  26769413.417 9 106419131.674 9     -1341.822 9        59.817 9  26769413.417 9 106419131.674 9     -1341.822 9        59.817 9                                                                                                                                                                                                
E04                                                                  27482704.103 9 144422584.834 9     -2525.311 9        56.538 9  27482704.103 9 144422584.834 9     -2525.311 9        56.538 9  27482703.439 9 107848031.521 9     -1885.784 9        56.399 9  27482703.439 9 107848031.521 9     -1885.784 9        56.399 9  27482703.439 9 110661458.431 9     -1934.979 9        56.399 9  27482703.439 9 110661458.431 9     -1934.979 9        56.399 9  27482703.439 9 109254744.976 9     -1910.381 9        59.409 9  27482703.439 9 109254744.976 9     -1910.381 9        59.409 9                                                                                                                                                                                                
E01                                                                  25685056.294 9 134975881.839 9     -1098.705 9        57.183 9  25685056.294 9 134975881.839 9     -1098.705 9        57.183 9  25685056.350 9 100793678.214 9      -820.461 9        57.043 9  25685056.350 9 100793678.214 9      -820.461 9        57.043 9  25685056.350 9 103423078.515 9      -841.865 9        57.043 9  25685056.350 9 103423078.515 9      -841.865 9        57.043 9  25685056.350 9 102108378.364 9      -831.163 9        60.054 9  25685056.350 9 102108378.364 9      -831.163 9        60.054 9                                                                                                                                                                                                
E09                                                                  26662826.151 9 140114097.114 9     -1752.254 9        56.876 9  26662826.151 9 140114097.114 9     -1752.254 9        56.876 9  26662826.704 9 104630659.109 9     -1308.502 9        56.736 9  26662826.704 9 104630659.109 9     -1308.502 9        56.736 9  26662826.704 9 107360154.564 9     -1342.637 9        56.736 9  26662826.704 9 107360154.564 9     -1342.637 9        56.736 9  26662826.704 9 105995406.836 9     -1325.569 9        59.747 9  26662826.704 9 105995406.836 9     -1325.569 9        59.747 9                                                                                                                                                                                                
E33                                                                  24120130.929 9 126752143.538 9       681.420 9        57.718 9  24120130.929 9 126752143.538 9       681.420 9        57.718 9  24120130.098 9  94652571.461 9       508.852 9        57.578 9  24120130.098 9  94652571.461 9       508.852 9        57.578 9  24120130.098 9  97121768.977 9       522.127 9        57.578 9  24120130.098 9  97121768.977 9       522.127 9        57.578 9  24120130.098 9  95887170.219 9       515.490 9        60.589 9  24120130.098 9  95887170.219 9       515.490 9        60.589 9                                                                                                                                                                                                
E24                                                                  26763668.197 9 140644025.647 9      1704.424 9        56.868 9  26763668.197 9 140644025.647 9      1704.424 9        56.868 9  26763667.699 9 105026380.833 9      1272.784 9        56.728 9  26763667.699 9 105026380.833 9      1272.784 9        56.728 9  26763667.699 9 107766199.463 9      1305.987 9        56.728 9  26763667.699 9 107766199.463 9      1305.987 9        56.728 9  26763667.699 9 106396290.148 9      1289.386 9        59.738 9  26763667.699 9 106396290.148 9      1289.386 9        59.738 9                                                                                                                                                                                                
E10                                                                  27754990.601 9 145853460.039 9      3137.169 9        56.497 9  27754990.601 9 145853460.039 9      3137.169 9        56.497 9  27754990.767 9 108916545.486 9      2342.691 9        56.357 9  27754990.767 9 108916545.486 9      2342.691 9        56.357 9  27754990.767 9 111757846.673 9      2403.805 9        56.357 9  27754990.767 9 111757846.673 9      2403.805 9        56.357 9  27754990.767 9 110337196.080 9      2373.248 9        59.367 9  27754990.767 9 110337196.080 9      2373.248 9        59.367 9                                                                                                                                                                                                
Q02  39425237.271 9 207181020.214 9       927.529 9        55.960 9  39425237.271 9 207181020.214 9       927.529 9        57.464 9  39425237.271 8 207181020.214 8       927.529 8        53.460 8  39425237.271 9 161439756.011 9       722.750 9        54.460 9                                                                                                                                
Q03  39397878.765 9 207037250.299 9      -527.120 9        55.964 9  39397878.765 9 207037250.299 9      -527.120 9        57.469 9  39397878.765 8 207037250.299 8      -527.120 8        53.464 8  39397878.765 9 161327727.506 9      -410.743 9        54.464 9                                                                                                                                
Q04  38207976.976 9 200784274.191 9      -167.056 9        56.226 9  38207976.976 9 200784274.191 9      -167.056 9        57.730 9  38207976.976 8 200784274.191 8      -167.056 8        53.726 8  38207976.976 9 156455278.590 9      -130.173 9        54.726 9                                                                                                                                
Q07  37731184.403 9 198278712.309 9        -4.043 9        56.342 9  37731184.403 9 198278712.309 9        -4.043 9        57.846 9  37731184.403 8 198278712.309 8        -4.043 8        53.842 8  37731184.403 9 154502892.708 9        -3.151 9        54.842 9                                                                                                                                
C03  37053183.045 8 192945647.570 8        35.512 8        51.996 8  37053179.927 8 149197801.425 8        27.460 8        51.996 8  37053182.356 8 156784140.586 8        28.857 8        51.996 8                                                                                                                                  37053182.356 9 149197811.203 9        27.460 9        54.996 9
C28  22233084.837 8 115773507.127 8     -1502.799 8        52.712 8  22233084.837 8  89523419.666 8     -1162.060 8        52.712 8  22233086.036 8  94075463.028 8     -1221.148 8        52.712 8  22233086.036 9  87247405.228 9     -1132.516 9        55.977 9  22233086.036 9 116835655.696 9     -1516.586 9        55.712 9  22233086.036 9  89523424.494 9     -1162.060 9        55.712 9
C07  36286730.091 8 188954525.906 8      -148.635 8        52.176 8  36286725.894 8 146111608.637 8      -114.934 8        52.176 8  36286725.594 8 153541011.197 8      -120.778 8        52.176 8  36286725.594 9 142396905.546 9      -112.012 9        55.977 9  36286725.594 9 190688030.035 9      -149.998 9        55.176 9  36286725.594 9 146111607.430 9      -114.934 9        55.176 9
C02  36968351.695 8 192503908.469 8         5.854 8        52.024 8  36968347.018 8 148856214.454 8         4.527 8        52.024 8  36968351.275 8 156425192.524 8         4.757 8        52.024 8                                                                                                                                  36968351.275 9 148856231.595 9         4.527 9        55.024 9
C05  38003332.576 8 197893325.516 8         4.208 8        51.762 8  38003329.788 8 153023661.191 8         3.254 8        51.762 8  38003332.576 8 160804537.117 8         3.420 8        51.762 8                                                                                                                                  38003332.576 9 153023672.418 9         3.254 9        54.762 9
C10  36477297.338 8 189946859.572 8       -57.611 8        52.132 8  36477296.409 8 146878957.133 8       -44.549 8        52.132 8  36477295.540 8 154347375.003 8       -46.814 8        52.132 8  36477295.540 9 143144742.946 9       -43.416 9        55.977 9  36477295.540 9 191689481.859 9       -58.140 9        55.132 9  36477295.540 9 146878953.632 9       -44.549 9        55.132 9
C09  36762789.668 8 191433493.052 8     -1254.640 8        52.054 8  36762788.709 8 148028516.322 8      -970.167 8        52.054 8  36762787.600 8 155555385.340 8     -1019.498 8        52.054 8  36762787.600 9 144265075.113 9      -945.502 9        55.977 9  36762787.600 9 193189752.761 9     -1266.151 9        55.054 9  36762787.600 9 148028511.855 9      -970.167 9        55.054 9
C04  40355868.828 8 210143599.129 8        25.703 8        51.276 8  40355864.541 8 162496343.795 8        19.875 8        51.276 8  40355867.089 8 170758880.533 8        20.886 8        51.276 8                                                                                                                                  40355867.089 9 162496354.055 9        19.875 9        54.276 9
C06  37905068.830 8 197381640.400 8     -1530.941 8        51.786 8  37905065.712 8 152627992.474 8     -1183.821 8        51.786 8  37905066.251 8 160388740.137 8     -1244.015 8        51.786 8  37905066.251 9 148747621.901 9     -1153.724 9        55.977 9  37905066.251 9 199192467.589 9     -1544.987 9        54.786 9  37905066.251 9 152627994.646 9     -1183.821 9        54.786 9
C30  25616020.449 8 133389340.602 8      3086.976 8        51.488 8  25616020.449 8 103145099.548 8      2387.046 8        51.488 8  25616023.357 8 108389777.932 8      2508.421 8        51.488 8  25616023.357 9 100522777.921 9      2326.358 9        55.977 9  25616023.357 9 134613111.302 9      3115.297 9        54.488 9  25616023.357 9 103145111.258 9      2387.046 9        54.488 9
> 2023 01 08 10 50  0.0000000  0 40       0.000000000000
G01  20815398.396 9 109385656.863 9       916.385 9        55.808 9                                                                  20815398.396 8 109385656.863 8       916.385 8        52.808 8                                                                  20815399.299 8  85235580.474 8       714.066 8        51.308 8  20815399.299 8  85235580.474 8       714.066 8        49.808 8  20815398.396 9  81684094.410 9       684.313 9        57.908 9
G07  20401830.084 9 107212340.713 9     -1400.938 9        55.977 9                                                                  20401830.084 8 107212340.713 8     -1400.938 8        52.977 8                                                                  20401827.916 8  83542074.796 8     -1091.640 8        51.477 8  20401827.916 8  83542074.796 8     -1091.640 8        49.977 8  20401830.084 9  80061163.519 9     -1046.155 9        58.077 9
G13  23867748.714 9 125425866.048 9       853.445 9        54.598 9                                                                  23867748.714 8 125425866.048 8       853.445 8        51.598 8                                                                  23867746.456 8  97734431.830 8       665.022 8        50.098 8  23867746.456 8  97734431.830 8       665.022 8        48.598 8  23867748.714 9  93662172.698 9       637.313 9        56.698 9
G17  21404240.594 9 112480043.500 9      1485.854 9        55.510 9                                                                  21404240.594 8 112480043.500 8      1485.854 8        52.510 8                                                                  21404238.427 8  87646778.267 8      1157.809 8        51.010 8  21404238.427 8  87646778.267 8      1157.809 8        49.510 8  21404240.594 9  83994837.679 9      1109.567 9        57.610 9
G09  25175834.717 9 132299904.387 9     -2910.757 9        54.209 9                                                                  25175834.717 8 132299904.387 8     -2910.757 8        51.209 8                                                                  25175834.897 8 103090835.327 8     -2268.123 8        49.709 8  25175834.897 8 103090835.327 8     -2268.123 8        48.209 8  25175834.717 9  98795383.146 9     -2173.618 9        56.309 9
G21  21911806.451 9 115147320.080 9     -1783.174 9        55.372 9                                                                  21911806.451 8 115147320.080 8     -1783.174 8        52.372 8                                                                  21911804.464 8  89725176.341 8     -1389.487 8        50.872 8  21911804.464 8  89725176.341 8     -1389.487 8        49.372 8  21911806.451 9  85986635.124 9     -1331.591 9        57.472 9
G08  24071074.577 9 126494350.666 9     -3170.611 9        54.585 9                                                                  24071074.577 8 126494350.666 8     -3170.611 8        51.585 8                                                                  24071075.570 8  98567030.561 8     -2470.606 8        50.085 8  24071075.570 8  98567030.561 8     -2470.606 8        48.585 8  24071074.577 9  94460067.056 9     -2367.664 9        56.685 9
G30  20547240.410 9 107976477.138 9       884.669 9        56.017 9                                                                  20547240.410 8 107976477.138 8       884.669 8        53.017 8                                                                  20547241.133 8  84137517.612 8       689.352 8        51.517 8  20547241.133 8  84137517.612 8       689.352 8        50.017 8  20547240.410 9  80631784.876 9       660.629 9        58.117 9
G14  21642945.084 9 113734444.063 9      1534.418 9        55.504 9                                                                  21642945.084 8 113734444.063 8      1534.418 8        52.504 8                                                                  21642943.549 8  88624235.840 8      1195.651 8        51.004 8  21642943.549 8  88624235.840 8      1195.651 8        49.504 8  21642945.084 9  84931565.372 9      1145.832 9        57.604 9
G19  24358687.260 9 128005765.518 9      3004.960 9        54.443 9                                                                  24358687.260 8 128005765.518 8      3004.960 8        51.443 8                                                                  24358684.279 8  99744740.148 8      2341.528 8        49.943 8  24358684.279 8  99744740.148 8      2341.528 8        48.443 8  24358687.260 9  95588721.004 9      2243.964 9        56.543 9
R11  23285386.763 8 124430046.852 8     -2776.426 8        53.487 8  23285386.763 8 124430046.852 8     -2776.426 8        53.487 8  23285386.763 7  96778925.329 7     -2159.442 7        47.487 7  23285386.763 7  96778925.329 7     -2159.442 7        47.487 7                                                                                                                                                                                                                                                                                                                                                                                                                                                                
R22  20694859.022 9 110470562.866 9     -2862.702 9        54.504 9  20694859.022 9 110470562.866 9     -2862.702 9        54.504 9  20694859.022 8  85921548.896 8     -2226.546 8        48.504 8  20694859.022 8  85921548.896 8     -2226.546 8        48.504 8                                                                                                                                                                                                                                                                                                                                                                                                                                                                
R12  19965500.514 9 106652120.077 9      -227.373 9        54.822 9  19965500.514 9 106652120.077 9      -227.373 9        54.822 9  19965500.514 8  82951648.948 8      -176.846 8        48.822 8  19965500.514 8  82951648.948 8      -176.846 8        48.822 8                                                                                                                                                                                                                                                                                                                                                                                                                                                                
R23  19459300.500 9 104094136.254 9      1663.961 9        55.056 9  19459300.500 9 104094136.254 9      1663.961 9        55.056 9  19459300.500 8  80962105.975 8      1294.192 8        49.056 8  19459300.500 8  80962105.975 8      1294.192 8        49.056 8                                                                                                                                                                                                                                                                                                                                                                                                                                                                
R13  20684601.753 9 110454619.347 9      2485.109 9        54.522 9  20684601.753 9 110454619.347 9      2485.109 9        54.522 9  20684601.753 8  85909148.381 8      1932.863 8        48.522 8  20684601.753 8  85909148.381 8      1932.863 8        48.522 8                                                                                                                                                                                                                                                                                                                                                                                                                                                                
R24  22556649.005 8 120620539.212 8      4131.094 8        53.749 8  22556649.005 8 120620539.212 8      4131.094 8        53.749 8  22556649.005 7  93815974.943 7      3213.073 7        47.749 7  22556649.005 7  93815974.943 7      3213.073 7        47.749 7                                                                                                                                                                                                                                                                                                                                                                                                                                                                
E05                                                                  27766178.252 9 145912251.540 9        58.050 9        56.456 9  27766178.252 9 145912251.540 9        58.050 9        56.456 9  27766179.193 9 108960451.272 9        43.349 9        56.316 9  27766179.193 9 108960451.272 9        43.349 9        56.316 9  27766179.193 9 111802897.827 9        44.480 9        56.316 9  27766179.193 9 111802897.827 9        44.480 9        56.316 9  27766179.193 9 110381674.550 9        43.915 9        59.327 9  27766179.193 9 110381674.550 9        43.915 9        59.327 9                                                                                                                                                                                                
E12                                                                  25593483.474 9 134494663.419 9      2814.392 9        57.192 9  25593483.474 9 134494663.419 9      2814.392 9        57.192 9  25593481.037 9 100434317.019 9      2101.656 9        57.052 9  25593481.037 9 100434317.019 9      2101.656 9        57.052 9  25593481.037 9 103054342.680 9      2156.482 9        57.052 9  25593481.037 9 103054342.680 9      2156.482 9        57.052 9  25593481.037 9 101744329.849 9      2129.069 9        60.063 9  25593481.037 9 101744329.849 9      2129.069 9        60.063 9                                                                                                                                                                                                
E31                                                                  24102629.384 9 126660172.301 9       590.507 9        57.731 9  24102629.384 9 126660172.301 9       590.507 9        57.731 9  24102630.603 9  94583899.680 9       440.963 9        57.591 9  24102630.603 9  94583899.680 9       440.963 9        57.591 9  24102630.603 9  97051305.759 9       452.466 9        57.591 9  24102630.603 9  97051305.759 9       452.466 9        57.591 9  24102630.603 9  95817602.720 9       446.715 9        60.601 9  24102630.603 9  95817602.720 9       446.715 9        60.601 9                                                                                                                                                                                                
E26                                                                  26873808.894 9 141222818.914 9     -1882.745 9        56.912 9  26873808.894 9 141222818.914 9     -1882.745 9        56.912 9  26873807.842 9 105458594.411 9     -1405.946 9        56.772 9  26873807.842 9 105458594.411 9     -1405.946 9        56.772 9  26873807.842 9 108209688.178 9     -1442.623 9        56.772 9  26873807.842 9 108209688.178 9     -1442.623 9        56.772 9  26873807.842 9 106834141.295 9     -1424.284 9        59.782 9  26873807.842 9 106834141.295 9     -1424.284 9        59.782 9                                                                                                                                                                                                
E04                                                                  27625886.426 9 145175013.017 9     -2489.893 9        56.493 9  27625886.426 9 145175013.017 9     -2489.893 9        56.493 9  27625885.761 9 108409909.710 9     -1859.336 9        56.353 9  27625885.761 9 108409909.710 9     -1859.336 9        56.353 9  27625885.761 9 111237994.312 9     -1907.840 9        56.353 9  27625885.761 9 111237994.312 9     -1907.840 9        56.353 9  27625885.761 9 109823952.011 9     -1883.588 9        59.364 9  27625885.761 9 109823952.011 9     -1883.588 9        59.364 9                                                                                                                                                                                                
E01                                                                  25748667.239 9 135310159.610 9     -1130.173 9        57.161 9  25748667.239 9 135310159.610 9     -1130.173 9        57.161 9  25748667.294 9 101043301.225 9      -843.960 9        57.022 9  25748667.294 9 101043301.225 9      -843.960 9        57.022 9  25748667.294 9 103679213.431 9      -865.976 9        57.022 9  25748667.294 9 103679213.431 9      -865.976 9        57.022 9  25748667.294 9 102361257.328 9      -854.968 9        60.032 9  25748667.294 9 102361257.328 9      -854.968 9        60.032 9                                                                                                                                                                                                
E09                                                                  26764880.809 9 140650397.965 9     -1822.000 9        56.843 9  26764880.809 9 140650397.965 9     -1822.000 9        56.843 9  26764881.363 9 105031143.511 9     -1360.584 9        56.703 9  26764881.363 9 105031143.511 9     -1360.584 9        56.703 9  26764881.363 9 107771086.385 9     -1396.078 9        56.703 9  26764881.363 9 107771086.385 9     -1396.078 9        56.703 9  26764881.363 9 106401114.948 9     -1378.331 9        59.713 9  26764881.363 9 106401114.948 9     -1378.331 9        59.713 9                                                                                                                                                                                                
E33                                                                  24085336.228 9 126569296.148 9       537.306 9        57.731 9  24085336.228 9 126569296.148 9       537.306 9        57.731 9  24085335.397 9  94516029.579 9       401.235 9        57.591 9  24085335.397 9  94516029.579 9       401.235 9        57.591 9  24085335.397 9  96981665.133 9       411.702 9        57.591 9  24085335.397 9  96981665.133 9       411.702 9        57.591 9  24085335.397 9  95748847.356 9       406.469 9        60.601 9  24085335.397 9  95748847.356 9       406.469 9        60.601 9                                                                                                                                                                                                
E24                                                                  26665980.916 9 140130675.515 9      1717.863 9        56.900 9  26665980.916 9 140130675.515 9      1717.863 9        56.900 9  26665980.417 9 104643034.955 9      1282.820 9        56.760 9  26665980.417 9 104643034.955 9      1282.820 9        56.760 9  26665980.417 9 107372853.258 9      1316.285 9        56.760 9  26665980.417 9 107372853.258 9      1316.285 9        56.760 9  26665980.417 9 106007944.107 9      1299.552 9        59.771 9  26665980.417 9 106007944.107 9      1299.552 9        59.771 9                                                                                                                                                                                                
E10                                                                  27575895.832 9 144912310.673 9      3136.159 9        56.554 9  27575895.832 9 144912310.673 9      3136.159 9        56.554 9  27575895.998 9 108213739.141 9      2341.937 9        56.414 9  27575895.998 9 108213739.141 9      2341.937 9        56.414 9  27575895.998 9 111036706.249 9      2403.031 9        56.414 9  27575895.998 9 111036706.249 9      2403.031 9        56.414 9  27575895.998 9 109625222.695 9      2372.484 9        59.424 9  27575895.998 9 109625222.695 9      2372.484 9        59.424 9                                                                                                                                                                                                
Q02  39371989.185 9 206901199.635 9       937.760 9        55.971 9  39371989.185 9 206901199.635 9       937.760 9        57.476 9  39371989.185 8 206901199.635 8       937.760 8        53.471 8  39371989.185 9 161221714.002 9       730.722 9        54.471 9                                                                                                                                
Q03  39428092.991 9 207196027.127 9      -531.251 9        55.958 9  39428092.991 9 207196027.127 9      -531.251 9        57.463 9  39428092.991 8 207196027.127 8      -531.251 8        53.458 8  39428092.991 9 161451449.709 9      -413.962 9        54.458 9                                                                                                                                
Q04  38217226.963 9 200832883.200 9      -157.060 9        56.224 9  38217226.963 9 200832883.200 9      -157.060 9        57.728 9  38217226.963 8 200832883.200 8      -157.060 8        53.724 8  38217226.963 9 156493155.740 9      -122.384 9        54.724 9                                                                                                                                
Q07  37731413.550 9 198279916.484 9        -3.984 9        56.342 9  37731413.550 9 198279916.484 9        -3.984 9        57.846 9  37731413.550 8 198279916.484 8        -3.984 8        53.842 8  37731413.550 9 154503831.026 9        -3.105 9        54.842 9                                                                                                                                
C03  37051121.115 8 192934910.557 8        36.065 8        51.997 8  37051117.997 8 149189498.886 8        27.888 8        51.997 8  37051120.425 8 156775415.884 8        29.306 8        51.997 8                                                                                                                                  37051120.425 9 149189508.664 9        27.888 9        54.997 9
C28  22323131.980 8 116242406.229 8     -1622.180 8        52.677 8  22323131.980 8  89886002.195 8     -1254.373 8        52.677 8  22323133.179 8  94456481.957 8     -1318.154 8        52.677 8  22323133.179 9  87600769.557 9     -1222.482 9        55.977 9  22323133.179 9 117308856.624 9     -1637.063 9        55.677 9  22323133.179 9  89886007.024 9     -1254.373 9        55.677 9
C07  36294906.518 8 188997102.705 8      -135.143 8        52.174 8  36294902.321 8 146144531.719 8      -104.501 8        52.174 8  36294902.021 8 153575608.334 8      -109.815 8        52.174 8  36294902.021 9 142428991.600 9      -101.844 9        55.977 9  36294902.021 9 190730997.447 9      -136.383 9        55.174 9  36294902.021 9 146144530.512 9      -104.501 9        55.174 9
C02  36968000.426 8 192502079.318 8         6.340 8        52.024 8  36967995.749 8 148854800.039 8         4.902 8        52.024 8  36968000.006 8 156423706.189 8         5.151 8        52.024 8                                                                                                                                  36968000.006 9 148854817.180 9         4.902 9        55.024 9
C05  38003065.194 8 197891933.185 8         5.074 8        51.762 8  38003062.406 8 153022584.552 8         3.923 8        51.762 8  38003065.194 8 160803405.733 8         4.123 8        51.762 8                                                                                                                                  38003065.194 9 153022595.778 9         3.923 9        54.762 9
C10  36480210.601 8 189962029.697 8       -43.433 8        52.131 8  36480209.672 8 146890687.635 8       -33.585 8        52.131 8  36480208.803 8 154359701.972 8       -35.293 8        52.131 8  36480208.803 9 143156175.216 9       -32.732 9        55.977 9  36480208.803 9 191704791.159 9       -43.832 9        55.131 9  36480208.803 9 146890684.135 9       -33.585 9        55.131 9
C09  36836227.618 8 191815903.725 8     -1294.558 8        52.037 8  36836226.658 8 148324220.512 8     -1001.034 8        52.037 8  36836225.549 8 155866125.336 8     -1051.935 8        52.037 8  36836225.549 9 144553261.400 9      -975.584 9        55.977 9  36836225.549 9 193575671.788 9     -1306.435 9        55.037 9  36836225.549 9 148324216.045 9     -1001.034 9        55.037 9
C04  40354387.401 8 210135884.948 8        25.722 8        51.276 8  40354383.114 8 162490378.701 8        19.890 8        51.276 8  40354385.662 8 170752612.129 8        20.902 8        51.276 8                                                                                                                                  40354385.662 9 162490388.961 9        19.890 9        54.276 9
C06  37993982.342 8 197844636.394 8     -1555.423 8        51.766 8  37993979.225 8 152986010.346 8     -1202.752 8        51.766 8  37993979.764 8 160764962.307 8     -1263.908 8        51.766 8  37993979.764 9 149096537.624 9     -1172.173 9        55.977 9  37993979.764 9 199659711.253 9     -1569.693 9        54.766 9  37993979.764 9 152986012.518 9     -1202.752 9        54.766 9
C30  25439608.557 8 132470717.589 8      3036.354 8        51.548 8  25439608.557 8 102434761.963 8      2347.902 8        51.548 8  25439611.465 8 107643321.486 8      2467.287 8        51.548 8  25439611.465 9  99830499.765 9      2288.209 9        55.977 9  25439611.465 9 133686060.555 9      3064.211 9        54.548 9  25439611.465 9 102434773.672 9      2347.902 9        54.548 9
> 2023 01 08 10 55  0.0000000  0 40       0.000000000000
G01  20769203.859 9 109142902.932 9       701.240 9        55.827 9                                                                  20769203.859 8 109142902.932 8       701.240 8        52.827 8                                                                  20769204.762 8  85046421.567 8       546.421 8        51.327 8  20769204.762 8  85046421.567 8       546.421 8        49.827 8  20769203.859 9  81502817.124 9       523.653 9        57.927 9
G07  20486891.451 9 107659341.214 9     -1578.607 9        55.941 9                                                                  20486891.451 8 107659341.214 8     -1578.607 8        52.941 8                                                                  20486889.283 8  83890386.875 8     -1230.083 8        51.441 8  20486889.283 8  83890386.875 8     -1230.083 8        49.941 8  20486891.451 9  80394962.595 9     -1178.830 9        58.041 9
G13  23824042.780 9 125196189.815 9       677.625 9        54.614 9                                                                  23824042.780 8 125196189.815 8       677.625 8        51.614 8                                                                  23824040.522 8  97555463.337 8       528.019 8        50.114 8  23824040.522 8  97555463.337 8       528.019 8        48.614 8  23824042.780 9  93490661.225 9       506.018 9        56.714 9
G17  21322931.887 9 112052763.359 9      1362.841 9        55.543 9                                                                  21322931.887 8 112052763.359 8      1362.841 8        52.543 8                                                                  21322929.719 8  87313832.703 8      1061.954 8        51.043 8  21322929.719 8  87313832.703 8      1061.954 8        49.543 8  21322931.887 9  83675764.846 9      1017.706 9        57.643 9
G09  25340110.101 9 133163177.359 9     -2843.174 9        54.153 9                                                                  25340110.101 8 133163177.359 8     -2843.174 8        51.153 8                                                                  25340110.282 8 103763515.565 8     -2215.460 8        49.653 8  25340110.282 8 103763515.565 8     -2215.460 8        48.153 8  25340110.101 9  99440035.041 9     -2123.149 9        56.253 9
G21  22018365.855 9 115707293.529 9     -1948.880 9        55.330 9                                                                  22018365.855 8 115707293.529 8     -1948.880 8        52.330 8                                                                  22018363.868 8  90161519.289 8     -1518.608 8        50.830 8  22018363.868 8  90161519.289 8     -1518.608 8        49.330 8  22018365.855 9  86404797.115 9     -1455.333 9        57.430 9
G08  24251728.533 9 127443693.614 9     -3157.565 9        54.520 9                                                                  24251728.533 8 127443693.614 8     -3157.565 8        51.520 8                                                                  24251729.526 8  99306778.313 8     -2460.440 8        50.020 8  24251729.526 8  99306778.313 8     -2460.440 8        48.520 8  24251728.533 9  95168991.984 9     -2357.922 9        56.620 9
G30  20501790.743 9 107737637.525 9       706.797 9        56.036 9                                                                  20501790.743 8 107737637.525 8       706.797 8        53.036 8                                                                  20501791.466 8  83951408.822 8       550.751 8        51.536 8  20501791.466 8  83951408.822 8       550.751 8        50.036 8  20501790.743 9  80453430.619 9       527.803 9        58.136 9
G14  21556195.034 9 113278569.470 9      1504.385 9        55.539 9                                                                  21556195.034 8 113278569.470 8      1504.385 8        52.539 8                                                                  21556193.498 8  88269008.885 8      1172.248 8        51.039 8  21556193.498 8  88269008.885 8      1172.248 8        49.539 8  21556195.034 9  84591139.539 9      1123.404 9        57.639 9
G19  24188873.748 9 127113389.490 9      2943.660 9        54.503 9                                                                  24188873.748 8 127113389.490 8      2943.660 8        51.503 8                                                                  24188870.767 8  99049382.203 8      2293.761 8        50.003 8  24188870.767 8  99049382.203 8      2293.761 8        48.503 8  24188873.748 9  94922336.307 9      2198.188 9        56.603 9
R11  23443990.591 8 125277577.622 8     -2873.413 8        53.428 8  23443990.591 8 125277577.622 8     -2873.413 8        53.428 8  23443990.591 7  97438115.928 7     -2234.877 7        47.428 7  23443990.591 7  97438115.928 7     -2234.877 7        47.428 7                                                                                                                                                                                                                                                                                                                                                                                                                                                                
R22  20860595.638 9 111355276.177 9     -3033.166 9        54.435 9  20860595.638 9 111355276.177 9     -3033.166 9        54.435 9  20860595.638 8  86609659.249 8     -2359.129 8        48.435 8  20860595.638 8  86609659.249 8     -2359.129 8        48.435 8                                                                                                                                                                                                                                                                                                                                                                                                                                                                
R12  19982334.907 9 106742046.384 9      -373.090 9        54.815 9  19982334.907 9 106742046.384 9      -373.090 9        54.815 9  19982334.907 8  83021591.632 8      -290.181 8        48.815 8  19982334.907 8  83021591.632 8      -290.181 8        48.815 8                                                                                                                                                                                                                                                                                                                                                                                                                                                                
R23  19373027.187 9 103632632.205 9      1412.024 9        55.095 9  19373027.187 9 103632632.205 9      1412.024 9        55.095 9  19373027.187 8  80603158.382 8      1098.241 8        49.095 8  19373027.187 8  80603158.382 8      1098.241 8        49.095 8                                                                                                                                                                                                                                                                                                                                                                                                                                                                
R13  20546710.983 9 109718290.326 9      2422.174 9        54.580 9  20546710.983 9 109718290.326 9      2422.174 9        54.580 9  20546710.983 8  85336448.032 8      1883.913 8        48.580 8  20546710.983 8  85336448.032 8      1883.913 8        48.580 8                                                                                                                                                                                                                                                                                                                                                                                                                                                                
R24  22327441.753 8 119394865.032 8      4038.171 8        53.838 8  22327441.753 8 119394865.032 8      4038.171 8        53.838 8  22327441.753 7  92862672.802 7      3140.799 7        47.838 7  22327441.753 7  92862672.802 7      3140.799 7        47.838 7                                                                                                                                                                                                                                                                                                                                                                                                                                                                
E05                                                                  27766409.806 9 145913468.365 9       -65.912 9        56.456 9  27766409.806 9 145913468.365 9       -65.912 9        56.456 9  27766410.747 9 108961359.941 9       -49.220 9        56.316 9  27766410.747 9 108961359.941 9       -49.220 9        56.316 9  27766410.747 9 111803830.200 9       -50.504 9        56.316 9  27766410.747 9 111803830.200 9       -50.504 9        56.316 9  27766410.747 9 110382595.070 9       -49.862 9        59.327 9  27766410.747 9 110382595.070 9       -49.862 9        59.327 9                                                                                                                                                                                                
E12                                                                  25434529.753 9 133659355.978 9      2753.280 9        57.247 9  25434529.753 9 133659355.978 9      2753.280 9        57.247 9  25434527.317 9  99810548.475 9      2056.021 9        57.107 9  25434527.317 9  99810548.475 9      2056.021 9        57.107 9  25434527.317 9 102414301.913 9      2109.656 9        57.107 9  25434527.317 9 102414301.913 9      2109.656 9        57.107 9  25434527.317 9 101112425.194 9      2082.838 9        60.117 9  25434527.317 9 101112425.194 9      2082.838 9        60.117 9                                                                                                                                                                                                
E31                                                                  24069472.862 9 126485933.600 9       570.698 9        57.743 9  24069472.862 9 126485933.600 9       570.698 9        57.743 9  24069474.080 9  94453786.365 9       426.170 9        57.603 9  24069474.080 9  94453786.365 9       426.170 9        57.603 9  24069474.080 9  96917798.183 9       437.288 9        57.603 9  24069474.080 9  96917798.183 9       437.288 9        57.603 9  24069474.080 9  95685792.274 9       431.729 9        60.613 9  24069474.080 9  95685792.274 9       431.729 9        60.613 9                                                                                                                                                                                                
E26                                                                  26984282.036 9 141803359.191 9     -1986.659 9        56.875 9  26984282.036 9 141803359.191 9     -1986.659 9        56.875 9  26984280.984 9 105892114.748 9     -1483.544 9        56.736 9  26984280.984 9 105892114.748 9     -1483.544 9        56.736 9  26984280.984 9 108654517.742 9     -1522.245 9        56.736 9  26984280.984 9 108654517.742 9     -1522.245 9        56.736 9  26984280.984 9 107273316.245 9     -1502.895 9        59.746 9  26984280.984 9 107273316.245 9     -1502.895 9        59.746 9                                                                                                                                                                                                
E04                                                                  27766880.402 9 145915941.366 9     -2448.674 9        56.449 9  27766880.402 9 145915941.366 9     -2448.674 9        56.449 9  27766879.738 9 108963200.361 9     -1828.555 9        56.309 9  27766879.738 9 108963200.361 9     -1828.555 9        56.309 9  27766879.738 9 111805718.631 9     -1876.257 9        56.309 9  27766879.738 9 111805718.631 9     -1876.257 9        56.309 9  27766879.738 9 110384459.496 9     -1852.406 9        59.319 9  27766879.738 9 110384459.496 9     -1852.406 9        59.319 9                                                                                                                                                                                                
E01                                                                  25814135.509 9 135654197.691 9     -1163.770 9        57.139 9  25814135.509 9 135654197.691 9     -1163.770 9        57.139 9  25814135.565 9 101300212.779 9      -869.049 9        56.999 9  25814135.565 9 101300212.779 9      -869.049 9        56.999 9  25814135.565 9 103942827.025 9      -891.720 9        56.999 9  25814135.565 9 103942827.025 9      -891.720 9        56.999 9  25814135.565 9 102621519.902 9      -880.385 9        60.010 9  25814135.565 9 102621519.902 9      -880.385 9        60.010 9                                                                                                                                                                                                
E09                                                                  26870730.710 9 141206642.945 9     -1885.193 9        56.808 9  26870730.710 9 141206642.945 9     -1885.193 9        56.808 9  26870731.263 9 105446521.255 9     -1407.774 9        56.668 9  26870731.263 9 105446521.255 9     -1407.774 9        56.668 9  26870731.263 9 108197300.071 9     -1444.498 9        56.668 9  26870731.263 9 108197300.071 9     -1444.498 9        56.668 9  26870731.263 9 106821910.663 9     -1426.136 9        59.679 9  26870731.263 9 106821910.663 9     -1426.136 9        59.679 9                                                                                                                                                                                                
E33                                                                  24058807.864 9 126429888.657 9       391.907 9        57.740 9  24058807.864 9 126429888.657 9       391.907 9        57.740 9  24058807.033 9  94411926.582 9       292.657 9        57.600 9  24058807.033 9  94411926.582 9       292.657 9        57.600 9  24058807.033 9  96874846.406 9       300.292 9        57.600 9  24058807.033 9  96874846.406 9       300.292 9        57.600 9  24058807.033 9  95643386.494 9       296.475 9        60.611 9  24058807.033 9  95643386.494 9       296.475 9        60.611 9                                                                                                                                                                                                
E24                                                                  26567535.792 9 139613342.901 9      1730.941 9        56.933 9  26567535.792 9 139613342.901 9      1730.941 9        56.933 9  26567535.294 9 104256715.146 9      1292.586 9        56.793 9  26567535.294 9 104256715.146 9      1292.586 9        56.793 9  26567535.294 9 106976455.541 9      1326.306 9        56.793 9  26567535.294 9 106976455.541 9      1326.306 9        56.793 9  26567535.294 9 105616585.343 9      1309.446 9        59.803 9  26567535.294 9 105616585.343 9      1309.446 9        59.803 9                                                                                                                                                                                                
E10                                                                  27397030.098 9 143972364.897 9      3129.140 9        56.610 9  27397030.098 9 143972364.897 9      3129.140 9        56.610 9  27397030.264 9 107511831.581 9      2336.695 9        56.471 9  27397030.264 9 107511831.581 9      2336.695 9        56.471 9  27397030.264 9 110316488.058 9      2397.653 9        56.471 9  27397030.264 9 110316488.058 9      2397.653 9        56.471 9  27397030.264 9 108914159.820 9      2367.174 9        59.481 9  27397030.264 9 108914159.820 9      2367.174 9        59.481 9                                                                                                                                                                                                
Q02  39318188.654 9 206618475.936 9       946.880 9        55.983 9  39318188.654 9 206618475.936 9       946.880 9        57.488 9  39318188.654 8 206618475.936 8       946.880 8        53.483 8  39318188.654 9 161001409.820 9       737.828 9        54.483 9                                                                                                                                
Q03  39458518.560 9 207355914.567 9      -534.521 9        55.951 9  39458518.560 9 207355914.567 9      -534.521 9        57.456 9  39458518.560 8 207355914.567 8      -534.521 8        53.451 8  39458518.560 9 161576037.325 9      -416.510 9        54.451 9                                                                                                                                
Q04  38225916.039 9 200878544.602 9      -147.410 9        56.222 9  38225916.039 9 200878544.602 9      -147.410 9        57.726 9  38225916.039 8 200878544.602 8      -147.410 8        53.722 8  38225916.039 9 156528736.054 9      -114.865 9        54.722 9                                                                                                                                
Q07  37731639.287 9 198281102.740 9        -3.924 9        56.341 9  37731639.287 9 198281102.740 9        -3.924 9        57.846 9  37731639.287 8 198281102.740 8        -3.924 8        53.841 8  37731639.287 9 154504755.382 9        -3.057 9        54.841 9                                                                                                                                
C03  37049027.865 8 192924010.459 8        36.599 8        51.997 8  37049024.748 8 149181070.238 8        28.301 8        51.997 8  37049027.176 8 156766558.661 8        29.740 8        51.997 8                                                                                                                                  37049027.176 9 149181080.016 9        28.301 9        54.997 9
C28  22419879.178 8 116746194.279 8     -1735.357 8        52.639 8  22419879.178 8  90275563.073 8     -1341.888 8        52.639 8  22419880.377 8  94865851.015 8     -1410.120 8        52.639 8  22419880.377 9  87980426.344 9     -1307.773 9        55.977 9  22419880.377 9 117817266.583 9     -1751.278 9        55.639 9  22419880.377 9  90275567.901 9     -1341.888 9        55.639 9
C07  36302294.545 8 189035574.102 8      -121.275 8        52.172 8  36302290.348 8 146174280.243 8       -93.778 8        52.172 8  36302290.048 8 153606869.495 8       -98.546 8        52.172 8  36302290.048 9 142457983.806 9       -91.394 9        55.977 9  36302290.048 9 190769821.793 9      -122.388 9        55.172 9  36302290.048 9 146174279.036 9       -93.778 9        55.172 9
C02  36967621.271 8 192500104.958 8         6.822 8        52.024 8  36967616.594 8 148853273.338 8         5.275 8        52.024 8  36967620.851 8 156422101.859 8         5.544 8        52.024 8                                                                                                                                  36967620.851 9 148853290.479 9         5.275 9        55.024 9
C05  38002748.022 8 197890281.586 8         5.937 8        51.762 8  38002745.233 8 153021307.431 8         4.591 8        51.762 8  38002748.022 8 160802063.674 8         4.824 8        51.762 8                                                                                                                                  38002748.022 9 153021318.658 9         4.591 9        54.762 9
C10  36482292.065 8 189972868.421 8       -28.744 8        52.131 8  36482291.135 8 146899068.825 8       -22.227 8        52.131 8  36482290.266 8 154368509.324 8       -23.357 8        52.131 8  36482290.266 9 143164343.324 9       -21.662 9        55.977 9  36482290.266 9 191715729.321 9       -29.008 9        55.131 9  36482290.266 9 146899065.324 9       -22.227 9        55.131 9
C09  36911928.932 8 192210100.337 8     -1333.200 8        52.019 8  36911927.973 8 148629038.338 8     -1030.915 8        52.019 8  36911926.864 8 156186442.373 8     -1083.334 8        52.019 8  36911926.864 9 144850329.620 9     -1004.705 9        55.977 9  36911926.864 9 193973484.883 9     -1345.431 9        55.019 9  36911926.864 9 148629033.871 9     -1030.915 9        55.019 9
C04  40352905.250 8 210128166.998 8        25.728 8        51.276 8  40352900.963 8 162484410.692 8        19.895 8        51.276 8  40352903.511 8 170746340.662 8        20.906 8        51.276 8                                                                                                                                  40352903.511 9 162484420.952 9        19.895 9        54.276 9
C06  38084258.074 8 198314725.819 8     -1578.222 8        51.745 8  38084254.956 8 153349513.309 8     -1220.382 8        51.745 8  38084255.496 8 161146948.472 8     -1282.435 8        51.745 8  38084255.496 9 149450798.986 9     -1189.355 9        55.977 9  38084255.496 9 200134113.425 9     -1592.702 9        54.745 9  38084255.496 9 153349515.482 9     -1220.382 9        54.745 9
C30  25266252.763 8 131568008.476 8      2980.913 8        51.607 8  25266252.763 8 101736730.014 8      2305.031 8        51.607 8  25266255.671 8 106909796.387 8      2422.236 8        51.607 8  25266255.671 9  99150214.391 9      2246.429 9        55.977 9  25266255.671 9 132775069.707 9      3008.261 9        54.607 9  25266255.671 9 101736741.723 9      2305.031 9        54.607 9
