     3.04           O                   M                   RINEX VERSION / TYPE
SKYDEL              INS UNI STUTTGART   20230108 095842 UTC PGM / RUN BY / DATE 
NONE                                                        MARKER NAME         
SPACEBORNE                                                  MARKER TYPE         
SIMULATOR           INS UNI STUTTGART                       OBSERVER / AGENCY   
NONE                SKYDEL SOFTWARE     20.9.5              REC # / TYPE / VERS 
NONE                NONE                                    ANT # / TYPE        
        0.0000        0.0000        0.0000                  ANTENNA: DELTA H/E/N
S    8 C1C L1C D1C S1C C5X L5X D5X S5X                      SYS / # / OBS TYPES 
E   12 C1X L1X D1X S1X C5X L5X D5X S5X C7X L7X D7X S7X      SYS / # / OBS TYPES 
C   16 C1X L1X D1X S1X C2X L2X D2X S2X C5X L5X D5X S5X C7X  SYS / # / OBS TYPES 
       L7X D7X S7X                                          SYS / # / OBS TYPES 
R    4 C1C L1C D1C S1C                                      SYS / # / OBS TYPES 
I    4 C5X L5X D5X S5X                                      SYS / # / OBS TYPES 
G   24 C1C L1C D1C S1C C1P L1P D1P S1P C1X L1X D1X S1X C2P  SYS / # / OBS TYPES 
       L2P D2P S2P C2C L2C D2C S2C C5X L5X D5X S5X          SYS / # / OBS TYPES 
J   20 C1C L1C D1C S1C C1X L1X D1X S1X C1Z L1Z D1Z S1Z C5X  SYS / # / OBS TYPES 
       L5X D5X S5X C5Z L5Z D5Z S5Z                          SYS / # / OBS TYPES 
     0.500                                                  INTERVAL            
  2023     1     8     9    59    0.5000000     GPS         TIME OF FIRST OBS   
  2023     1     8    14     1     0.100000     GPS         TIME OF LAST OBS    
                                                            SYS / PHASE SHIFT   
                                                            END OF HEADER       
> 2023 01 08 10 00  0.0000000  0 64
C01  39013869.978   205019216.0760         27.280          38.917    39013870.074   203155404.5230         27.025          34.896    39013868.763   153098757.5480         20.352          42.513    39013872.031   157092625.0220         20.704          35.490  
C02  36949149.823   194169056.5290          2.057          42.305    36949149.887   192403882.9560          2.035          38.284    36949145.396   144996354.0490          1.525          46.741    36949147.577   148778858.8520          1.468          39.717  
C03  37083086.608   194872898.5860         30.177          41.990    37083086.672   193101326.4440         29.898          37.969    37083083.743   145521956.4950         22.523          46.444    37083085.954   149318172.5460         23.005          39.421  
C04  40284373.026   211695739.6330         24.068          36.582    40284373.147   209771232.2750         23.839          32.561    40284369.216   158084462.1980         17.944          40.443    40284373.385   162208387.9020         18.157          33.419  
C05  38080898.843   200116426.9520         -3.810          40.316    38080898.926   198297186.2760         -3.780          36.296    38080896.379   149437579.3420         -2.858          44.174    38080899.210   153335939.5800         -3.048          37.150  
C06  37180558.364   195385113.6330      -1256.100          41.483    37180558.433   193608884.9680      -1244.685          37.463    37180555.517   145904454.6770       -938.009          45.667    37180557.877   149710648.3390       -962.589          38.643  
C07  36182371.790   190139616.2810       -246.251          44.434    36182371.844   188411074.0340       -244.015          40.413    36182367.805   141987358.4930       -183.898          49.071    36182369.655   145691369.0920       -188.778          42.048  
C09  36215490.438   190313653.7420       -859.982          43.896    36215490.496   188583529.3150       -852.168          39.875    36215489.706   142117334.1780       -642.205          47.857    36215491.689   145824734.9120       -659.048          40.833  
C10  36419814.763   191387387.5690       -155.188          44.430    36419814.817   189647501.9460       -153.780          40.409    36419814.045   142919148.5770       -115.896          49.095    36419815.892   146647466.7550       -119.001          42.072  
C16  37491337.067   197018264.0670      -1279.165          41.006    37491337.140   195227188.5560      -1267.540          36.985    37491339.484   147124035.5820       -955.234          44.887    37491342.004   150962043.7520       -980.272          37.864  
C23  23874646.141   125462067.8600      -1686.263          45.835    23874646.219   124321503.2010      -1670.939          41.814    23874646.446    93689205.3200      -1259.238          49.048    23874649.112    96133260.8110      -1292.224          42.024  
C27  22998773.158   120859328.8460       2576.259          46.815    22998773.228   119760607.3110       2552.835          42.795    22998773.432    90252095.1420       1923.818          49.877    22998775.823    92606487.9950       1973.897          42.853  
C28  21776310.201   114435252.1530       -203.874          48.919    21776310.254   113394931.4020       -202.024          44.899    21776310.410    85454895.2700       -152.253          53.439    21776312.230    87684146.0750       -156.310          46.415  
C37  22114754.845   116213790.3600        567.677          48.850    22114754.899   115157301.0760        562.513          44.829    22114755.056    86783024.4400        423.905          53.245    22114756.901    89046921.9960        434.880          46.221  
C38  40351299.056   212047436.1710       1817.618          36.410    40351299.182   210119731.5530       1801.085          32.389    40351299.548   158347109.4960       1357.285          40.352    40351303.845   162477886.3540       1392.450          33.328  
C39  38388535.087   201733063.3050      -1474.318          39.681    38388535.175   199899125.9080      -1460.921          35.660    38388535.431   150644818.6470      -1100.968          43.598    38388538.443   154574671.3550      -1129.834          36.575  
C40  36607018.472   192371147.1770       -480.515          43.739    36607018.530   190622318.2620       -476.151          39.718    36607018.700   143653777.8380       -358.837          47.680    36607020.699   147401259.6470       -368.288          40.656  
C43  25130948.067   132063961.3210      -2881.264          42.835    25130948.176   130863379.2870      -2855.077          38.814    25130948.494    98619190.2200      -2151.614          46.055    25130952.225   101191849.7270      -2207.933          39.032  
C46  24691137.371   129752742.7530       2471.972          43.802    24691137.476   128573171.8180       2449.494          39.781    24691137.782    96893280.3100       1845.938          47.089    24691141.378    99420916.6240       1893.961          40.066  
C59  38644184.732   203076510.7990         -5.590          39.460    38644184.821   201230360.2380         -5.545          35.440    38644185.080   151648042.4130         -4.192          43.365    38644188.119   155604066.0650         -4.463          36.341  
C60  37041102.075   194652268.3570         42.487          42.133    37041102.139   192882701.9440         42.097          38.112    37041102.328   145357212.3890         31.717          46.595    37041104.540   149149130.7630         32.447          39.571  
E01  25176333.013   132302480.9190       -908.717          47.512    25176336.311    98797295.2210       -678.739          49.928    25176335.826   101374616.9120       -696.428          49.904  
E04  26153856.721   137439387.9360      -2560.333          45.510    26153859.504   102633286.4630      -1912.111          48.400    26153860.520   105310684.5500      -1961.972          48.376  
E09  25972548.591   136486611.7580       -863.559          46.248    25972553.790   101921809.8910       -645.010          49.152    25972552.091   104580636.4780       -661.820          49.129  
E12  27304147.987   143484196.2260       3068.447          43.424    27304147.754   107147247.0770       2291.126          46.344    27304152.663   109942417.2400       2350.924          46.320  
E14  24351478.286   127967819.9370      -2659.510          45.031    24351481.227    95560359.7270      -1986.235          47.693    24351482.446    98053247.8770      -2038.022          47.669  
E24  27609951.660   145091199.4500       1596.549          43.199    27609956.256   108347297.3900       1192.054          46.239    27609956.733   111173755.7770       1223.171          46.216  
E26  26144242.279   137388872.6100       -614.839          46.519    26144243.514   102595563.1790       -459.312          49.309    26144245.482   105271980.4020       -471.273          49.285  
E31  24476145.457   128622975.6220        696.894          48.880    24476150.995    96049624.5330        520.292          51.463    24476147.925    98555257.0960        533.878          51.439  
E33  24781489.894   130227569.3870       1840.043          48.071    24781490.958    97247841.3460       1373.916          50.637    24781492.502    99784750.4590       1409.774          50.614  
G01  21878714.528   114973376.4370       2659.783          47.374    21878714.528   114973376.4370       2659.783          44.374    21878714.528   114973376.4370       2659.783          48.874    21878718.165    89589636.4800       2072.418          44.171    21878718.165    89589636.4800       2072.418          45.671    21878718.988    85856733.3350       1986.037          48.641  
G07  20116838.190   105714668.2470        376.859          51.154    20116838.190   105714668.2470        376.859          48.154    20116838.190   105714668.2470        376.859          52.654    20116837.867    82375049.7390        293.571          49.232    20116837.867    82375049.7390        293.571          50.732    20116837.793    78942752.4400        281.321          53.702  
G08  22285844.539   117112857.2270      -2972.480          46.996    22285844.539   117112857.2270      -2972.480          43.996    22285844.539   117112857.2270      -2972.480          48.496    22285848.381    91256764.2700      -2316.357          43.934    22285848.381    91256764.2700      -2316.357          45.434    22285849.250    87454397.4450      -2219.872          48.404  
G09  23410622.842   123023592.9910      -3123.436          44.660    23410622.842   123023592.9910      -3123.436          41.660    23410622.842   123023592.9910      -3123.436          46.160    23410626.739    95862525.5130      -2434.008          41.668    23410626.739    95862525.5130      -2434.008          43.168    23410627.621    91868250.4780      -2332.626          46.138  
G14  22588631.755   118704010.3450       1766.842          46.505    22588631.755   118704010.3450       1766.842          43.505    22588631.755   118704010.3450       1766.842          48.005    22588633.341    92496612.3680       1376.638          43.630    22588633.341    92496612.3680       1376.638          45.130    22588633.700    88642582.7190       1319.251          48.100  
G17  22600524.028   118766499.8090       2677.014          45.693    22600524.028   118766499.8090       2677.014          42.693    22600524.028   118766499.8090       2677.014          47.193    22600525.281    92545301.6450       2085.843          42.949    22600525.281    92545301.6450       2085.843          44.449    22600525.564    88689242.4500       1998.902          47.418  
G21  21419853.418   112562049.7540        102.867          48.237    21419853.418   112562049.7540        102.867          45.237    21419853.418   112562049.7540        102.867          49.737    21419853.875    87710669.9790         80.032          44.927    21419853.875    87710669.9790         80.032          46.427    21419853.978    84056054.7980         76.670          49.397  
G30  21492535.155   112943997.0310       2305.305          48.838    21492535.155   112943997.0310       2305.305          45.838    21492535.155   112943997.0310       2305.305          50.338    21492538.187    88008302.8770       1796.242          45.486    21492538.187    88008302.8770       1796.242          46.986    21492538.873    84341288.8490       1721.377          49.956  
I02  37473952.241   147055697.3140        187.297          46.952  
I03  37261157.021   146220657.8210        -42.064          48.145  
I06  39775860.802   156088771.7390        -15.724          42.335  
I09  39442709.983   154781435.1480       -559.576          42.616  
J02  39869751.451   209516916.6170        789.703          45.073    39869751.451   209516916.6170        789.703          46.573    39869751.451   209516916.6170        789.703          45.073    39869754.685   156457425.9120        589.561          48.124    39869754.685   156457425.9120        589.561          48.124  
J03  39143273.627   205699253.6780       -454.326          45.957    39143273.627   205699253.6780       -454.326          47.457    39143273.627   205699253.6780       -454.326          45.957    39143276.353   153606573.9720       -339.405          49.424    39143276.353   153606573.9720       -339.405          49.424  
J07  37728992.144   198267149.3010         -4.752          45.509    37728992.144   198267149.3010         -4.752          47.009    37728992.144   198267149.3010         -4.752          45.509    37728994.031   148056619.6310         -3.705          48.289    37728994.031   148056619.6310         -3.705          48.289  
R02  23254486.253   124090316.7890      -2990.251          39.119  
R03  23287502.042   124659744.2920       -796.949          39.066  
R11  22013814.601   117635096.9690      -1779.060          42.982  
R12  20175658.908   107774712.8220        862.496          47.241  
R13  22168161.467   118376686.6970       2679.893          42.559  
R21  22437226.040   120066070.8070      -3580.727          42.133  
R22  19697075.625   105144295.1310       -545.809          48.328  
R23  21017334.345   112428523.0960       3726.136          45.476  
S22  38852194.185   204169604.5760         -0.357          41.330    38852194.185   152464315.1060         -0.266          42.378  
S23  40134022.555   210905635.0340         -2.139          39.073    40134022.555   157494467.7200         -1.598          40.079  
S26  37657899.289   197893553.0040          1.604          43.206    37657899.289   147777653.2170          1.197          44.421  
S27  38197652.234   200729967.9350         -9.448          42.335    38197652.234   149895755.2760         -7.056          43.517  
S28  36915202.397   193990661.4990         -8.588          44.744    36915202.397   144863156.3140         -6.413          46.409  
S30  38646367.505   203087980.3960         -6.031          41.658    38646367.505   151656608.7380         -4.504          42.862  
S32  36780217.692   193281313.2630         -2.726          45.263    36780217.692   144333448.2160         -2.035          46.725  
S34  36783512.003   193298624.8510         -0.094          45.208    36783512.003   144346375.7010         -0.070          46.694  
S37  37729406.078   198269324.5330         -4.982          43.108    37729406.078   148058261.8260         -3.721          44.287  
S43  36944426.537   194144235.4820         -0.607          44.592    36944426.537   144977838.1840         -0.454          46.306  
S44  37042256.357   194658333.4730         42.832          44.333    37042256.357   145361742.5280         31.985          46.095  
> 2023 01 08 10 05  0.0000000  0 64
C01  39012273.112   205010824.9510         27.914          38.919    39012273.206   203147089.6860         27.653          34.899    39012271.894   153092491.4610         20.824          42.518    39012275.133   157086195.5850         21.185          35.494  
C02  36949006.415   194168303.1590          2.557          42.304    36949006.478   192403136.4370          2.530          38.283    36949001.986   144995791.4740          1.899          46.740    36949004.153   148778281.6600          1.848          39.717  
C03  37081331.577   194863676.1130         30.862          41.992    37081331.641   193092187.8150         30.578          37.972    37081328.711   145515069.5910         23.034          46.447    37081330.905   149311106.0500         23.527          39.424  
C04  40282965.040   211688341.2750         24.187          36.585    40282965.161   209763901.1810         23.957          32.564    40282961.226   158078937.4680         18.033          40.444    40282965.356   162202719.2080         18.242          33.420  
C05  38081077.021   200117363.5620         -2.919          40.315    38081077.103   198298114.3740         -2.897          36.294    38081074.555   149438278.7660         -2.193          44.173    38081077.369   153336657.3180         -2.370          37.149  
C06  37253320.997   195767483.5010      -1293.323          41.365    37253321.067   193987778.7440      -1281.570          37.345    37253318.152   146189990.6080       -965.806          45.465    37253320.533   150003632.9490       -991.117          38.441  
C07  36196204.887   190212309.8320       -238.573          44.406    36196204.940   188483106.7350       -236.407          40.385    36196200.900   142041642.6410       -178.164          49.028    36196202.742   145747069.3820       -182.898          42.004  
C09  36265944.213   190578789.9750       -907.905          43.758    36265944.271   188846255.2180       -899.655          39.738    36265943.482   142315325.5170       -677.991          47.709    36265945.473   146027891.2080       -695.773          40.685  
C10  36428459.442   191432815.8160       -147.845          44.406    36428459.496   189692517.2110       -146.504          40.386    36428458.723   142953072.2730       -110.413          49.064    36428460.561   146682275.4530       -113.378          42.040  
C16  37565383.989   197407382.8520      -1315.267          40.884    37565384.063   195612769.8940      -1303.314          36.863    37565386.409   147414611.2870       -982.194          44.729    37565388.954   151260199.5920      -1007.941          37.705  
C23  23973099.864   125979445.0220      -1763.598          45.655    23973099.943   124834176.9280      -1747.570          41.634    23973100.174    94075558.3780      -1316.988          48.959    23973102.878    96529692.4880      -1351.489          41.935  
C27  22854745.179   120102458.2840       2468.181          47.065    22854745.247   119010617.4050       2445.739          43.044    22854745.442    89686899.6340       1843.110          50.184    22854747.739    92026548.6370       1891.084          43.160  
C28  21792546.266   114520573.3880       -364.903          48.894    21792546.319   113479476.9900       -361.589          44.873    21792546.474    85518609.1830       -272.502          53.386    21792548.286    87749522.1240       -279.698          46.362  
C37  22084564.494   116055139.3760        488.934          48.881    22084564.547   115000092.3770        484.486          44.860    22084564.703    86664551.3120        365.103          53.350    22084566.525    88925358.3580        374.542          46.327  
C38  40246867.573   211498646.9920       1839.624          36.632    40246867.695   209575931.3840       1822.891          32.612    40246868.051   157937299.4470       1373.718          40.466    40246872.230   162057386.0860       1409.312          33.442  
C39  38473418.431   202179127.7240      -1499.800          39.546    38473418.520   200341135.1910      -1486.171          35.526    38473418.780   150977918.6850      -1119.997          43.455    38473421.825   154916460.8230      -1149.367          36.432  
C40  36634113.635   192513533.2670       -468.897          43.656    36634113.694   190763409.9340       -464.638          39.635    36634113.864   143760105.1140       -350.161          47.606    36634115.860   147510360.6890       -359.390          40.583  
C43  25297080.586   132936992.0170      -2938.574          42.419    25297080.698   131728473.3260      -2911.867          38.398    25297081.024    99271128.6840      -2194.412          45.804    25297084.850   101860794.8990      -2251.860          38.780  
C46  24549974.898   129010931.2680       2472.319          44.079    24549974.999   127838104.0940       2449.839          40.059    24549975.294    96339330.2380       1846.197          47.499    24549978.751    98852516.2390       1894.224          40.475  
C59  38644468.246   203078001.0790         -5.020          39.460    38644468.334   201231836.9750         -4.981          35.439    38644468.592   151649155.2950         -3.767          43.364    38644471.607   155605208.0760         -4.031          36.341  
C60  37038653.746   194639402.5710         42.872          42.139    37038653.811   192869953.1230         42.478          38.119    37038653.998   145347604.8290         32.003          46.601    37038656.194   149139272.6350         32.738          39.578  
E01  25228573.632   132577007.0620       -922.259          47.426    25228576.942    99002298.4620       -688.858          49.843    25228576.455   101584968.0690       -706.810          49.819  
E04  26300684.456   138210971.3410      -2583.032          45.259    26300687.356   103209468.4170      -1929.074          48.021    26300688.358   105901897.3920      -1979.376          47.998  
E09  26025242.036   136763517.3030       -982.306          46.156    26025247.263   102128589.8940       -733.692          49.089    26025245.560   104792810.7550       -752.814          49.066  
E12  27128809.842   142562791.0300       3072.368          43.828    27128809.384   106459185.6380       2294.056          46.543    27128814.319   109236406.2690       2353.929          46.519  
E14  24504875.154   128773924.2430      -2714.422          44.578    24504878.220    96162320.2390      -2027.257          47.400    24504879.426    98670911.7650      -2080.113          47.376  
E24  27518543.281   144610847.1590       1605.400          43.416    27518547.727   107988593.3440       1198.657          46.338    27518548.221   110805694.1660       1229.947          46.315  
E26  26183332.051   137594290.6880       -754.961          46.453    26183333.291   102748959.7780       -563.954          49.273    26183335.258   105429378.6530       -578.644          49.249  
E31  24436523.454   128414761.1790        690.747          49.014    24436528.947    95894139.8960        515.698          51.557    24436525.883    98395716.3180        529.165          51.533  
E33  24679578.883   129692024.5730       1728.866          48.268    24679579.858    96847921.8630       1290.894          50.892    24679581.412    99374398.2540       1324.586          50.868  
G01  21730533.252   114194680.3000       2529.101          47.643    21730533.252   114194680.3000       2529.101          44.643    21730533.252   114194680.3000       2529.101          49.143    21730536.784    88982860.7040       1970.589          44.344    21730536.784    88982860.7040       1970.589          45.844    21730537.582    85275239.9770       1888.451          48.814  
G07  20100048.104   105626435.9520        210.239          51.120    20100048.104   105626435.9520        210.239          48.120    20100048.104   105626435.9520        210.239          52.620    20100047.768    82306297.3530        163.735          49.224    20100047.768    82306297.3530        163.735          50.724    20100047.692    78876864.7470        156.893          53.694  
G08  22457044.854   118012519.5730      -3024.486          46.661    22457044.854   118012519.5730      -3024.486          43.661    22457044.854   118012519.5730      -3024.486          48.161    22457048.781    91957799.5160      -2356.891          43.744    22457048.781    91957799.5160      -2356.891          45.244    22457049.669    88126222.8140      -2258.719          48.213  
G09  23589560.250   123963913.4320      -3144.360          44.208    23589560.250   123963913.4320      -3144.360          41.208    23589560.250   123963913.4320      -3144.360          45.708    23589564.269    96595242.2390      -2450.325          41.174    23589564.269    96595242.2390      -2450.325          42.674    23589565.178    92570437.2320      -2348.265          45.643  
G14  22488364.343   118177103.0700       1745.433          46.709    22488364.343   118177103.0700       1745.433          43.709    22488364.343   118177103.0700       1745.433          48.209    22488365.836    92086035.6560       1359.953          43.753    22488365.836    92086035.6560       1359.953          45.253    22488366.173    88249113.4540       1303.261          48.222  
G17  22450766.907   117979523.2980       2568.308          46.057    22450766.907   117979523.2980       2568.308          43.057    22450766.907   117979523.2980       2568.308          47.557    22450768.008    91932073.8180       2001.137          43.314    22450768.008    91932073.8180       2001.137          44.814    22450768.257    88101565.9170       1917.726          47.784  
G21  21419532.427   112560363.4890        -92.349          48.273    21419532.427   112560363.4890        -92.349          45.273    21419532.427   112560363.4890        -92.349          49.773    21419532.849    87709356.1470        -72.087          44.970    21419532.849    87709356.1470        -72.087          46.470    21419532.945    84054795.7390        -69.110          49.439  
G30  21363951.621   112268287.2790       2197.662          49.238    21363951.621   112268287.2790       2197.662          46.238    21363951.621   112268287.2790       2197.662          50.738    21363954.574    87481776.1200       1712.363          45.704    21363954.574    87481776.1200       1712.363          47.204    21363955.242    83836700.7760       1640.993          50.174  
I02  37459586.964   146999326.1620        187.099          46.988  
I03  37264271.083   146232878.8140        -40.817          48.136  
I06  39777022.794   156093332.7690        -16.761          42.333  
I09  39484992.651   154947360.7030       -548.742          42.567  
J02  39824108.780   209277063.0660        808.662          45.083    39824108.780   209277063.0660        808.662          46.583    39824108.780   209277063.0660        808.662          45.083    39824111.992   156278314.5830        603.714          48.129    39824111.992   156278314.5830        603.714          48.129  
J03  39169515.254   205837154.8270       -465.368          45.999    39169515.254   205837154.8270       -465.368          47.499    39169515.254   205837154.8270       -465.368          45.999    39169517.944   153709552.2410       -347.654          49.478    39169517.944   153709552.2410       -347.654          49.478  
J07  37729247.076   198268489.3050         -4.718          45.509    37729247.076   198268489.3050         -4.718          47.009    37729247.076   198268489.3050         -4.718          45.509    37729248.939   148057620.3780         -3.685          48.289    37729248.939   148057620.3780         -3.685          48.289  
R02  23424210.135   124995993.3400      -3045.780          38.605  
R03  23337836.740   124929189.1550       -998.606          38.905  
R11  22116330.846   118182911.9460      -1874.186          42.689  
R12  20129343.535   107527305.0570        785.329          47.402  
R13  22017326.717   117571239.9780       2688.436          42.990  
R21  22641703.282   121160267.6980      -3712.314          41.529  
R22  19735290.352   105348287.9300       -813.839          48.340  
R23  20812646.865   111333585.4690       3570.718          45.881  
S22  38852193.892   204169603.4780         -0.367          41.330    38852193.892   152464314.2860         -0.274          42.378  
S23  40134126.194   210906180.0370         -2.123          39.073    40134126.194   157494874.7030         -1.585          40.079  
S26  37657795.993   197893010.4570          1.555          43.206    37657795.993   147777248.0680          1.161          44.421  
S27  38198180.545   200732744.5310         -9.673          42.335    38198180.545   149897828.7080         -7.224          43.517  
S28  36915674.221   193993141.1980         -8.618          44.744    36915674.221   144865008.0380         -6.435          46.409  
S30  38646675.770   203089600.7500         -5.459          41.657    38646675.770   151657818.7420         -4.076          42.861  
S32  36780361.719   193282070.3760         -2.726          45.263    36780361.719   144334013.5930         -2.036          46.725  
S34  36783506.054   193298593.8290         -0.104          45.208    36783506.054   144346352.5350         -0.078          46.694  
S37  37729674.924   198270737.6520         -4.975          43.108    37729674.924   148059317.0780         -3.715          44.287  
S43  36944463.255   194144428.7020         -1.115          44.594    36944463.255   144977982.4720         -0.833          46.308  
S44  37039788.015   194645362.5180         43.221          44.340    37039788.015   145352056.4260         32.275          46.101  
> 2023 01 08 10 10  0.0000000  0 63
C01  39010639.960   205002243.1560         28.533          38.922    39010640.053   203138585.9120         28.267          34.901    39010638.739   153086082.9900         21.286          42.522    39010641.949   157079620.0520         21.655          35.498  
C02  36948834.103   194167397.9020          3.057          42.303    36948834.165   192402239.4120          3.025          38.283    36948829.672   144995115.4780          2.271          46.740    36948831.823   148777588.0900          2.227          39.716  
C03  37079537.484   194854248.3750         31.532          41.995    37079537.548   193082845.7860         31.241          37.975    37079534.616   145508029.4040         23.534          46.451    37079536.793   149303882.2740         24.037          39.427  
C04  40281549.946   211680905.5790         24.295          36.588    40281550.066   209756533.0880         24.064          32.567    40281546.128   158073384.8560         18.112          40.445    40281550.217   162197021.9070         18.319          33.422  
C05  38081203.803   200118030.0960         -2.026          40.314    38081203.884   198298774.8510         -2.013          36.293    38081201.335   149438776.5100         -1.527          44.171    38081204.131   153337168.1170         -1.691          37.148  
C06  37328176.773   196160852.8960      -1329.439          41.247    37328176.843   194377572.0500      -1317.357          37.226    37328173.930   146483740.4710       -992.776          45.265    37328176.333   150305045.7650      -1018.796          38.241  
C07  36209574.263   190282566.5270       -230.025          44.380    36209574.317   188552724.7340       -227.937          40.360    36209570.276   142094107.0610       -171.782          48.980    36209572.109   145800902.4740       -176.352          41.957  
C09  36319120.273   190858231.9000       -955.353          43.571    36319120.332   189123156.7600       -946.672          39.550    36319119.543   142523999.6770       -713.424          47.561    36319121.544   146242009.0040       -732.134          40.538  
C10  36436656.971   191475894.2800       -139.541          44.385    36436657.024   189735204.0540       -138.276          40.364    36436656.251   142985241.2600       -104.213          49.031    36436658.079   146715283.6690       -107.018          42.007  
C16  37641456.299   197807145.1120      -1350.132          40.757    37641456.374   196008897.9470      -1337.863          36.736    37641458.722   147713135.0410      -1008.230          44.585    37641461.293   151566510.8190      -1034.662          37.561  
C23  24075981.710   126520092.0900      -1841.387          45.465    24075981.790   125369909.0170      -1824.653          41.444    24075982.024    94479288.3140      -1375.079          48.862    24075984.770    96943954.3440      -1411.103          41.839  
C27  22717042.072   119378825.0250       2354.736          47.337    22717042.137   118293562.6440       2333.326          43.316    22717042.325    89146524.1880       1758.395          50.476    22717044.535    91472076.7920       1804.159          43.452  
C28  21817903.034   114653824.2010       -523.321          48.863    21817903.087   113611516.4340       -518.567          44.842    21817903.241    85618114.6630       -390.802          53.301    21817905.048    87851623.4230       -401.087          46.278  
C37  22058990.803   115920749.0800        405.937          48.920    22058990.855   114866923.8150        402.243          44.899    22058991.009    86564194.9330        303.125          53.438    22058992.810    88822384.0730        310.944          46.414  
C38  40141241.288   210943579.0790       1859.473          36.858    40141241.406   209025909.5600       1842.560          32.837    40141241.753   157522800.7340       1388.541          40.570    40141245.814   161632074.8360       1424.522          33.546  
C39  38559710.027   202632592.5510      -1523.675          39.412    38559710.117   200790477.6050      -1509.829          35.392    38559710.380   151316545.0020      -1137.827          43.287    38559713.460   155263920.7310      -1167.669          36.263  
C40  36660510.007   192652247.1910       -456.059          43.566    36660510.065   190900862.8220       -451.916          39.545    36660510.235   143863690.1880       -340.574          47.536    36660512.227   147616647.9960       -349.556          40.512  
C43  25466281.453   133826146.9910      -2988.828          41.972    25466281.568   132609545.0580      -2961.665          37.951    25466281.902    99935108.0040      -2231.941          45.588    25466285.823   102542095.0360      -2290.381          38.564  
C46  24408893.014   128269543.2160       2469.095          44.349    24408893.111   127103455.9550       2446.643          40.329    24408893.395    95785696.3640       1843.789          47.892    24408896.716    98284440.2870       1891.751          40.869  
C59  38644718.637   203079317.3020         -4.447          39.459    38644718.724   201233141.2350         -4.413          35.439    38644718.979   151650138.2000         -3.340          43.364    38644721.969   155606216.7210         -3.597          36.340  
C60  37036183.728   194626422.8100         43.234          42.146    37036183.792   192857091.3620         42.837          38.125    37036183.978   145337912.1580         32.274          46.607    37036186.157   149129327.1780         33.012          39.584  
E01  25281635.059   132855846.5900       -937.514          47.336    25281638.381    99210522.7380       -700.257          49.767    25281637.893   101798624.2880       -718.506          49.743  
E04  26448612.376   138988336.2410      -2598.925          44.998    26448615.394   103789967.7160      -1940.955          47.633    26448616.383   106497540.2050      -1991.565          47.609  
E09  26084594.956   137075418.5560      -1096.826          46.051    26084600.217   102361503.0350       -819.217          49.011    26084598.510   105031799.9070       -840.570          48.988  
E12  26953431.541   141641174.7440       3069.849          44.210    26953430.864   105770966.5440       2292.178          46.775    26953435.823   108530233.5340       2352.002          46.751  
E14  24661246.594   129595660.0520      -2763.798          44.095    24661249.785    96775953.6330      -2064.147          47.160    24661250.976    99300553.0430      -2117.963          47.136  
E24  27426596.834   144127667.2910       1615.356          43.630    27426601.131   107627777.7930       1206.084          46.440    27426601.642   110435465.9670       1237.569          46.416  
E26  26230370.377   137841478.6250       -893.249          46.373    26230371.627   102933548.1320       -667.227          49.228    26230373.593   105618782.3610       -684.611          49.204  
E31  24397264.289   128208453.4630        684.138          49.152    24397269.739    95740079.1130        510.760          51.650    24397266.679    98237636.5370        524.098          51.627  
E33  24584168.262   129190639.4580       1612.368          48.477    24584169.156    96473511.2200       1203.898          51.128    24584170.719    98990220.3390       1235.321          51.104  
G01  21590130.331   113456859.5590       2387.341          47.884    21590130.331   113456859.5590       2387.341          44.884    21590130.331   113456859.5590       2387.341          49.384    21590133.764    88407935.8530       1860.127          44.547    21590133.764    88407935.8530       1860.127          46.047    21590134.540    84724270.4150       1782.592          49.017  
G07  20092896.638   105588854.9130         39.274          50.997    20092896.638   105588854.9130         39.274          47.997    20092896.638   105588854.9130         39.274          52.497    20092896.291    82277013.4690         30.513          49.160    20092896.291    82277013.4690         30.513          50.660    20092896.213    78848801.0350         29.222          53.630  
G08  22630983.175   118926570.2050      -3068.490          46.313    22630983.175   118926570.2050      -3068.490          43.313    22630983.175   118926570.2050      -3068.490          47.813    22630987.189    92670046.4050      -2391.191          43.514    22630987.189    92670046.4050      -2391.191          45.014    22630988.097    88808792.6720      -2291.592          47.983  
G09  23769404.596   124908999.8490      -3155.291          43.732    23769404.596   124908999.8490      -3155.291          40.732    23769404.596   124908999.8490      -3155.291          45.232    23769408.738    97331672.7090      -2458.856          40.771    23769408.738    97331672.7090      -2458.856          42.271    23769409.675    93276182.9900      -2356.444          45.241  
G14  22389312.806   117656585.2150       1724.204          46.905    22389312.806   117656585.2150       1724.204          43.905    22389312.806   117656585.2150       1724.204          48.405    22389314.207    91680437.7020       1343.408          43.862    22389314.207    91680437.7020       1343.408          45.362    22389314.524    87860415.4950       1287.406          48.331  
G17  22307320.029   117225707.1840       2456.019          46.392    22307320.029   117225707.1840       2456.019          43.392    22307320.029   117225707.1840       2456.019          47.892    22307320.987    91344685.2220       1913.640          43.574    22307320.987    91344685.2220       1913.640          45.074    22307321.203    87538651.9730       1833.874          48.044  
G21  21430385.871   112617399.1840       -288.468          48.289    21430385.871   112617399.1840       -288.468          45.289    21430385.871   112617399.1840       -288.468          49.789    21430386.265    87753799.6610       -224.910          44.991    21430386.265    87753799.6610       -224.910          46.491    21430386.354    84097387.4650       -215.566          49.460  
G30  21241747.440   111626101.1490       2081.822          49.678    21241747.440   111626101.1490       2081.822          46.678    21241747.440   111626101.1490       2081.822          51.178    21241750.321    86981371.6400       1622.097          45.952    21241750.321    86981371.6400       1622.097          47.452    21241750.972    83357146.5480       1554.488          50.422  
I02  37445231.163   146942992.2200        187.001          47.024  
I03  37267287.135   146244715.2260        -39.546          48.127  
I06  39778260.216   156098189.8570        -17.790          42.331  
I09  39526424.510   155109947.6080       -537.423          42.523  
J02  39777407.350   209031645.7020        826.775          45.094    39777407.350   209031645.7020        826.775          46.594    39777407.350   209031645.7020        826.775          45.094    39777410.537   156095048.4620        617.236          48.135    39777410.537   156095048.4620        617.236          48.135  
J03  39196367.863   205978266.7010       -475.736          46.039    39196367.863   205978266.7010       -475.736          47.539    39196367.863   205978266.7010       -475.736          46.039    39196370.519   153814928.1280       -355.399          49.527    39196370.519   153814928.1280       -355.399          49.527  
J07  37729499.613   198269816.7240         -4.682          45.509    37729499.613   198269816.7240         -4.682          47.009    37729499.613   198269816.7240         -4.682          45.509    37729501.450   148058611.7310         -3.662          48.288    37729501.450   148058611.7310         -3.662          48.288  
R03  23399237.966   125257873.8200      -1191.740          38.712  
R11  22224249.814   118759597.3980      -1971.506          42.378  
R12  20087556.948   107304089.2160        701.183          47.555  
R13  21866144.984   116763940.3300       2692.151          43.417  
R21  22853163.825   122291833.5610      -3829.906          40.884  
R22  19788437.581   105631991.3350      -1076.981          48.339  
R23  20617048.851   110287270.1440       3402.064          46.233  
S22  38852193.655   204169602.6820         -0.377          41.330    38852193.655   152464313.6910         -0.281          42.378  
S23  40134228.038   210906715.6240         -2.105          39.073    40134228.038   157495274.6540         -1.572          40.079  
S26  37657695.027   197892480.1580          1.506          43.206    37657695.027   147776852.0660          1.125          44.421  
S27  38198721.071   200735585.3250         -9.894          42.335    38198721.071   149899950.0810         -7.388          43.517  
S28  36916147.271   193995627.3460         -8.643          44.744    36916147.271   144866864.5760         -6.454          46.409  
S30  38646950.760   203091046.2530         -4.883          41.657    38646950.760   151658898.1760         -3.646          42.860  
S32  36780505.388   193282825.6110         -2.726          45.263    36780505.388   144334577.5670         -2.035          46.725  
S34  36783500.321   193298563.9520         -0.114          45.208    36783500.321   144346330.2240         -0.085          46.694  
S37  37729942.840   198272145.8940         -4.965          43.108    37729942.840   148060368.6870         -3.707          44.287  
S43  36944528.577   194144772.2430         -1.622          44.596    36944528.577   144978239.0120         -1.211          46.310  
S44  37037297.713   194632276.1760         43.588          44.346    37037297.713   145342284.1570         32.549          46.108  
> 2023 01 08 10 15  0.0000000  0 64
C01  39008971.345   204993475.0120         29.138          38.924    39008971.438   203129897.4820         28.866          34.904    39008970.120   153079535.3630         21.738          42.527    39008973.302   157072901.7350         22.114          35.503  
C02  36948632.962   194166341.1580          3.555          42.303    36948633.024   192401192.2770          3.518          38.282    36948628.529   144994326.3580          2.643          46.739    36948630.665   148776778.4460          2.605          39.716  
C03  37077705.254   194844620.2300         32.186          41.998    37077705.317   193073305.1720         31.889          37.978    37077702.384   145500839.5640         24.022          46.454    37077704.543   149296504.9430         24.534          39.431  
C04  40280128.439   211673436.1900         24.390          36.590    40280128.557   209749131.6080         24.158          32.570    40280124.616   158067807.0830         18.183          40.447    40280128.664   162191298.7920         18.386          33.423  
C05  38081279.107   200118426.1230         -1.133          40.312    38081279.188   198299167.2820         -1.127          36.292    38081276.637   149439072.2530         -0.860          44.170    38081279.415   153337471.6480         -1.010          37.147  
C06  37405060.206   196564877.6920      -1364.369          41.126    37405060.277   194777923.8890      -1351.970          37.105    37405057.366   146785447.2890      -1018.861          45.071    37405059.791   150614623.1050      -1045.567          38.048  
C07  36222431.677   190350132.8510       -220.657          44.357    36222431.731   188619676.8200       -218.654          40.336    36222427.689   142144562.4360       -164.786          48.935    36222429.512   145852674.1140       -169.176          41.912  
C09  36374988.779   191151822.7060      -1002.231          43.345    36374988.838   189414078.5570       -993.124          39.325    36374988.050   142743239.5600       -748.431          47.413    36374990.061   146466968.1460       -768.057          40.389  
C10  36444353.677   191516340.9120       -130.318          44.364    36444353.730   189775282.9910       -129.137          40.344    36444352.956   143015444.9180        -97.326          48.999    36444354.774   146746275.2890        -99.954          41.975  
C16  37719481.222   198217168.4100      -1383.686          40.628    37719481.298   196415193.7560      -1371.112          36.607    37719483.648   148019321.2570      -1033.287          44.453    37719486.245   151880684.3960      -1060.379          37.429  
C23  24183310.538   127084108.1720      -1919.383          45.264    24183310.620   125928797.6740      -1901.940          41.243    24183310.858    94900469.1350      -1433.323          48.751    24183313.646    97376122.3170      -1470.875          41.727  
C27  22585959.901   118689984.9100       2236.290          47.683    22585959.964   117610984.7230       2215.956          43.663    22585960.145    88632130.6320       1669.945          50.747    22585962.274    90944264.5970       1713.402          43.724  
C28  21852215.365   114834136.7720       -678.569          48.839    21852215.417   113790189.8000       -672.404          44.818    21852215.571    85752763.6620       -506.734          53.180    21852217.374    87989785.0190       -520.047          46.156  
C37  22038275.034   115811887.3160        318.746          48.961    22038275.086   114759051.7060        315.845          44.940    22038275.238    86482902.0660        238.015          53.508    22038277.018    88738970.6040        244.133          46.485  
C38  40034544.148   210382883.7780       1877.138          37.085    40034544.264   208470311.5070       1860.064          33.064    40034544.600   157104099.7500       1401.732          40.671    40034548.544   161202451.6900       1438.058          33.648  
C39  38647316.580   203092967.5190      -1545.890          39.278    38647316.671   201246667.3400      -1531.842          35.257    38647316.936   151660331.4880      -1154.417          43.091    38647320.050   155616675.4220      -1184.700          36.067  
C40  36686139.673   192786932.0640       -442.062          43.474    36686139.731   191034323.2890       -438.047          39.453    36686139.901   143964266.5570       -330.122          47.468    36686141.889   147719848.1130       -338.834          40.444  
C43  25638150.533   134729323.5320      -3032.127          41.511    25638150.650   133504510.8890      -3004.570          37.491    25638150.993   100609557.9760      -2264.276          45.382    25638155.007   103234138.9770      -2323.574          38.359  
C46  24268103.297   127529690.4490       2462.033          44.618    24268103.390   126370329.1410       2439.645          40.598    24268103.662    95233208.9660       1838.515          48.237    24268106.852    97717540.7040       1886.338          41.213  
C59  38644935.755   203080458.6900         -3.871          39.459    38644935.842   201234272.2500         -3.843          35.438    38644936.095   151650990.5460         -2.910          43.363    38644939.059   155607091.4050         -3.160          36.339  
C60  37033693.263   194613335.6100         43.575          42.153    37033693.326   192844123.1390         43.175          38.132    37033693.511   145328139.2570         32.528          46.614    37033695.673   149119299.3990         33.270          39.590  
E01  25335618.085   133139529.1530       -954.585          47.245    25335621.418    99422363.5690       -713.012          49.700    25335620.929   102015991.4070       -731.592          49.676  
E04  26597253.178   139769447.3490      -2608.061          44.726    26597256.316   104373264.5030      -1947.790          47.266    26597257.291   107096053.4850      -1998.578          47.242  
E09  26150355.465   137420991.8440      -1206.753          45.936    26150360.765   102619560.8560       -901.314          48.915    26150359.054   105296589.6880       -924.807          48.892  
E12  26778382.609   140721289.2290       3060.829          44.564    26778381.719   105084039.8870       2285.444          47.081    26778386.703   107825386.9530       2345.092          47.057  
E14  24820279.754   130431383.3370      -2807.756          43.595    24820283.066    97400032.2320      -2096.992          46.942    24820284.244    99940912.0090      -2151.662          46.918  
E24  27334052.925   143641347.7270       1626.288          43.841    27334057.074   107264617.6600       1214.242          46.548    27334057.602   110062832.0240       1245.941          46.525  
E26  26285239.406   138129817.1090      -1029.246          46.278    26285240.671   103148865.7710       -768.790          49.171    26285242.635   105839716.9880       -788.823          49.147  
E31  24358400.133   128004221.5220        676.864          49.290    24358405.539    95587568.4200        505.325          51.745    24358402.484    98081147.2850        518.522          51.721  
E33  24495551.726   128724957.4140       1490.906          48.708    24495552.545    96125761.9370       1113.196          51.343    24495554.117    98633399.3010       1142.252          51.320  
G01  21458127.912   112763183.6340       2234.875          48.100    21458127.912   112763183.6340       2234.875          45.100    21458127.912   112763183.6340       2234.875          49.600    21458131.255    87867409.5270       1741.324          44.771    21458131.255    87867409.5270       1741.324          46.271    21458132.011    84206266.0990       1668.739          49.240  
G07  20095613.937   105603134.5650       -135.401          50.839    20095613.937   105603134.5650       -135.401          47.839    20095613.937   105603134.5650       -135.401          52.339    20095613.582    82288140.5080       -105.601          49.053    20095613.582    82288140.5080       -105.601          50.553    20095613.501    78859464.4550       -101.221          53.522  
G08  22807210.899   119852651.7010      -3104.786          45.951    22807210.899   119852651.7010      -3104.786          42.951    22807210.899   119852651.7010      -3104.786          47.451    22807215.002    93391667.9860      -2419.484          43.219    22807215.002    93391667.9860      -2419.484          44.719    22807215.930    89500346.6090      -2318.710          47.689  
G09  23949590.842   125855882.9640      -3156.427          43.227    23949590.842   125855882.9640      -3156.427          40.227    23949590.842   125855882.9640      -3156.427          44.727    23949595.108    98069503.2040      -2459.755          40.470    23949595.108    98069503.2040      -2459.755          41.970    23949596.073    93983270.4380      -2357.309          44.940  
G13  24446400.262   128466619.3700       2013.626          40.869    24446400.262   128466619.3700       2013.626          37.869    24446400.262   128466619.3700       2013.626          42.369    24446402.996   100103829.5650       1568.881          39.327    24446402.996   100103829.5650       1568.881          40.827    24446403.614    95932830.2320       1503.472          43.797  
G14  22291472.590   117142432.8530       1702.953          47.096    22291472.590   117142432.8530       1702.953          44.096    22291472.590   117142432.8530       1702.953          48.596    22291473.902    91279799.8610       1326.847          43.964    22291473.902    91279799.8610       1326.847          45.464    22291474.199    87476470.9770       1271.534          48.434  
G17  22170375.036   116506058.5570       2340.603          46.705    22170375.036   116506058.5570       2340.603          43.705    22170375.036   116506058.5570       2340.603          48.205    22170375.860    90783920.6050       1823.705          43.772    22170375.860    90783920.6050       1823.705          45.272    22170376.047    87001252.6670       1747.687          48.242  
G21  21452438.930   112733289.1550       -484.568          48.287    21452438.930   112733289.1550       -484.568          45.287    21452438.930   112733289.1550       -484.568          49.787    21452439.301    87844103.6270       -377.717          44.990    21452439.301    87844103.6270       -377.717          46.490    21452439.385    84183928.7860       -362.008          49.460  
G30  21126388.040   111019884.4900       1957.883          50.034    21126388.040   111019884.4900       1957.883          47.034    21126388.040   111019884.4900       1957.883          51.534    21126390.855    86508995.2940       1525.521          46.224    21126390.855    86508995.2940       1525.521          47.724    21126391.491    82904452.6080       1461.935          50.694  
I02  37430877.719   146886667.5460        186.990          47.060  
I03  37270203.367   146256159.9500        -38.251          48.119  
I06  39779572.490   156103340.7310        -18.811          42.329  
I09  39566968.916   155269052.0640       -525.632          42.482  
J02  39729696.421   208780923.3990        844.009          45.104    39729696.421   208780923.3990        844.009          46.604    39729696.421   208780923.3990        844.009          45.104    39729699.584   155907820.8630        630.101          48.141    39729699.584   155907820.8630        630.101          48.141  
J03  39223792.161   206122382.8130       -485.402          46.077    39223792.161   206122382.8130       -485.402          47.577    39223792.161   206122382.8130       -485.402          46.077    39223794.783   153922547.4360       -362.620          49.573    39223794.783   153922547.4360       -362.620          49.573  
J07  37729749.627   198271130.8980         -4.644          45.508    37729749.627   198271130.8980         -4.644          47.008    37729749.627   198271130.8980         -4.644          45.508    37729751.439   148059593.1950         -3.638          48.288    37729751.439   148059593.1950         -3.638          48.288  
R03  23471201.098   125643096.9990      -1375.409          38.494  
R11  22337683.529   119365751.9400      -2070.624          42.044  
R12  20050694.896   107107179.3150        609.930          47.693  
R13  21714902.407   115956315.7070       2690.509          43.837  
R21  23070823.569   123456572.5460      -3933.539          40.197  
R22  19856202.966   105993727.3550      -1333.850          48.257  
R23  20431269.385   109293477.2260       3220.672          46.567  
S22  38852193.474   204169602.1900         -0.387          41.330    38852193.474   152464313.3230         -0.289          42.378  
S23  40134328.051   210907241.6060         -2.087          39.073    40134328.051   157495667.4330         -1.558          40.079  
S26  37657596.428   197891962.3110          1.457          43.206    37657596.428   147776465.3620          1.088          44.421  
S27  38199273.558   200738488.9900        -10.110          42.335    38199273.558   149902118.4020         -7.550          43.517  
S28  36916621.321   193998118.7580         -8.665          44.744    36916621.321   144868725.0470         -6.471          46.409  
S30  38647192.314   203092316.0580         -4.305          41.656    38647192.314   151659846.4070         -3.214          42.860  
S32  36780648.629   193283578.6080         -2.724          45.263    36780648.629   144335139.8700         -2.034          46.726  
S34  36783494.807   193298535.2350         -0.124          45.208    36783494.807   144346308.7790         -0.093          46.694  
S37  37730209.698   198273548.5800         -4.952          43.107    37730209.698   148061416.1470         -3.698          44.287  
S43  36944622.438   194145265.7670         -2.128          44.598    36944622.438   144978607.5530         -1.589          46.311  
S44  37034786.707   194619081.0330         43.933          44.353    37034786.707   145332430.6410         32.807          46.114  
> 2023 01 08 10 20  0.0000000  0 64
C01  39007268.107   204984524.9350         29.729          38.927    39007268.199   203121028.7740         29.451          34.906    39007266.879   153072851.8780         22.178          42.531    39007270.031   157066044.0180         22.562          35.507  
C02  36948403.085   194165133.4130          4.051          42.302    36948403.146   192399995.5140          4.010          38.282    36948398.651   144993424.4770          3.013          46.739    36948400.770   148775853.1030          2.982          39.716  
C03  37075835.833   194834796.6520         32.823          42.001    37075835.895   193063570.9020         32.520          37.981    37075832.960   145493503.7830         24.497          46.458    37075835.102   149288977.8660         25.019          39.434  
C04  40278701.214   211665936.7650         24.474          36.593    40278701.331   209741700.3660         24.241          32.573    40278697.385   158062206.8820         18.245          40.448    40278701.392   162185552.6670         18.445          33.424  
C05  38081302.881   200118551.3730         -0.238          40.311    38081302.962   198299291.3960         -0.241          36.291    38081300.409   149439165.7920         -0.192          44.169    38081303.168   153337567.7030         -0.329          37.146  
C06  37483901.501   196979191.1080      -1398.040          41.002    37483901.573   195188470.8160      -1385.336          36.981    37483898.664   147094837.1670      -1044.006          44.888    37483901.112   150932083.9300      -1071.373          37.865  
C07  36234731.742   190414770.2940       -210.519          44.335    36234731.795   188683726.6520       -208.609          40.315    36234727.753   142192830.6620       -157.216          48.890    36234729.566   145902201.5510       -161.412          41.866  
C09  36433514.381   191459376.6280      -1048.442          43.094    36433514.440   189718836.5330      -1038.915          39.073    36433513.653   142972906.4450       -782.939          47.262    36433515.676   146702626.2950       -803.470          40.238  
C10  36451498.390   191553886.8100       -120.222          44.345    36451498.443   189812487.5640       -119.132          40.324    36451497.668   143043482.4440        -89.786          48.969    36451499.476   146775044.2720        -92.221          41.945  
C16  37799381.770   198637048.1760      -1415.856          40.496    37799381.847   196831256.4290      -1402.990          36.476    37799384.199   148332867.8240      -1057.311          44.328    37799386.824   152202410.3290      -1085.036          37.305  
C23  24295090.695   127671516.1080      -1997.325          45.053    24295090.778   126510865.5300      -1979.174          41.032    24295091.020    95339117.8980      -1491.528          48.614    24295093.854    97826213.9090      -1530.607          41.590  
C27  22461773.162   118037380.4180       2113.234          48.124    22461773.222   116964313.0100       2094.018          44.103    22461773.397    88144796.1410       1578.052          51.030    22461775.452    90444217.3300       1619.112          44.006  
C28  21895287.100   115060480.2850       -830.122          48.832    21895287.153   114014475.6450       -822.579          44.811    21895287.307    85921786.4160       -619.907          53.010    21895289.109    88163217.0650       -636.175          45.986  
C37  22022654.177   115729799.4730        227.452          48.998    22022654.228   114677710.1190        225.380          44.978    22022654.378    86421602.7110        169.840          53.563    22022656.140    88676072.2120        174.177          46.539  
C38  39926901.718   209817220.9220       1892.591          37.310    39926901.830   207909791.0580       1875.376          33.290    39926902.156   156681689.2280       1413.271          40.774    39926905.984   160769022.2300       1449.900          33.751  
C39  38736141.785   203559746.5480      -1566.392          39.143    38736141.877   201709202.9190      -1552.159          35.123    38736142.145   152008900.2280      -1169.728          42.871    38736145.294   155974337.1210      -1200.418          35.847  
C40  36710938.359   192917250.1190       -426.971          43.374    36710938.417   191163456.6350       -423.093          39.353    36710938.586   144061581.9900       -318.854          47.404    36710940.569   147819702.2290       -327.275          40.380  
C43  25812294.223   135644453.2720      -3068.598          41.043    25812294.343   134411321.2540      -3040.711          37.022    25812294.693   101292934.0400      -2291.513          45.160    25812298.799   103935341.8720      -2351.535          38.136  
C46  24127832.372   126792563.8920       2450.871          44.890    24127832.462   125639903.7550       2428.585          40.869    24127832.723    94682757.3750       1830.180          48.493    24127835.785    97152730.0200       1877.785          41.470  
C59  38645119.470   203081424.5490         -3.293          39.458    38645119.555   201235229.3340         -3.270          35.438    38645119.806   151651711.8170         -2.479          43.363    38645122.745   155607831.5960         -2.722          36.339  
C60  37031183.601   194600147.5380         43.894          42.160    37031183.664   192831054.9610         43.491          38.139    37031183.847   145318291.0280         32.766          46.620    37031185.992   149109194.3310         33.511          39.596  
E01  25390628.918   133428612.8870       -973.559          47.150    25390632.263    99638237.7420       -727.188          49.639    25390631.772   102237497.0850       -746.137          49.615  
E04  26746222.924   140552287.0650      -2610.508          44.439    26746226.181   104957852.1340      -1949.632          46.959    26746227.143   107695891.2820      -2000.465          46.935  
E09  26222251.565   137798807.8080      -1311.749          45.810    26222256.910   102901695.9780       -979.728          48.792    26222255.193   105586084.8780      -1005.266          48.768  
E12  26604035.708   139805092.8140       3045.259          44.891    26604034.611   104399868.0510       2273.821          47.479    26604039.618   107123367.0620       2333.165          47.455  
E14  24981669.040   131279488.2090      -2846.431          43.096    24981672.470    98033356.8380      -2125.893          46.720    24981673.635   100590758.1800      -2181.315          46.696  
E24  27240859.698   143151615.9610       1638.061          44.049    27240863.700   106898909.4510       1223.028          46.668    27240864.245   109687583.5340       1254.956          46.645  
E26  26347795.677   138458552.2580      -1162.512          46.171    26347796.963   103394349.7290       -868.315          49.099    26347798.925   106091604.8850       -890.943          49.076  
E31  24319974.889   127802296.0760        668.717          49.427    24319980.251    95436780.1080        499.239          51.840    24319977.201    97926425.3450        512.277          51.816  
E33  24414001.768   128296410.4050       1364.865          48.969    24414002.518    95805743.3380       1019.074          51.538    24414004.097    98305032.3600       1045.675          51.515  
G01  21335124.516   112116797.7660       2072.159          48.298    21335124.516   112116797.7660       2072.159          45.298    21335124.516   112116797.7660       2072.159          49.798    21335127.776    87363732.5650       1614.533          44.994    21335127.776    87363732.5650       1614.533          46.494    21335128.514    83723575.7510       1547.231          49.464  
G07  20108392.641   105670287.2180       -313.108          50.666    20108392.641   105670287.2180       -313.108          47.666    20108392.641   105670287.2180       -313.108          52.166    20108392.278    82340467.2790       -244.077          48.916    20108392.278    82340467.2790       -244.077          50.416    20108392.196    78909610.9500       -233.928          53.385  
G08  22985296.718   120788497.5330      -3133.686          45.570    22985296.718   120788497.5330      -3133.686          42.570    22985296.718   120788497.5330      -3133.686          47.070    22985300.910    94120898.1360      -2442.016          42.815    22985300.910    94120898.1360      -2442.016          44.315    22985301.858    90199192.0900      -2340.305          47.284  
G09  24129565.970   126801656.6630      -3147.991          42.704    24129565.970   126801656.6630      -3147.991          39.704    24129565.970   126801656.6630      -3147.991          44.204    24129570.358    98806469.2220      -2453.196          40.220    24129570.358    98806469.2220      -2453.196          41.720    24129571.351    94689529.4310      -2351.026          44.690  
G13  24335775.314   127885283.5680       1860.309          41.191    24335775.314   127885283.5680       1860.309          38.191    24335775.314   127885283.5680       1860.309          42.691    24335777.910    99650841.1900       1449.408          39.533    24335777.910    99650841.1900       1449.408          41.033    24335778.497    95498716.4940       1388.976          44.002  
G14  22194850.989   116634684.3120       1681.467          47.281    22194850.989   116634684.3120       1681.467          44.281    22194850.989   116634684.3120       1681.467          48.781    22194852.215    90884152.0010       1310.103          44.068    22194852.215    90884152.0010       1310.103          45.568    22194852.492    87097308.5210       1255.487          48.538  
G17  22040097.134   115821445.5850       2222.529          46.996    22040097.134   115821445.5850       2222.529          43.996    22040097.134   115821445.5850       2222.529          48.496    22040097.834    90250456.4620       1731.700          43.930    22040097.834    90250456.4620       1731.700          45.430    22040097.992    86490016.3070       1659.515          48.400  
G21  21485664.291   112907889.8820       -679.734          48.265    21485664.291   112907889.8820       -679.734          45.265    21485664.291   112907889.8820       -679.734          49.765    21485664.645    87980156.2120       -529.798          44.968    21485664.645    87980156.2120       -529.798          46.468    21485664.725    84314312.5280       -507.752          49.437  
G30  21018331.600   110452045.0470       1826.001          50.208    21018331.600   110452045.0470       1826.001          47.208    21018331.600   110452045.0470       1826.001          51.708    21018334.354    86066523.2480       1422.754          46.517    21018334.354    86066523.2480       1422.754          48.017    21018334.977    82480416.9510       1363.451          50.987  
I02  37416520.400   146830327.6940        187.056          47.097  
I03  37273018.015   146267206.0690        -36.933          48.110  
I06  39780958.991   156108782.9420        -19.823          42.327  
I09  39606590.256   155424534.3270       -513.381          42.442  
J02  39681027.133   208525164.8950        860.330          45.116    39681027.133   208525164.8950        860.330          46.616    39681027.133   208525164.8950        860.330          45.116    39681030.272   155716832.4670        642.285          48.146    39681030.272   155716832.4670        642.285          48.146  
J03  39251747.380   206269288.9240       -494.341          46.119    39251747.380   206269288.9240       -494.341          47.619    39251747.380   206269288.9240       -494.341          46.119    39251749.969   154032250.1830       -369.298          49.612    39251749.969   154032250.1830       -369.298          49.612  
J07  37729996.997   198272431.1810         -4.604          45.508    37729996.997   198272431.1810         -4.604          47.008    37729996.997   198272431.1810         -4.604          45.508    37729998.782   148060564.2890         -3.612          48.288    37729998.782   148060564.2890         -3.612          48.288  
R03  23553171.628   126081890.3790      -1548.769          38.251  
R11  22456721.410   120001853.4100      -2171.127          41.691  
R12  20019158.985   106938720.6650        511.493          47.809  
R13  21563914.905   115150053.1020       2682.979          44.242  
R21  23293902.710   124650311.7950      -4023.329          39.494  
R22  19938197.334   106431418.5510      -1583.162          48.042  
R23  20256005.835   108355937.1740       3027.165          46.942  
S22  38852193.348   204169602.0020         -0.396          41.330    38852193.348   152464313.1840         -0.296          42.378  
S23  40134426.198   210907757.8000         -2.068          39.073    40134426.198   157496052.9030         -1.544          40.079  
S26  37657500.234   197891457.1140          1.407          43.206    37657500.234   147776088.1040          1.051          44.421  
S27  38199837.749   200741454.1670        -10.322          42.335    38199837.749   149904332.6570         -7.708          43.517  
S28  36917096.146   194000614.2480         -8.683          44.744    36917096.146   144870588.5620         -6.484          46.409  
S30  38647400.286   203093409.4020         -3.724          41.656    38647400.286   151660662.8650         -2.781          42.859  
S32  36780791.375   193284329.0060         -2.720          45.264    36780791.375   144335700.2320         -2.031          46.726  
S34  36783489.515   193298507.6900         -0.134          45.208    36783489.515   144346288.2100         -0.100          46.694  
S37  37730475.368   198274945.0350         -4.937          43.107    37730475.368   148062458.9540         -3.687          44.287  
S43  36944744.760   194145908.8650         -2.631          44.600    36944744.760   144979087.7890         -1.965          46.313  
S44  37032256.254   194605783.7060         44.257          44.360    37032256.254   145322500.8200         33.049          46.120  
> 2023 01 08 10 25  0.0000000  0 63
C01  39005531.105   204975397.4330         30.304          38.930    39005531.196   203111984.2540         30.021          34.909    39005529.873   153066035.9000         22.608          42.536    39005532.994   157059050.3550         22.998          35.512  
C02  36948144.581   194163775.2400          4.545          42.302    36948144.642   192398649.6900          4.500          38.282    36948140.145   144992410.2640          3.382          46.739    36948142.248   148774812.4990          3.357          39.715  
C03  37073930.187   194824782.7250         33.443          42.005    37073930.249   193053648.0130         33.134          37.984    37073927.313   145486025.8580         24.960          46.462    37073929.436   149281304.9390         25.491          39.438  
C04  40277268.968   211658410.9720         24.545          36.596    40277269.084   209734242.9970         24.312          32.575    40277265.135   158056586.9910         18.298          40.449    40277269.100   162179786.3410         18.494          33.426  
C05  38081275.105   200118405.7300          0.657          40.310    38081275.185   198299147.0790          0.646          36.289    38081272.631   149439057.0420          0.475          44.168    38081275.370   153337456.1940          0.352          37.145  
C06  37564626.700   197403404.4930      -1430.381          40.873    37564626.772   195608827.7120      -1417.383          36.852    37564623.865   147411619.8790      -1068.157          44.722    37564626.337   151257130.4430      -1096.160          37.698  
C07  36246432.014   190476255.8150       -199.664          44.316    36246432.067   188744653.2150       -197.852          40.295    36246428.024   142238745.1790       -149.110          48.845    36246429.827   145949313.8810       -153.097          41.822  
C09  36494656.288   191780679.3130      -1093.891          42.835    36494656.347   190037218.2830      -1083.951          38.815    36494655.562   143212840.2620       -816.879          47.107    36494657.596   146948819.2060       -838.300          40.083  
C10  36458042.547   191588276.7730       -109.298          44.328    36458042.599   189846564.8930       -108.308          40.308    36458041.823   143069163.2660        -81.629          48.936    36458043.620   146801395.0730        -83.853          41.912  
C16  37881076.912   199066358.5850      -1446.572          40.363    37881076.990   197256664.0130      -1433.427          36.342    37881079.345   148653456.7540      -1080.249          44.209    37881081.997   152531362.3370      -1108.578          37.186  
C23  24411311.564   128282260.1090      -2074.949          44.829    24411311.648   127116057.3060      -2056.093          40.809    24411311.894    95795192.9420      -1549.495          48.442    24411314.775    98294186.3730      -1590.095          41.419  
C27  22344733.205   117422332.4160       1985.985          48.538    22344733.263   116354856.3650       1967.927          44.518    22344733.432    87685507.0800       1483.029          51.315    22344735.420    89972947.0870       1521.610          44.291  
C28  21946892.994   115331671.0600       -977.486          48.846    21946893.047   114283201.0480       -968.603          44.826    21946893.201    86124299.0060       -729.952          52.794    21946895.005    88371012.5860       -749.094          45.770  
C37  22012359.237   115675699.4950        132.173          49.024    22012359.288   114624101.9620        130.968          45.003    22012359.437    86381203.3850         98.690          53.599    22012361.180    88634619.0610        101.169          46.575  
C38  39818441.003   209247257.9330       1905.807          37.532    39818441.111   207345009.5690       1888.473          33.512    39818441.428   156256067.5670       1423.141          40.885    39818445.141   160332297.8580       1460.028          33.861  
C39  38826086.525   204032408.7750      -1585.136          39.008    38826086.618   202177568.2110      -1570.732          34.988    38826086.889   152361862.2650      -1183.726          42.635    38826090.072   156336506.7250      -1214.789          35.611  
C40  36734845.535   193042883.2740       -410.854          43.279    36734845.592   191287947.6700       -407.123          39.258    36734845.761   144155398.9580       -306.818          47.342    36734847.739   147915966.6200       -314.929          40.318  
C43  25988326.818   136569509.3370      -3098.390          40.583    25988326.940   135327967.7050      -3070.233          36.562    25988327.298   101983722.6200      -2313.762          44.900    25988331.492   104644150.6700      -2374.380          37.877  
C46  23988321.643   126059432.1180       2435.355          45.158    23988321.729   124913436.8340       2413.210          41.137    23988321.980    94135288.8980       1818.593          48.688    23988324.918    96590980.2540       1865.894          41.665  
C59  38645269.665   203082214.2750         -2.713          39.458    38645269.750   201236011.8840         -2.696          35.437    38645269.998   151652301.5590         -2.047          43.362    38645272.911   155608436.8300         -2.282          36.338  
C60  37028655.997   194586865.1810         44.192          42.166    37028656.059   192817893.3560         43.786          38.146    37028656.240   145308372.3940         32.988          46.626    37028658.368   149099017.0200         33.736          39.603  
E01  25446778.443   133723680.4880       -994.513          47.055    25446781.798    99858580.3890       -742.843          49.582    25446781.306   102463587.8060       -762.199          49.558  
E04  26895142.049   141334860.7700      -2606.351          44.132    26895145.425   105542241.1220      -1946.542          46.718    26895146.373   108295525.2550      -1997.293          46.694  
E09  26299992.579   138207338.9370      -1411.499          45.676    26299997.973   103206767.7310      -1054.225          48.629    26299996.252   105899115.0460      -1081.705          48.606  
E12  26430765.651   138894555.1640       3023.111          45.199    26430764.354   103719921.8880       2257.285          47.928    26430769.384   106425683.0810       2316.198          47.904  
E14  25145117.124   132138412.2170      -2879.979          42.603    25145120.665    98674760.6950      -2150.966          46.462    25145121.817   101248894.3620      -2207.039          46.438  
E24  27146973.396   142658242.0480       1650.527          44.249    27146977.252   106530481.4520       1232.332          46.803    27146977.813   109309544.3030       1264.503          46.779  
E26  26417871.285   138826801.7190      -1292.632          46.048    26417872.596   103669341.1080       -965.490          49.009    26417874.556   106373769.9640       -990.652          48.986  
E31  24282044.185   127602969.4550        659.495          49.556    24282049.504    95287932.4750        492.349          51.935    24282046.459    97773694.7110        505.208          51.911  
E33  24339768.132   127906310.8570       1234.657          49.229    24339768.819    95514435.4820        921.841          51.719    24339770.406    98006125.1400        945.905          51.695  
G01  21221690.414   111520698.7560       1899.728          48.485    21221690.414   111520698.7560       1899.728          45.485    21221690.414   111520698.7560       1899.728          49.985    21221693.599    86899240.1380       1480.171          45.203    21221693.599    86899240.1380       1480.171          46.703    21221694.319    83278437.2420       1418.468          49.672  
G07  20131385.547   105791115.8300       -493.131          50.491    20131385.547   105791115.8300       -493.131          47.491    20131385.547   105791115.8300       -493.131          51.991    20131385.180    82434619.4630       -384.358          48.745    20131385.180    82434619.4630       -384.358          50.245    20131385.097    78999840.1300       -368.364          53.214  
G08  23164827.736   121731937.9390      -3155.522          45.169    23164827.736   121731937.9390      -3155.522          42.169    23164827.736   121731937.9390      -3155.522          46.669    23164832.019    94856046.1350      -2459.043          42.317    23164832.019    94856046.1350      -2459.043          43.817    23164832.988    90903708.8410      -2356.626          46.786  
G09  24308790.401   127743485.4590      -3130.230          42.182    24308790.401   127743485.4590      -3130.230          39.182    24308790.401   127743485.4590      -3130.230          43.682    24308794.909    99540361.3000      -2439.371          39.992    24308794.909    99540361.3000      -2439.371          41.492    24308795.929    95392842.5650      -2337.781          44.461  
G13  24234055.230   127350743.0150       1701.736          41.499    24234055.230   127350743.0150       1701.736          38.499    24234055.230   127350743.0150       1701.736          42.999    24234057.698    99234316.6110       1325.839          39.701    24234057.698    99234316.6110       1325.839          41.201    24234058.256    95099547.2210       1270.555          44.171  
G14  22099467.908   116133444.1970       1659.518          47.460    22099467.908   116133444.1970       1659.518          44.460    22099467.908   116133444.1970       1659.518          48.960    22099469.051    90493575.6300       1292.998          44.180    22099469.051    90493575.6300       1292.998          45.680    22099469.309    86723006.2400       1239.095          48.649  
G17  21916624.349   115172593.6050       2102.278          47.263    21916624.349   115172593.6050       2102.278          44.263    21916624.349   115172593.6050       2102.278          48.763    21916624.932    89744857.9910       1637.999          44.070    21916624.932    89744857.9910       1637.999          45.570    21916625.064    86005484.5420       1569.719          48.540  
G21  21529983.003   113140786.4770       -873.073          48.225    21529983.003   113140786.4770       -873.073          45.225    21529983.003   113140786.4770       -873.073          49.725    21529983.346    88161634.1250       -680.455          44.924    21529983.346    88161634.1250       -680.455          46.424    21529983.423    84488228.8720       -652.133          49.393  
G30  20918025.663   109924934.6780       1686.393          50.214    20918025.663   109924934.6780       1686.393          47.214    20918025.663   109924934.6780       1686.393          51.714    20918028.362    85655788.1200       1313.968          46.843    20918028.362    85655788.1200       1313.968          48.343    20918028.973    82086795.8350       1259.196          51.313  
I02  37402153.900   146773951.8310        187.185          47.134  
I03  37275729.369   146277846.8640        -35.593          48.101  
I06  39782419.049   156114513.8620        -20.826          42.325  
I09  39645253.995   155576258.8690       -500.686          42.406  
J02  39631452.454   208264648.5330        875.709          45.127    39631452.454   208264648.5330        875.709          46.627    39631452.454   208264648.5330        875.709          45.127    39631455.567   155522291.1270        653.765          48.152    39631455.567   155522291.1270        653.765          48.152  
J03  39280191.357   206418763.4670       -502.530          46.157    39280191.357   206418763.4670       -502.530          47.657    39280191.357   206418763.4670       -502.530          46.157    39280193.912   154143870.9120       -375.416          49.648    39280193.912   154143870.9120       -375.416          49.648  
J07  37730241.602   198273716.9480         -4.561          45.508    37730241.602   198273716.9480         -4.561          47.008    37730241.602   198273716.9480         -4.561          45.508    37730243.361   148061524.5460         -3.585          48.288    37730243.361   148061524.5460         -3.585          48.288  
R11  22581428.805   120668251.0070      -2272.573          41.314  
R12  19993352.991   106800870.1580        405.865          47.904  
R13  21413528.041   114346997.7890       2669.037          44.614  
R21  23521630.395   125868926.3610      -4099.474          38.796  
R22  20033962.501   106942619.1030      -1823.744          47.699  
R23  20091917.780   107478178.2930       2822.269          47.482  
S22  38852193.280   204169602.1220         -0.406          41.330    38852193.280   152464313.2730         -0.303          42.378  
S23  40134522.445   210908264.0270         -2.048          39.073    40134522.445   157496430.9290         -1.529          40.079  
S26  37657406.482   197890964.7560          1.357          43.206    37657406.482   147775720.4350          1.013          44.421  
S27  38200413.379   200744479.4660        -10.528          42.335    38200413.379   149906591.8090         -7.862          43.517  
S28  36917571.519   194003112.6260         -8.697          44.744    36917571.519   144872454.2340         -6.494          46.409  
S30  38647574.548   203094325.6090         -3.140          41.655    38647574.548   151661347.0460         -2.345          42.859  
S32  36780933.556   193285076.4490         -2.716          45.264    36780933.556   144336258.3870         -2.028          46.726  
S34  36783484.447   193298481.3310         -0.144          45.208    36783484.447   144346268.5260         -0.107          46.694  
S37  37730739.723   198276334.5870         -4.920          43.107    37730739.723   148063496.6070         -3.674          44.287  
S43  36944895.453   194146701.0580         -3.133          44.602    36944895.453   144979679.3610         -2.340          46.314  
S44  37029707.618   194592390.8380         44.558          44.367    37029707.618   145312499.6520         33.274          46.127  
> 2023 01 08 10 30  0.0000000  0 63
C01  39003761.212   204966097.1050         30.864          38.932    39003761.303   203102768.4790         30.576          34.912    39003759.977   153059090.8630         23.025          42.540    39003763.068   157051924.2690         23.423          35.517  
C02  36947857.575   194162267.2990          5.037          42.302    36947857.636   192397155.4610          4.987          38.281    36947853.137   144991284.2120          3.749          46.739    36947855.223   148773657.1400          3.731          39.715  
C03  37071989.306   194814583.6370         34.045          42.008    37071989.367   193043541.6480         33.731          37.987    37071986.429   145478409.6650         25.410          46.466    37071988.534   149273490.1390         25.949          39.442  
C04  40275832.403   211650862.4910         24.605          36.599    40275832.518   209726763.1440         24.371          32.578    40275828.565   158050950.1580         18.342          40.451    40275832.487   162174002.6330         18.534          33.427  
C05  38081195.785   200117989.2360          1.551          40.309    38081195.865   198298734.3750          1.532          36.288    38081193.309   149438746.0320          1.143          44.167    38081196.028   153337137.1520          1.033          37.144  
C06  37647157.839   197837108.1490      -1461.322          40.740    37647157.912   196038588.6040      -1448.043          36.719    37647155.007   147735489.4810      -1091.263          44.571    37647157.503   151589448.7190      -1119.875          37.548  
C07  36257493.073   190534382.2570       -188.145          44.297    36257493.126   188802251.2370       -186.439          40.276    36257489.081   142282151.2930       -140.509          48.803    36257490.873   145993852.3730       -144.274          41.780  
C08  40416389.529   212389490.0680       1904.948          36.035    40416389.652   210458675.8780       1887.620          32.014    40416386.295   158602524.7960       1422.495          40.112    40416390.523   162739964.9420       1459.321          33.088  
C09  36558368.352   192115488.2500      -1138.486          42.582    36558368.412   190368983.5000      -1128.141          38.562    36558367.627   143462859.9170       -850.181          46.945    36558369.676   147205361.0600       -872.475          39.921  
C10  36463940.291   191619269.8220        -97.595          44.312    36463940.343   189877276.1890        -96.711          40.292    36463939.566   143092307.4310        -72.890          48.905    36463941.351   146825143.0470        -74.889          41.881  
C16  37964481.744   199504653.4670      -1475.768          40.227    37964481.822   197690974.3910      -1462.358          36.206    37964484.180   148980754.8670      -1102.052          44.092    37964486.860   152867198.5490      -1130.957          37.068  
C23  24531947.214   128916203.9080      -2151.984          44.598    24531947.299   127744237.9720      -2132.428          40.577    24531947.549    96268592.5100      -1607.022          48.212    24531950.480    98779935.2970      -1649.133          41.188  
C27  22235066.778   116846032.4830       1854.988          48.826    22235066.835   115783795.5310       1838.121          44.805    22235066.999    87255153.2610       1385.207          51.613    22235068.925    89531366.8950       1421.236          44.589  
C28  22006780.832   115646383.6960      -1120.209          48.875    22006780.885   114595052.6600      -1110.030          44.854    22006781.040    86359311.6870       -836.532          52.539    22006782.848    88612156.0130       -858.457          45.515  
C37  22007613.505   115650760.7810         33.061          49.036    22007613.555   114599389.9650         32.757          45.016    22007613.703    86362580.3260         24.677          53.616    22007615.430    88615510.2500         25.223          46.592  
C38  39709290.279   208673668.8970       1916.767          37.748    39709290.384   206776634.9960       1899.333          33.727    39709290.691   155827738.1430       1431.326          41.010    39709294.290   159892795.0810       1468.428          33.987  
C39  38917049.067   204510419.5940      -1602.076          38.870    38917049.161   202651233.4720      -1587.519          34.849    38917049.436   152718818.3810      -1196.377          42.392    38917052.653   156702774.6020      -1227.778          35.368  
C40  36757804.518   193163533.6580       -393.778          43.181    36757804.576   191407501.2340       -390.202          39.161    36757804.744   144245495.0270       -294.067          47.283    36757806.715   148008413.0480       -301.849          40.259  
C46  23849826.918   125331639.4070       2415.234          45.420    23849827.000   124192260.4380       2393.272          41.399    23849827.240    93591807.3810       1803.568          48.844    23849830.060    96033321.4380       1850.477          41.820  
C59  38645386.242   203082827.3450         -2.132          39.458    38645386.326   201236619.3840         -2.119          35.437    38645386.572   151652759.3830         -1.613          43.362    38645389.457   155608906.7070         -1.840          36.338  
C60  37026111.707   194573495.1530         44.467          42.173    37026111.769   192804644.8760         44.058          38.152    37026111.949   145298388.2890         33.193          46.633    37026114.058   149088772.5350         33.943          39.609  
E01  25504181.444   134025335.1510      -1017.507          46.957    25504184.809   100083841.9460       -760.021          49.529    25504184.317   102694725.7570       -779.825          49.505  
E04  27043636.298   142115201.7570      -2595.691          43.804    27043639.791   106124962.8270      -1938.597          46.529    27043640.726   108893448.4490      -1989.139          46.505  
E05  27836774.359   146283156.0110        562.032          42.046    27836782.568   109237406.1820        419.471          45.585    27836779.750   112087071.8580        430.441          45.562  
E09  26383270.654   138644967.4540      -1505.716          45.533    26383276.103   103533568.0330      -1124.590          48.434    26383274.375   106234440.5980      -1153.905          48.411  
E12  26258948.375   137991651.8310       2994.375          45.494    26258946.886   103045676.6460       2235.830          48.374    26258951.938   105733848.7450       2294.183          48.350  
E24  27052358.894   142161041.4030       1663.530          44.442    27052362.606   106159195.8240       1242.038          46.963    27052363.183   108928572.8970       1274.463          46.939  
E26  26495275.178   139233561.5140      -1419.212          45.914    26495276.520   103973090.1840      -1060.022          48.895    26495278.476   106685442.9430      -1087.649          48.872  
E31  24244675.307   127406595.2370        648.992          49.676    24244680.583    95141289.5580        484.503          52.032    24244677.543    97623226.3070        497.158          52.008  
E33  24273076.378   127555844.0870       1100.718          49.465    24273077.006    95252723.5110        821.820          51.885    24273078.600    97737585.8730        843.276          51.861  
G01  21118362.992   110977710.5940       1718.197          48.668    21118362.992   110977710.5940       1718.197          45.668    21118362.992   110977710.5940       1718.197          50.168    21118366.109    86476132.7580       1338.719          45.383    21118366.109    86476132.7580       1338.719          46.883    21118366.814    82872959.3960       1282.910          49.853  
G07  20164703.658   105966203.7100       -674.723          50.322    20164703.658   105966203.7100       -674.723          47.322    20164703.658   105966203.7100       -674.723          51.822    20164703.289    82571051.5840       -525.861          48.541    20164703.289    82571051.5840       -525.861          50.041    20164703.205    79130587.5810       -503.973          53.011  
G08  23345410.387   122680904.7100      -3170.638          44.750    23345410.387   122680904.7100      -3170.638          41.750    23345410.387   122680904.7100      -3170.638          46.250    23345414.759    95595500.3940      -2470.836          41.790    23345414.759    95595500.3940      -2470.836          43.290    23345415.748    91612352.4260      -2367.929          46.259  
G09  24486739.258   128678611.1210      -3103.411          41.668    24486739.258   128678611.1210      -3103.411          38.668    24486739.258   128678611.1210      -3103.411          43.168    24486743.882   100269030.1710      -2418.490          39.755    24486743.882   100269030.1710      -2418.490          41.255    24486744.928    96091150.1300      -2317.773          44.224  
G13  24141522.696   126864483.2180       1538.525          41.787    24141522.696   126864483.2180       1538.525          38.787    24141522.696   126864483.2180       1538.525          43.287    24141525.043    98855413.3650       1198.657          39.841    24141525.043    98855413.3650       1198.657          41.341    24141525.574    94736431.7160       1148.671          44.310  
G14  22005356.558   115638887.0320       1636.867          47.631    22005356.558   115638887.0320       1636.867          44.631    22005356.558   115638887.0320       1636.867          49.131    22005357.619    90108206.7420       1275.347          44.306    22005357.619    90108206.7420       1275.347          45.806    22005357.859    86353694.4610       1222.178          48.776  
G17  21800066.974   114560082.2190       1980.341          47.510    21800066.974   114560082.2190       1980.341          44.510    21800066.974   114560082.2190       1980.341          49.010    21800067.450    89267576.8330       1542.983          44.219    21800067.450    89267576.8330       1542.983          45.719    21800067.557    85548090.1950       1478.662          48.689  
G21  21585265.847   113431299.8830      -1063.719          48.167    21585265.847   113431299.8830      -1063.719          45.167    21585265.847   113431299.8830      -1063.719          49.667    21585266.183    88388008.2340       -829.014          44.858    21585266.183    88388008.2340       -829.014          46.358    21585266.259    84705170.7320       -794.503          49.328  
G30  20825903.619   109440830.8700       1539.338          50.169    20825903.619   109440830.8700       1539.338          47.169    20825903.619   109440830.8700       1539.338          51.669    20825906.269    85278564.5760       1199.378          47.190    20825906.269    85278564.5760       1199.378          48.690    20825906.868    81725289.9820       1149.381          51.660  
I02  37387773.856   146717522.8410        187.366          47.170  
I03  37278335.765   146288075.8160        -34.231          48.093  
I06  39783951.949   156120530.6810        -21.818          42.323  
I09  39682926.710   155724094.5360       -487.561          42.370  
J02  39581027.124   207999661.9830        890.113          45.139    39581027.124   207999661.9830        890.113          46.639    39581027.124   207999661.9830        890.113          45.139    39581030.212   155324411.6630        664.518          48.158    39581030.212   155324411.6630        664.518          48.158  
J03  39309080.616   206570577.9790       -509.947          46.192    39309080.616   206570577.9790       -509.947          47.692    39309080.616   206570577.9790       -509.947          46.192    39309083.139   154257239.0190       -380.957          49.680    39309083.139   154257239.0190       -380.957          49.680  
J07  37730483.327   198274987.5870         -4.517          45.508    37730483.327   198274987.5870         -4.517          47.008    37730483.327   198274987.5870         -4.517          45.508    37730485.058   148062473.5070         -3.555          48.288    37730485.058   148062473.5070         -3.555          48.288  
R11  22711845.784   121365158.8580      -2374.503          40.910  
R12  19973680.009   106695781.0560        293.087          47.970  
R13  21264116.775   113549152.0360       2648.163          44.954  
R22  20142977.382   107524547.4130      -2054.536          47.303  
R23  19939620.859   106663493.8520       2606.823          48.046  
R24  23516223.136   125751738.0330       4386.573          38.280  
S22  38852193.267   204169602.5500         -0.415          41.330    38852193.267   152464313.5930         -0.310          42.378  
S23  40134616.759   210908760.1120         -2.027          39.073    40134616.759   157496801.3830         -1.514          40.079  
S26  37657315.207   197890485.4240          1.306          43.207    37657315.207   147775362.4920          0.975          44.421  
S27  38201000.179   200747563.4710        -10.730          42.335    38201000.179   149908894.8000         -8.012          43.517  
S28  36918047.214   194005612.7040         -8.707          44.744    36918047.214   144874321.1750         -6.502          46.409  
S30  38647714.988   203095064.0880         -2.555          41.655    38647714.988   151661898.5070         -1.908          42.858  
S32  36781075.106   193285820.5780         -2.710          45.264    36781075.106   144336814.0680         -2.024          46.726  
S34  36783479.606   193298456.1690         -0.153          45.208    36783479.606   144346249.7360         -0.115          46.694  
S37  37731002.636   198277716.5690         -4.900          43.107    37731002.636   148064528.6070         -3.659          44.287  
S43  36945074.412   194147641.7950         -3.633          44.604    36945074.412   144980381.8600         -2.713          46.315  
S44  37027142.069   194578909.0920         44.837          44.373    37027142.069   145302432.1140         33.482          46.133  
> 2023 01 08 10 35  0.0000000  0 64
C01  39001959.322   204956628.6360         31.409          38.935    39001959.412   203093386.0920         31.116          34.914    39001958.084   153052020.2680         23.432          42.545    39001961.142   157044669.3500         23.836          35.521  
C02  36947542.211   194160610.3360          5.527          42.302    36947542.271   192395513.5640          5.472          38.281    36947537.771   144990046.8780          4.114          46.739    36947539.839   148772387.5970          4.103          39.715  
C03  37070014.196   194804204.6840         34.630          42.012    37070014.257   193033257.0520         34.311          37.991    37070011.317   145470659.1570         25.846          46.470    37070013.402   149265537.5210         26.394          39.446  
C04  40274392.220   211643295.0040         24.653          36.602    40274392.333   209719264.4600         24.418          32.581    40274388.377   158045299.1320         18.377          40.452    40274392.254   162168204.3660         18.566          33.428  
C05  38081064.960   200117302.0900          2.445          40.308    38081065.039   198298053.4790          2.418          36.288    38081062.481   149438232.9140          1.810          44.167    38081065.180   153336610.7300          1.714          37.143  
C06  37731413.115   198279872.1980      -1490.798          40.605    37731413.188   196477327.5220      -1477.251          36.584    37731410.286   148066124.9620      -1113.275          44.434    37731412.807   151928709.3730      -1142.467          37.410  
C07  36267878.595   190588958.7390       -176.018          44.280    36267878.647   188856331.5700       -174.421          40.259    36267874.602   142322906.4630       -131.453          48.762    36267876.382   146035670.7690       -134.985          41.738  
C08  40306905.605   211814150.2170       1929.106          36.263    40306905.725   209888566.4080       1911.558          32.242    40306902.358   158172887.9500       1440.535          40.264    40306906.462   162299120.6740       1477.833          33.240  
C09  36624599.166   192463533.2880      -1182.135          42.349    36624599.226   190713864.4890      -1171.393          38.329    36624598.442   143722763.6730       -882.777          46.775    36624600.505   147472044.8560       -905.925          39.752  
C10  36469148.566   191646639.6970        -85.162          44.298    36469148.618   189904397.2490        -84.392          40.277    36469147.840   143112745.9800        -63.606          48.876    36469149.613   146846114.8240        -65.366          41.853  
C16  38049507.672   199951467.2580      -1503.382          40.089    38049507.751   198133726.2340      -1489.721          36.068    38049510.110   149314414.5030      -1122.673          43.973    38049512.819   153209562.2360      -1152.123          36.949  
C23  24656956.145   129573129.4250      -2228.156          44.361    24656956.232   128395191.4310      -2207.908          40.340    24656956.486    96759153.7500      -1663.905          47.908    24656959.468    99283293.5810      -1707.510          40.884  
C27  22132974.700   116309535.9240       1720.708          48.912    22132974.755   115252176.2220       1705.061          44.891    22132974.915    86854522.7390       1284.932          51.935    22132976.785    89120285.3670       1318.345          44.912  
C28  22074673.712   116003163.0630      -1257.881          48.906    22074673.765   114948588.5770      -1246.450          44.885    22074673.920    86625737.8350       -939.338          52.259    22074675.737    88885532.3780       -963.950          45.236  
C30  25976837.497   136509126.4540       3201.612          40.540    25976837.630   135268133.7020       3172.498          36.519    25976838.019   101938631.3420       2390.788          44.872    25976842.579   104597881.6250       2452.924          37.849  
C37  22008630.823   115656107.0780        -69.705          49.033    22008630.873   114604687.6620        -69.075          45.013    22008631.019    86366572.6980        -52.063          53.612    22008632.731    88619606.8320        -53.522          46.589  
C38  39599578.906   208097133.6090       1925.453          37.955    39599579.008   206205340.9550       1907.940          33.934    39599579.306   155397208.5960       1437.812          41.161    39599582.793   159451034.7790       1475.085          34.137  
C39  39008925.266   204993231.7150      -1617.172          38.729    39008925.361   203129656.3870      -1602.478          34.708    39008925.639   153079359.8850      -1207.651          42.148    39008928.890   157072721.4000      -1239.355          35.124  
C40  36779762.566   193278924.1000       -375.813          43.087    36779762.623   191521842.6730       -372.400          39.067    36779762.791   144331663.2180       -280.652          47.227    36779764.754   148096829.1340       -288.087          40.203  
C46  23712617.944   124610603.2930       2390.270          45.675    23712618.023   123477779.2150       2368.535          41.654    23712618.254    93053371.3730       1784.926          48.975    23712620.958    95480839.7350       1831.349          41.951  
C59  38645469.118   203083263.3250         -1.549          39.457    38645469.202   201237051.4060         -1.542          35.437    38645469.445   151653084.9650         -1.178          43.361    38645472.303   155609240.8940         -1.398          36.337  
C60  37023551.994   194560044.0800         44.720          42.180    37023552.055   192791316.0880         44.309          38.159    37023552.234   145288343.6660         33.382          46.639    37023554.324   149078465.9520         34.134          39.616  
E01  25562955.808   134334196.3810      -1042.588          46.856    25562959.184   100314485.0310       -778.758          49.478    25562958.690   102931385.6220       -799.050          49.454  
E04  27191337.600   142891375.8100      -2578.643          43.464    27191341.209   106704572.8680      -1925.882          46.361    27191342.131   109488178.8050      -1976.091          46.337  
E05  27808276.667   146133400.4360        435.518          42.111    27808284.816   109125575.9580        324.989          45.633    27808282.005   111972324.2960        333.494          45.609  
E09  26471762.313   139109993.4740      -1594.139          45.381    26471767.822   103880827.4900      -1190.630          48.210    26471766.087   106590759.0250      -1221.666          48.187  
E12  26088959.840   137098358.4940       2959.060          45.784    26088958.168   102378607.6690       2209.463          48.759    26088963.240   105049377.8850       2267.127          48.735  
E24  26956990.208   141659877.4740       1676.906          44.629    26956993.775   105784950.5960       1252.023          47.155    26956994.369   108544564.6840       1284.709          47.131  
E26  26579794.582   139677713.5100      -1541.883          45.768    26579795.960   104304761.9900      -1151.636          48.742    26579797.912   107025767.0740      -1181.652          48.719  
E31  24207947.065   127213587.5830        637.009          49.785    24207952.299    94997160.6310        475.552          52.130    24207949.264    97475337.4760        487.974          52.106  
E33  24214126.561   127246061.4070        963.505          49.660    24214127.137    95021392.4960        719.354          52.038    24214128.736    97500220.1120        738.137          52.014  
G01  21025642.168   110490460.3710       1528.264          48.848    21025642.168   110490460.3710       1528.264          45.848    21025642.168   110490460.3710       1528.264          50.348    21025645.224    86096457.5110       1190.720          45.534    21025645.224    86096457.5110       1190.720          47.034    21025645.915    82509104.0050       1141.077          50.003  
G07  20208414.617   106195906.3230       -857.113          50.175    20208414.617   106195906.3230       -857.113          47.175    20208414.617   106195906.3230       -857.113          51.675    20208414.250    82750040.6260       -667.987          48.319    20208414.250    82750040.6260       -667.987          49.819    20208414.167    79302118.7450       -640.177          52.788  
G08  23526671.144   123633434.9760      -3179.392          44.312    23526671.144   123633434.9760      -3179.392          41.312    23526671.144   123633434.9760      -3179.392          45.812    23526675.606    96337731.4060      -2477.671          41.290    23526675.606    96337731.4060      -2477.671          42.790    23526676.615    92323657.0680      -2374.483          45.760  
G09  24662903.474   129604358.5200      -3067.821          41.179    24662903.474   129604358.5200      -3067.821          38.179    24662903.474   129604358.5200      -3067.821          42.679    24662908.210   100990391.3250      -2390.773          39.487    24662908.210   100990391.3250      -2390.773          40.987    24662909.281    96782454.4710      -2291.215          43.957  
G13  24058423.933   126427798.0760       1371.334          42.051    24058423.933   126427798.0760       1371.334          39.051    24058423.933   126427798.0760       1371.334          43.551    24058426.170    98515139.6830       1068.374          39.959    24058426.170    98515139.6830       1068.374          41.459    24058426.676    94410336.2040       1023.816          44.429  
G14  21912564.073   115151260.5030       1613.266          47.793    21912564.073   115151260.5030       1613.266          44.793    21912564.073   115151260.5030       1613.266          49.293    21912565.055    89728238.3400       1256.955          44.452    21912565.055    89728238.3400       1256.955          45.952    21912565.277    85989558.1450       1204.552          48.922  
G17  21690507.221   113984343.4580       1857.211          47.732    21690507.221   113984343.4580       1857.211          44.732    21690507.221   113984343.4580       1857.211          49.232    21690507.597    88818949.6370       1447.038          44.394    21690507.597    88818949.6370       1447.038          45.894    21690507.682    85118155.8880       1386.715          48.864  
G21  21651335.193   113778496.6590      -1250.844          48.090    21651335.193   113778496.6590      -1250.844          45.090    21651335.193   113778496.6590      -1250.844          49.590    21651335.528    88658551.1800       -974.829          44.773    21651335.528    88658551.1800       -974.829          46.273    21651335.604    84964441.0570       -934.243          49.242  
G30  20742381.100   109001917.7930       1385.179          50.112    20742381.100   109001917.7930       1385.179          47.112    20742381.100   109001917.7930       1385.179          51.612    20742383.705    84936554.5670       1079.253          47.526    20742383.705    84936554.5670       1079.253          49.026    20742384.295    81397530.4300       1034.261          51.995  
I02  37373376.881   146661027.4320        187.585          47.207  
I03  37280835.597   146297886.6110        -32.847          48.084  
I06  39785556.931   156126830.4160        -22.800          42.321  
I09  39719576.129   155867914.6920       -474.022          42.337  
J02  39529807.606   207730501.9470        903.514          45.150    39529807.606   207730501.9470        903.514          46.650    39529807.606   207730501.9470        903.514          45.150    39529810.667   155123415.6360        674.521          48.164    39529810.667   155123415.6360        674.521          48.164  
J03  39338370.456   206724497.5490       -516.570          46.230    39338370.456   206724497.5490       -516.570          47.730    39338370.456   206724497.5490       -516.570          46.230    39338372.948   154372179.0830       -385.906          49.709    39338372.948   154372179.0830       -385.906          49.709  
J07  37730722.059   198276242.5040         -4.470          45.508    37730722.059   198276242.5040         -4.470          47.008    37730722.059   198276242.5040         -4.470          45.508    37730723.762   148063410.7310         -3.524          48.288    37730723.762   148063410.7310         -3.524          48.288  
R11  22847985.970   122092649.7630      -2476.437          40.479  
R12  19960539.085   106625584.9950        173.263          48.012  
R13  21116084.999   112758672.5960       2619.846          45.279  
R22  20264664.842   108174122.7010      -2274.602          46.936  
R23  19799681.035   105914911.3730       2381.765          48.313  
R24  23271350.228   124442296.7570       4340.109          39.001  
S22  38852193.312   204169603.2880         -0.424          41.330    38852193.312   152464314.1440         -0.317          42.378  
S23  40134709.108   210909245.8870         -2.006          39.073    40134709.108   157497164.1370         -1.498          40.079  
S26  37657226.443   197890019.2970          1.254          43.207    37657226.443   147775014.4100          0.937          44.421  
S27  38201597.872   200750704.7360        -10.926          42.335    38201597.872   149911240.5500         -8.159          43.517  
S28  36918523.005   194008113.2890         -8.712          44.744    36918523.005   144876188.4950         -6.506          46.409  
S30  38647821.511   203095624.3380         -1.968          41.655    38647821.511   151662316.8750         -1.470          42.858  
S32  36781215.957   193286561.0400         -2.703          45.264    36781215.957   144337367.0100         -2.018          46.726  
S34  36783474.993   193298432.2160         -0.163          45.208    36783474.993   144346231.8500         -0.122          46.694  
S37  37731263.980   198279090.3150         -4.878          43.107    37731263.980   148065554.4560         -3.643          44.287  
S43  36945281.519   194148730.4570         -4.131          44.606    36945281.519   144981194.8220         -3.085          46.316  
S44  37024560.876   194565345.1500         45.094          44.380    37024560.876   145292303.1970         33.674          46.140  
> 2023 01 08 10 40  0.0000000  0 66
C01  39000126.342   204946996.7980         31.938          38.938    39000126.431   203083841.8220         31.640          34.917    39000125.100   153044827.6760         23.826          42.550    39000128.127   157037289.2550         24.237          35.526  
C02  36947198.645   194158805.1840          6.013          42.302    36947198.705   192393724.8250          5.954          38.282    36947194.203   144988698.8830          4.477          46.739    36947196.254   148771004.5090          4.473          39.715  
C03  37068005.884   194793651.2600         35.197          42.015    37068005.944   193022799.5710         34.872          37.994    37068003.002   145462778.3620         26.269          46.474    37068005.068   149257451.2190         26.826          39.450  
C04  40272949.119   211635712.2010         24.688          36.604    40272949.231   209711750.5980         24.453          32.584    40272945.271   158039636.6690         18.403          40.453    40272949.104   162162394.3660         18.588          33.430  
C05  38080882.698   200116344.6500          3.338          40.307    38080882.776   198297104.7460          3.302          36.287    38080880.217   149437517.9520          2.476          44.166    38080882.894   153335877.2030          2.394          37.142  
C06  37817307.058   198731247.4940      -1518.746          40.468    37817307.132   196924599.4020      -1504.945          36.447    37817304.232   148403190.9180      -1134.146          44.305    37817306.778   152274568.2520      -1163.889          37.282  
C07  36277555.420   190639811.0040       -163.337          44.264    36277555.472   188906721.5440       -161.856          40.243    36277551.426   142360880.5630       -121.984          48.723    36277553.194   146074635.5470       -125.271          41.699  
C08  40196109.435   211231914.4600       1950.923          36.497    40196109.552   209311623.7230       1933.177          32.476    40196106.174   157738101.5640       1456.827          40.395    40196110.155   161852992.5290       1494.552          33.371  
C09  36693292.171   192824517.2160      -1224.750          42.151    36693292.232   191071566.7430      -1213.621          38.130    36693291.449   143992329.5860       -914.600          46.596    36693293.527   147748642.8630       -938.583          39.572  
C10  36473627.205   191670175.3190        -72.052          44.285    36473627.257   189927718.9120        -71.401          40.264    36473626.477   143130321.2870        -53.817          48.849    36473628.237   146864148.6690        -55.323          41.825  
C13  40439401.663   212510420.4420       1700.307          36.072    40439401.785   210578506.8940       1684.839          32.052    40439405.739   158692858.6730       1269.678          40.143    40439409.919   162832655.5470       1302.514          33.119  
C16  38136062.599   200406315.9910      -1529.353          39.948    38136062.679   198584439.9740      -1515.456          35.928    38136065.041   149654074.2590      -1142.068          43.849    38136067.778   153558082.5640      -1172.031          36.825  
C23  24786281.134   130252735.9520      -2303.188          44.115    24786281.223   129068619.7090      -2282.258          40.095    24786281.482    97266652.1070      -1719.937          47.554    24786284.516    99804030.8130      -1765.014          40.530  
C27  22038630.683   115813755.6130       1583.627          48.896    22038630.737   114760903.0130       1569.227          44.875    22038630.892    86484297.2050       1182.567          52.291    22038632.711    88740401.9800       1213.309          45.267  
C28  22150272.452   116400436.9470      -1390.131          48.923    22150272.505   115342250.8780      -1377.498          44.903    22150272.661    86922403.3920      -1038.097          51.974    22150274.488    89189936.9950      -1065.289          44.951  
C30  25795177.219   135554498.6520       3160.749          41.015    25795177.346   134322184.3650       3132.006          36.994    25795177.717   101225760.0230       2360.274          45.149    25795182.073   103866414.4850       2421.615          38.126  
C37  22015613.866   115692803.4510       -175.913          49.015    22015613.915   114641050.4340       -174.317          44.994    22015614.060    86393975.8400       -131.375          53.588    22015615.758    88647724.8960       -134.905          46.564  
C38  39489437.146   207518336.5870       1931.851          38.152    39489437.245   205631805.7410       1914.280          34.132    39489437.533   154964990.0900       1442.590          41.348    39489440.910   159007541.4510       1479.990          34.324  
C39  39101608.765   205480286.2350      -1630.388          38.585    39101608.861   203612283.1330      -1615.574          34.564    39101609.141   153443069.4140      -1217.521          41.909    39101612.426   157445918.8700      -1249.491          34.885  
C40  36800670.955   193388798.5680       -357.030          42.997    36800671.012   191630718.2830       -353.788          38.976    36800671.179   144413712.3380       -266.626          47.173    36800673.134   148181018.6990       -273.698          40.149  
C46  23576977.835   123897811.5450       2360.234          45.923    23576977.911   122771467.4090       2338.772          41.902    23576978.133    92521091.8700       1762.497          49.099    23576980.727    94934675.1230       1808.334          42.076  
C59  38645518.228   203083521.8690         -0.964          39.457    38645518.310   201237307.6040         -0.963          35.436    38645518.552   151653278.0470         -0.741          43.361    38645521.380   155609439.1270         -0.954          36.337  
C60  37020978.122   194546518.6060         44.952          42.187    37020978.182   192777913.5760         44.538          38.166    37020978.359   145278243.4820         33.554          46.646    37020980.430   149068102.3620         34.308          39.622  
E01  25623221.709   134650895.6890      -1069.790          46.753    25623225.095   100550981.2270       -799.079          49.426    25623224.600   103174051.2890       -819.900          49.403  
E04  27337884.872   143661485.4330      -2555.337          43.118    27337888.593   107279654.2890      -1908.494          46.202    27337889.502   110078262.4020      -1958.247          46.178  
E05  27787003.510   146021609.9370        308.980          42.160    27787011.606   109042096.2470        230.489          45.668    27787008.801   111886666.8290        236.530          45.645  
E09  26565130.040   139600643.3440      -1676.537          45.220    26565135.612   104247221.6230      -1252.171          47.965    26565133.870   106966711.2950      -1284.811          47.941  
E10  27934051.988   146794359.2110       3131.707          42.049    27934058.006   109619143.6750       2338.283          45.589    27934056.990   112478774.5760       2399.320          45.565  
E12  25921174.876   136216644.8910       2917.197          46.077    25921173.027   101720185.8650       2178.205          49.032    25921178.120   104373779.7790       2235.053          49.008  
E24  26860850.969   141154664.2450       1690.484          44.810    26860854.394   105407681.5350       1262.158          47.375    26860855.004   108157453.7560       1295.109          47.351  
E26  26671196.526   140158033.4370      -1660.307          45.613    26671197.944   104663442.2970      -1240.079          48.546    26671199.892   107393804.2770      -1272.401          48.523  
E31  24171949.611   127024420.2360        623.349          49.877    24171954.803    94855899.4640        465.349          52.229    24171951.773    97330391.2150        477.505          52.205  
E33  24163092.073   126977873.9980        823.493          49.808    24163092.601    94821122.8650        614.799          52.177    24163094.206    97294726.0340        630.854          52.153  
G01  20943985.949   110061354.9340       1330.700          49.047    20943985.949   110061354.9340       1330.700          46.047    20943985.949   110061354.9340       1330.700          50.547    20943988.950    85762089.8610       1036.773          45.657    20943988.950    85762089.8610       1036.773          47.157    20943989.629    82188668.3890        993.545          50.127  
G07  20262541.583   106480345.3640      -1039.515          50.113    20262541.583   106480345.3640      -1039.515          47.113    20262541.583   106480345.3640      -1039.515          51.613    20262541.222    82971681.4150       -810.123          48.059    20262541.222    82971681.4150       -810.123          49.559    20262541.140    79514524.4960       -776.391          52.529  
G08  23708257.073   124587674.0630      -3182.148          43.855    23708257.073   124587674.0630      -3182.148          40.855    23708257.073   124587674.0630      -3182.148          45.355    23708261.622    97081293.9750      -2479.833          40.869    23708261.622    97081293.9750      -2479.833          42.369    23708262.651    93036237.7860      -2376.557          45.339  
G13  23984966.402   126041777.7960       1200.861          42.292    23984966.402   126041777.7960       1200.861          39.292    23984966.402   126041777.7960       1200.861          43.792    23984968.537    98214345.0760        935.534          40.062    23984968.537    98214345.0760        935.534          41.562    23984969.019    94122074.7960        896.510          44.532  
G14  21821152.040   114670888.2670       1588.457          47.947    21821152.040   114670888.2670       1588.457          44.947    21821152.040   114670888.2670       1588.457          49.447    21821152.947    89353922.6230       1237.622          44.613    21821152.947    89353922.6230       1237.622          46.113    21821153.152    85630838.9840       1186.025          49.082  
G17  21587999.083   113445661.0620       1733.382          47.929    21587999.083   113445661.0620       1733.382          44.929    21587999.083   113445661.0620       1733.382          49.429    21587999.366    88399197.5010       1350.549          44.592    21587999.366    88399197.5010       1350.549          46.092    21587999.430    84715893.5060       1294.246          49.061  
G19  24708275.676   129842787.1120       3116.650          41.169    24708275.676   129842787.1120       3116.650          38.169    24708275.676   129842787.1120       3116.650          42.669    24708277.492   101176165.9030       2428.319          39.429    24708277.492   101176165.9030       2428.319          40.929    24708277.903    96960485.4200       2327.087          43.899  
G21  21727967.311   114181201.0920      -1433.661          47.996    21727967.311   114181201.0920      -1433.661          44.996    21727967.311   114181201.0920      -1433.661          49.496    21727967.650    88972346.8260      -1117.289          44.667    21727967.650    88972346.8260      -1117.289          46.167    21727967.727    85265161.8810      -1070.768          49.137  
G30  20667852.328   108610267.0990       1224.323          50.074    20667852.328   108610267.0990       1224.323          47.074    20667852.328   108610267.0990       1224.323          51.574    20667854.894    84631372.3710        953.910          47.821    20667854.894    84631372.3710        953.910          49.321    20667855.474    81105064.1940        914.140          52.291  
I02  37358960.585   146604456.2240        187.829          47.244  
I03  37283227.309   146307273.1530        -31.444          48.076  
I06  39787233.189   156133409.9080        -23.770          42.318  
I09  39755171.170   156007597.3640       -460.084          42.305  
J02  39477852.017   207457473.8400        915.883          45.162    39477852.017   207457473.8400        915.883          46.662    39477852.017   207457473.8400        915.883          45.162    39477855.051   154919531.1170        683.753          48.170    39477855.051   154919531.1170        683.753          48.170  
J03  39368015.032   206880281.2630       -522.380          46.266    39368015.032   206880281.2630       -522.380          47.766    39368015.032   206880281.2630       -522.380          46.266    39368017.492   154488511.2000       -390.247          49.734    39368017.492   154488511.2000       -390.247          49.734  
J07  37730957.688   198277481.1250         -4.421          45.508    37730957.688   198277481.1250         -4.421          47.008    37730957.688   198277481.1250         -4.421          45.508    37730959.362   148064335.7880         -3.492          48.288    37730959.362   148064335.7880         -3.492          48.288  
R11  22989836.074   122850652.7170      -2577.890          40.026  
R12  19954320.724   106592367.9810         46.579          48.031  
R13  20969864.614   111977865.7940       2583.599          45.588  
R22  20398398.853   108888003.1860      -2483.139          46.650  
R23  19672607.797   105235156.3030       2148.153          48.274  
R24  23029412.027   123148548.5290       4281.966          39.757  
S22  38852193.414   204169604.3360         -0.433          41.330    38852193.414   152464314.9260         -0.324          42.378  
S23  40134799.461   210909721.1870         -1.984          39.072    40134799.461   157497519.0680         -1.481          40.079  
S26  37657140.223   197889566.5450          1.202          43.207    37657140.223   147774676.3160          0.898          44.421  
S27  38202206.181   200753901.7890        -11.118          42.335    38202206.181   149913627.9600         -8.302          43.517  
S28  36918998.664   194010613.1910         -8.714          44.744    36918998.664   144878055.3050         -6.507          46.409  
S30  38647894.036   203096005.9420         -1.380          41.654    38647894.036   151662601.8400         -1.030          42.858  
S32  36781356.041   193287297.4810         -2.694          45.264    36781356.041   144337916.9500         -2.012          46.726  
S34  36783470.611   193298409.4820         -0.173          45.208    36783470.611   144346214.8730         -0.129          46.694  
S37  37731523.630   198280455.1640         -4.854          43.107    37731523.630   148066573.6610         -3.625          44.287  
S43  36945516.642   194149966.3560         -4.626          44.608    36945516.642   144982117.7330         -3.455          46.318  
S44  37021965.315   194551705.7090         45.329          44.387    37021965.315   145282117.9000         33.849          46.146  
> 2023 01 08 10 45  0.0000000  0 66
C01  38998263.196   204937206.4440         32.450          38.940    38998263.283   203074140.4750         32.147          34.920    38998261.950   153037516.7120         24.209          42.555    38998264.944   157029787.7020         24.626          35.531  
C02  36946827.053   194156852.7610          6.497          42.303    36946827.113   192391790.1540          6.433          38.282    36946822.609   144987240.9120          4.838          46.739    36946824.642   148769508.5780          4.841          39.716  
C03  37065965.414   194782928.8550         35.746          42.019    37065965.474   193012174.6460         35.416          37.998    37065962.531   145454771.3800         26.679          46.478    37065964.576   149249235.4400         27.243          39.454  
C04  40271503.805   211628117.7760         24.712          36.607    40271503.916   209704225.2200         24.476          32.586    40271499.952   158033965.5280         18.420          40.455    40271503.739   162156575.4630         18.601          33.431  
C05  38080649.096   200115117.4300          4.228          40.307    38080649.174   198295888.6850          4.184          36.286    38080646.613   149436601.5300          3.141          44.165    38080649.268   153334936.9630          3.072          37.142  
C06  37904750.710   199190766.5600      -1545.107          40.329    37904750.785   197379941.0180      -1531.066          36.309    37904747.887   148746338.2600      -1153.832          44.183    37904750.459   152626667.1610      -1184.094          37.159  
C07  36286493.615   190686781.7480       -150.161          44.249    36286493.666   188953265.2830       -148.800          40.229    36286489.619   142395956.1240       -112.145          48.686    36286491.373   146110626.1750       -115.178          41.663  
C08  40084135.591   210643489.9710       1970.367          36.735    40084135.704   208728548.5660       1952.444          32.715    40084132.316   157298693.7210       1471.347          40.511    40084136.175   161402122.3640       1509.454          33.487  
C09  36764385.786   193198116.4200      -1266.243          41.986    36764385.847   191441769.5880      -1254.736          37.965    36764385.066   144271315.9980       -945.585          46.399    36764387.160   148034907.1170       -970.382          39.375  
C10  36477339.012   191689681.2190        -58.317          44.273    36477339.063   189947047.4880        -57.790          40.253    36477338.283   143144887.3870        -43.560          48.822    36477340.029   146879094.8090        -44.801          41.798  
C13  40341589.757   211996417.3680       1724.849          36.282    40341589.876   210069176.5930       1709.157          32.261    40341593.820   158309025.2620       1288.004          40.280    40341597.882   162438809.5640       1321.320          33.257  
C16  38224051.120   200868698.3090      -1553.626          39.806    38224051.201   199042618.8130      -1539.509          35.786    38224053.565   149999359.7430      -1160.195          43.715    38224056.332   153912375.3800      -1190.638          36.692  
C23  24919849.178   130954639.8570      -2376.805          43.858    24919849.268   129764142.6610      -2355.206          39.838    24919849.532    97790801.1030      -1774.912          47.169    24919852.620   100341853.0430      -1821.435          40.145  
C27  21952180.338   115359456.7450       1444.247          48.856    21952180.390   114310734.1410       1431.114          44.836    21952180.541    86145048.0710       1078.484          52.654    21952182.314    88392303.0530       1106.511          45.630  
C28  22233258.083   116836529.1590      -1516.637          48.890    22233258.137   115774378.6140      -1502.853          44.870    22233258.294    87248056.6620      -1132.566          51.704    22233260.134    89524085.5130      -1162.227          44.680  
C30  25615998.674   134612912.3290       3114.698          41.498    25615998.796   133389157.9480       3086.374          37.478    25615999.151   100522627.4680       2325.885          45.382    25616003.309   103144940.1350       2386.331          38.358  
C37  22028752.456   115761847.4220       -285.323          48.982    22028752.505   114709466.7350       -282.734          44.962    22028752.649    86445534.6560       -213.078          53.542    22028754.334    88700628.7760       -218.742          46.518  
C38  39378995.962   206937966.0530       1935.950          38.341    39378996.058   205056711.3190       1918.341          34.320    39378996.337   154531596.5580       1445.651          41.578    39378999.605   158562842.4370       1483.133          34.555  
C39  39194991.203   205971013.7140      -1641.689          38.435    39194991.300   204098549.4480      -1626.773          34.415    39194991.583   153809521.7370      -1225.961          41.686    39194994.900   157821930.6870      -1258.160          34.662  
C40  36820485.065   193492922.5720       -337.501          42.911    36820485.121   191733895.7070       -334.438          38.890    36820485.287   144491467.2800       -252.044          47.122    36820487.233   148260802.0690       -258.739          40.098  
C46  23443202.384   123194818.5580       2324.911          46.164    23443202.457   122074865.2830       2303.770          42.143    23443202.669    91996129.6220       1736.119          49.237    23443205.159    94396018.6310       1781.269          42.213  
C59  38645533.521   203083602.7180         -0.379          39.457    38645533.603   201237387.7220         -0.383          35.436    38645533.841   151653338.4330         -0.305          43.360    38645536.641   155609501.2060         -0.509          36.337  
C60  37018391.356   194532925.3820         45.161          42.194    37018391.416   192764443.9310         44.745          38.173    37018391.591   145268092.7080         33.710          46.652    37018393.643   149057686.8630         34.466          39.629  
E01  25685100.768   134976072.2020      -1099.131          46.646    25685104.165   100793807.8040       -820.997          49.374    25685103.668   103423212.4770       -842.389          49.350  
E04  27482924.761   144423673.7640      -2525.914          42.769    27482928.590   107848820.4750      -1886.538          46.035    27482929.487   110662276.4500      -1935.717          46.011  
E05  27772943.683   145947725.6370        182.858          42.192    27772951.734   108986923.0810        136.300          45.691    27772948.934   111830054.3430        139.885          45.668  
E09  26663023.888   140115078.0860      -1752.707          45.048    26663029.528   104631377.1700      -1309.061          47.706    26663027.779   107360888.3230      -1343.184          47.682  
E10  27755067.079   145853790.4060       3136.668          42.466    27755072.853   108916771.8260       2341.992          45.869    27755071.864   111758079.8720       2403.125          45.845  
E12  25755965.968   135348468.4430       2868.836          46.364    25755963.951   101071872.9420       2142.096          49.224    25755969.063   103708554.2690       2198.002          49.200  
E24  26763934.873   140645368.5890       1704.081          44.989    26763938.158   105027363.9020       1272.310          47.619    26763938.784   107767214.7300       1305.526          47.595  
E26  26769229.448   140673199.3320      -1774.172          45.445    26769230.911   105048143.9280      -1325.117          48.308    26769232.853   107788541.6220      -1359.657          48.284  
E31  24136784.184   126839625.2160        607.821          49.945    24136789.335    94717903.3440        453.751          52.330    24136786.309    97188795.1780        465.604          52.307  
E33  24120118.638   126752047.6480        681.176          49.908    24120119.123    94652486.4750        508.522          52.300    24120120.733    97121690.4140        521.805          52.276  
G01  20873806.214   109692558.7230       1126.347          49.252    20873806.214   109692558.7230       1126.347          46.252    20873806.214   109692558.7230       1126.347          50.752    20873809.167    85474716.3890        877.537          45.768    20873809.167    85474716.3890        877.537          47.268    20873809.835    81913268.8550        840.943          50.237  
G07  20327062.555   106819405.2020      -1221.135          50.144    20327062.555   106819405.2020      -1221.135          47.144    20327062.555   106819405.2020      -1221.135          51.644    20327062.203    83235883.8470       -951.649          47.721    20327062.203    83235883.8470       -951.649          49.221    20327062.123    79767718.4850       -912.022          52.191  
G08  23889836.215   125541877.5250      -3179.275          43.373    23889836.215   125541877.5250      -3179.275          40.373    23889836.215   125541877.5250      -3179.275          44.873    23889840.848    97824828.7950      -2477.609          40.547    23889840.848    97824828.7950      -2477.609          42.047    23889841.896    93748791.9140      -2374.430          45.016  
G13  23921316.775   125707298.2500       1027.837          42.504    23921316.775   125707298.2500       1027.837          39.504    23921316.775   125707298.2500       1027.837          44.004    23921318.817    97953712.0420        800.706          40.152    23921318.817    97953712.0420        800.706          41.652    23921319.279    93872301.5530        767.299          44.622  
G14  21731196.953   114198172.2820       1562.175          48.096    21731196.953   114198172.2820       1562.175          45.096    21731196.953   114198172.2820       1562.175          49.596    21731197.786    88985572.8060       1217.142          44.780    21731197.786    88985572.8060       1217.142          46.280    21731197.974    85277837.1410       1166.398          49.250  
G17  21492568.415   112944170.9100       1609.345          48.109    21492568.415   112944170.9100       1609.345          45.109    21492568.415   112944170.9100       1609.345          49.609    21492568.613    88008426.3050       1253.897          44.797    21492568.613    88008426.3050       1253.897          46.297    21492568.657    84341404.5190       1201.621          49.267  
G19  24531855.098   128915694.1250       3062.404          41.648    24531855.098   128915694.1250       3062.404          38.648    24531855.098   128915694.1250       3062.404          43.148    24531856.705   100453756.6410       2386.049          39.694    24531856.705   100453756.6410       2386.049          41.194    24531857.069    96268176.7310       2286.579          44.164  
G21  21814895.069   114638009.3980      -1611.437          47.884    21814895.069   114638009.3980      -1611.437          44.884    21814895.069   114638009.3980      -1611.437          49.384    21814895.417    89328301.3140      -1255.821          44.545    21814895.417    89328301.3140      -1255.821          46.045    21814895.496    85606284.9230      -1203.529          49.015  
G30  20602686.468   108267818.7690       1057.241          50.077    20602686.468   108267818.7690       1057.241          47.077    20602686.468   108267818.7690       1057.241          51.577    20602688.998    84364529.6620        823.714          48.053    20602688.998    84364529.6620        823.714          49.553    20602689.570    80849339.9630        789.369          52.523  
I02  37344523.596   146547803.8280        188.085          47.282  
I03  37285509.405   146316229.5610        -30.021          48.067  
I06  39788979.876   156140265.8240        -24.729          42.316  
I09  39789681.972   156143025.3710       -445.763          42.273  
J02  39425220.071   207180891.4610        927.192          45.173    39425220.071   207180891.4610        927.192          46.673    39425220.071   207180891.4610        927.192          45.173    39425223.077   154712992.4350        692.195          48.175    39425223.077   154712992.4350        692.195          48.175  
J03  39397967.444   207037682.6600       -527.360          46.298    39397967.444   207037682.6600       -527.360          47.798    39397967.444   207037682.6600       -527.360          46.298    39397969.873   154606051.3260       -393.969          49.756    39397969.873   154606051.3260       -393.969          49.756  
J07  37731190.108   198278702.8920         -4.370          45.508    37731190.108   198278702.8920         -4.370          47.008    37731190.108   198278702.8920         -4.370          45.508    37731191.753   148065248.2620         -3.457          48.288    37731191.753   148065248.2620         -3.457          48.288  
R11  23137354.980   123638948.0180      -2678.364          39.559  
R12  19955403.949   106598154.6820        -86.727          48.024  
R13  20825914.541   111209182.2380       2538.951          45.875  
R22  20543511.813   109662625.1590      -2679.472          46.383  
R23  19558849.644   104626627.8120       1907.120          48.168  
R24  22791063.833   121873997.5100       4212.161          40.519  
S22  38852193.574   204169605.6960         -0.442          41.330    38852193.574   152464315.9420         -0.330          42.378  
S23  40134887.787   210910185.8520         -1.961          39.072    40134887.787   157497866.0580         -1.465          40.079  
S26  37657056.579   197889127.3370          1.150          43.207    37657056.579   147774348.3360          0.859          44.421  
S27  38202824.818   200757153.1320        -11.304          42.334    38202824.818   149916055.9100         -8.441          43.517  
S28  36919473.965   194013111.2200         -8.711          44.744    36919473.965   144879920.7160         -6.505          46.409  
S30  38647932.502   203096208.5750         -0.790          41.654    38647932.502   151662753.1570         -0.590          42.857  
S32  36781495.292   193288029.5490         -2.684          45.264    36781495.292   144338463.6250         -2.005          46.726  
S34  36783466.462   193298387.9790         -0.182          45.208    36783466.462   144346198.8160         -0.136          46.694  
S37  37731781.460   198281810.4600         -4.828          43.107    37731781.460   148067585.7330         -3.605          44.287  
S43  36945779.639   194151348.7340         -5.119          44.609    36945779.639   144983150.0290         -3.822          46.319  
S44  37019356.663   194537997.4770         45.541          44.394    37019356.663   145271881.2330         34.008          46.153  
> 2023 01 08 10 50  0.0000000  0 66
C01  38996370.822   204927262.5040         32.947          38.943    38996370.908   203064286.9400         32.639          34.922    38996369.572   153030091.0580         24.579          42.559    38996372.532   157022168.4700         25.002          35.536  
C02  36946427.626   194154754.0690          6.977          42.303    36946427.685   192389710.5430          6.909          38.282    36946423.180   144985673.7160          5.196          46.740    36946425.194   148767900.5730          5.206          39.716  
C03  37063893.850   194772043.0550         36.276          42.023    37063893.910   193001387.8100         35.941          38.002    37063890.965   145446642.3830         27.074          46.483    37063892.990   149240894.4650         27.646          39.459  
C04  40270056.980   211620515.4210         24.723          36.610    40270057.089   209696691.9840         24.487          32.589    40270053.121   158028288.4650         18.428          40.456    40270056.863   162150750.4880         18.605          33.432  
C05  38080364.283   200113621.0990          5.117          40.306    38080364.360   198294405.9610          5.064          36.286    38080361.797   149435484.1510          3.804          44.165    38080364.430   153333790.5250          3.749          37.141  
C06  37993651.810   199657944.5620      -1569.824          40.189    37993651.886   197842871.9440      -1555.559          36.168    37993648.990   149095204.9390      -1172.290          44.061    37993651.589   152984634.6050      -1203.041          37.037  
C07  36294666.523   190729730.8960       -136.547          44.236    36294666.574   188995823.9860       -135.310          40.215    36294662.525   142428028.5460       -101.979          48.652    36294664.266   146143535.3230       -104.749          41.629  
C08  39971120.388   210049593.0830       1987.411          36.976    39971120.497   208140050.7590       1969.333          32.956    39971117.098   156855199.3460       1484.075          40.619    39971120.837   160947059.0580       1522.516          33.596  
C09  36837813.541   193583981.5970      -1306.530          41.832    36837813.603   191824126.8980      -1294.657          37.811    36837812.823   144559462.0640       -975.670          46.181    36837814.933   148330569.9700      -1001.257          39.158  
C10  36480249.838   191704977.9460        -44.010          44.263    36480249.889   189962205.1550        -43.614          40.242    36480249.107   143156310.2740        -32.877          48.797    36480250.840   146890815.7400        -33.842          41.774  
C13  40242438.636   211475376.6680       1747.224          36.497    40242438.752   209552872.6430       1731.329          32.476    40242442.686   157919936.4790       1304.713          40.401    40242446.630   162039571.1120       1338.466          33.378  
C16  38313374.721   201338096.5150      -1576.147          39.661    38313374.802   199507749.7580      -1561.826          35.641    38313377.169   150349884.3640      -1177.014          43.571    38313379.965   154272044.0050      -1207.902          36.547  
C23  25057571.532   131678374.7940      -2448.731          43.578    25057571.624   130481298.1810      -2426.479          39.557    25057571.892    98331252.4910      -1828.624          46.781    25057575.036   100896402.9410      -1876.560          39.757  
C27  21873740.369   114947252.6160       1303.079          48.830    21873740.419   113902277.3290       1291.229          44.809    21873740.567    85837233.3180        973.067          52.990    21873742.299    88076458.5170        998.342          45.966  
C28  22323294.404   117309672.9420      -1637.117          48.714    22323294.458   116243221.0870      -1622.239          44.693    22323294.617    87601378.3100      -1222.536          51.448    22323296.473    89886624.1810      -1254.548          44.424  
C30  25439593.799   133685901.6070       3063.613          41.974    25439593.915   132470574.6250       3035.753          37.953    25439594.253    99830379.2860       2287.737          45.594    25439598.223   102434634.0680       2347.190          38.570  
C37  22048221.928   115864160.3810       -397.670          48.938    22048221.977   114810849.5770       -394.059          44.918    22048222.120    86521937.1950       -296.973          53.476    22048223.793    88779024.4710       -304.829          46.452  
C38  39268386.827   206356712.8950       1937.743          38.522    39268386.920   204480742.2970       1920.118          34.501    39268387.190   154097543.9220       1446.990          41.847    39268390.352   158117467.1170       1484.509          34.823  
C39  39288962.420   206464835.2610      -1651.047          38.281    39288962.518   204587881.7030      -1636.046          34.260    39288962.803   154178284.5660      -1232.950          41.483    39288966.152   158200313.2880      -1265.340          34.460  
C40  36839164.440   193591083.5230       -317.301          42.830    36839164.496   191831164.2880       -314.421          38.810    36839164.661   144564769.2940       -236.959          47.074    36839166.597   148336016.3510       -243.264          40.050  
C46  23311599.256   122503241.1240       2284.100          46.394    23311599.326   121389574.9320       2263.330          42.373    23311599.529    91479691.9730       1705.644          49.409    23311601.919    93866109.1000       1749.999          42.386  
C59  38645514.965   203083505.6990          0.207          39.457    38645515.046   201237291.5900          0.198          35.436    38645515.283   151653265.9980          0.132          43.360    38645518.053   155609426.9990         -0.064          36.337  
C60  37015792.964   194519271.0700         45.348          42.201    37015793.023   192750913.7510         44.931          38.180    37015793.196   145257896.3140         33.849          46.659    37015795.229   149047224.5570         34.606          39.635  
E01  25748715.208   135310368.2070      -1130.613          46.536    25748718.615   101043444.3900       -844.514          49.318    25748718.118   103679361.3260       -866.518          49.294  
E04  27626112.331   145176128.1600      -2490.527          42.430    27626116.263   108410717.8350      -1860.130          45.847    27626117.149   111238832.0490      -1908.618          45.823  
E05  27766060.960   145911557.1690         57.589          42.207    27766068.975   108959914.3030         42.748          45.702    27766066.179   111802340.9720         43.893          45.679  
E09  26765083.090   140651401.8590      -1822.472          44.864    26765088.802   105031878.4070      -1361.169          47.445    26765087.044   107771837.4500      -1396.650          47.421  
E10  27575969.486   144912629.3800       3135.661          42.892    27575975.020   108213957.7140       2341.244          46.095    27575974.059   111036931.3700       2402.357          46.071  
E12  25593701.990   134495767.5970       2814.054          46.644    25593699.813   100435116.4430       2101.191          49.374    25593704.943   103055186.6580       2156.029          49.350  
E24  26666246.098   140132012.4500       1717.513          45.162    26666249.244   104644014.0840       1282.337          47.874    26666249.886   107373864.4180       1315.815          47.850  
E26  26873624.869   141221800.3300      -1883.197          45.267    26873626.379   105457813.3150      -1406.542          48.040    26873628.316   108208898.0590      -1443.205          48.016  
E31  24102562.802   126659791.1780        590.238          49.992    24102567.913    94583611.8510        440.619          52.433    24102564.892    97051000.4100        452.130          52.409  
E33  24085323.495   126569198.4550        537.059          49.970    24085323.941    94515943.3990        400.900          52.405    24085325.555    96981585.3270        411.376          52.381  
G01  20815464.816   109385973.2990        916.115          49.441    20815464.816   109385973.2990        916.115          46.441    20815464.816   109385973.2990        916.115          50.941    20815467.726    85235818.8310        713.719          45.865    20815467.726    85235818.8310        713.719          47.365    20815468.384    81684325.4000        683.951          50.335  
G07  20401910.150   107212731.7410      -1401.179          50.225    20401910.150   107212731.7410      -1401.179          47.225    20401910.150   107212731.7410      -1401.179          51.725    20401909.812    83542372.0020      -1091.947          47.316    20401909.812    83542372.0020      -1091.947          48.816    20401909.735    80061436.2880      -1046.475          51.785  
G08  24071097.826   126494412.4110      -3171.147          42.875    24071097.826   126494412.4110      -3171.147          39.875    24071097.826   126494412.4110      -3171.147          44.375    24071102.539    98567063.4410      -2471.291          40.289    24071102.539    98567063.4410      -2471.291          41.789    24071103.605    94460100.0450      -2368.379          44.758  
G13  23867599.227   125425011.9800        853.018          42.685    23867599.227   125425011.9800        853.018          39.685    23867599.227   125425011.9800        853.018          44.185    23867601.186    97733749.0560        664.480          40.230    23867601.186    97733749.0560        664.480          41.730    23867601.629    93661503.7650        636.748          44.700  
G14  21642790.549   113733594.6470       1534.152          48.244    21642790.549   113733594.6470       1534.152          45.244    21642790.549   113733594.6470       1534.152          49.744    21642791.311    88623564.5490       1195.305          44.950    21642791.311    88623564.5490       1195.305          46.450    21642791.483    84930912.6240       1145.470          49.420  
G17  21404213.241   112479862.6220       1485.584          48.281    21404213.241   112479862.6220       1485.584          45.281    21404213.241   112479862.6220       1485.584          49.781    21404213.359    87646627.9630       1157.459          44.996    21404213.359    87646627.9630       1157.459          46.496    21404213.386    83994681.1790       1109.202          49.465  
G19  24358636.717   128005428.6540       3004.507          42.130    24358636.717   128005428.6540       3004.507          39.130    24358636.717   128005428.6540       3004.507          43.630    24358638.124    99744459.6940       2340.936          39.921    24358638.124    99744459.6940       2340.936          41.421    24358638.442    95588434.0010       2243.345          44.390  
G21  21911810.971   115147305.6750      -1783.493          47.754    21911810.971   115147305.6750      -1783.493          44.754    21911810.971   115147305.6750      -1783.493          49.254    21911811.333    89725155.4990      -1389.896          44.412    21911811.333    89725155.4990      -1389.896          45.912    21911811.415    85986603.5050      -1332.018          48.881  
G30  20547224.043   107976362.2760        884.465          50.122    20547224.043   107976362.2760        884.465          47.122    20547224.043   107976362.2760        884.465          51.622    20547226.542    84137420.8360        689.082          48.230    20547226.542    84137420.8360        689.082          49.730    20547227.107    80631694.0330        660.346          52.700  
I02  37330065.576   146491068.9260        188.339          47.319  
I03  37287680.442   146324750.1790        -28.579          48.059  
I06  39790796.097   156147394.6610        -25.674          42.314  
I09  39823079.927   156274086.4550       -431.076          42.244  
J02  39371973.009   206901076.6310        937.415          45.185    39371973.009   206901076.6310        937.415          46.685    39371973.009   206901076.6310        937.415          45.185    39371975.987   154504039.9120        699.826          48.180    39371975.987   154504039.9120        699.826          48.180  
J03  39428179.824   207196450.1950       -531.494          46.326    39428179.824   207196450.1950       -531.494          47.826    39428179.824   207196450.1950       -531.494          46.326    39428182.223   154724611.6180       -397.058          49.776    39428182.223   154724611.6180       -397.058          49.776  
J07  37731419.218   198279907.2650         -4.318          45.508    37731419.218   198279907.2650         -4.318          47.008    37731419.218   198279907.2650         -4.318          45.508    37731420.833   148066147.7490         -3.422          48.288    37731420.833   148066147.7490         -3.422          48.288  
R11  23290473.525   124457166.0960      -2777.356          39.082  
R12  19964152.290   106644887.0140       -226.347          47.990  
R13  20684719.426   110455209.9060       2485.457          46.135  
R22  20699302.049   110494243.0450      -2863.060          46.108  
R23  19458788.724   104091370.1500       1659.891          48.098  
R24  22556957.846   120622131.2800       4130.778          41.255  
S22  38852193.791   204169607.3680         -0.451          41.330    38852193.791   152464317.1910         -0.337          42.378  
S23  40134974.057   210910639.7280         -1.938          39.072    40134974.057   157498204.9920         -1.447          40.079  
S26  37656975.540   197888701.8300          1.097          43.207    37656975.540   147774030.5880          0.819          44.422  
S27  38203453.494   200760457.2380        -11.485          42.334    38203453.494   149918523.2620         -8.577          43.517  
S28  36919948.682   194015606.1860         -8.704          44.744    36919948.682   144881783.8400         -6.500          46.409  
S30  38647936.864   203096231.9980         -0.200          41.654    38647936.864   151662770.6480         -0.149          42.857  
S32  36781633.643   193288756.8970         -2.673          45.264    36781633.643   144339006.7740         -1.996          46.726  
S34  36783462.548   193298367.7160         -0.192          45.208    36783462.548   144346183.6840         -0.143          46.694  
S37  37732037.347   198283155.5500         -4.799          43.107    37732037.347   148068590.1830         -3.583          44.286  
S43  36946070.351   194152876.7670         -5.608          44.611    36946070.351   144984291.0930         -4.188          46.320  
S44  37016736.196   194524227.1670         45.731          44.401    37016736.196   145261598.2090         34.150          46.159  
> 2023 01 08 10 55  0.0000000  0 66
C01  38994450.173   204917169.9890         33.426          38.946    38994450.258   203054286.1800         33.114          34.925    38994448.919   153022554.4540         24.937          42.564    38994451.845   157014435.3950         25.366          35.540  
C02  36946000.571   194152510.1940          7.454          42.304    36946000.629   192387487.0710          7.381          38.283    36945996.122   144983998.1040          5.552          46.740    36945998.117   148766181.3260          5.568          39.717  
C03  37061792.272   194760999.5350         36.787          42.027    37061792.331   192990444.6890         36.447          38.006    37061789.384   145438395.6080         27.455          46.487    37061791.388   149232432.6400         28.035          39.463  
C04  40268609.347   211612908.8300         24.723          36.612    40268609.455   209689154.5510         24.486          32.592    40268605.483   158022608.2400         18.428          40.457    40268609.179   162144922.2690         18.600          33.433  
C05  38080028.415   200111856.4850          6.002          40.306    38080028.491   198292657.3920          5.942          36.285    38080025.926   149434166.4300          4.465          44.164    38080028.537   153332438.5210          4.423          37.141  
C06  38083914.986   200132280.3140      -1592.844          40.046    38083915.062   198312895.5490      -1578.371          36.025    38083912.168   149449416.6900      -1189.481          43.938    38083914.793   153348086.5570      -1220.688          36.914  
C07  36302050.817   190768535.8590       -122.553          44.223    36302050.867   189034276.1790       -121.443          40.202    36302046.817   142457006.2850        -91.529          48.620    36302048.544   146173269.0600        -94.029          41.597  
C08  39857201.697   209450948.3150       2002.027          37.216    39857201.803   207546848.2350       1983.816          33.196    39857198.394   156408159.4760       1494.990          40.727    39857202.013   160488357.7590       1533.718          33.703  
C09  36913504.226   193981738.5390      -1345.529          41.685    36913504.288   192218267.8660      -1333.302          37.665    36913503.511   144856488.3440      -1004.794          45.951    36913505.638   148635344.6910      -1031.145          38.927  
C10  36482328.653   191715902.4320        -29.188          44.254    36482328.703   189973030.3300        -28.926          40.233    36482327.920   143164468.1760        -21.808          48.776    36482329.638   146899186.5160        -22.487          41.752  
C13  40142072.883   210947953.0190       1767.403          36.716    40142072.995   209030243.7730       1751.325          32.696    40142076.919   157526081.2100       1319.782          40.509    40142080.747   161635441.8280       1353.930          33.486  
C16  38403931.978   201813977.6320      -1596.868          39.516    38403932.061   199979304.6780      -1582.358          35.495    38403934.430   150705250.1200      -1192.488          43.406    38403937.255   154636680.0550      -1223.788          36.383  
C23  25199343.848   132423392.4050      -2518.695          43.272    25199343.941   131219542.8960      -2495.807          39.251    25199344.214    98887596.7860      -1880.871          46.425    25199347.414   101467260.3390      -1930.183          39.401  
C27  21803397.985   114577601.5170       1160.644          48.853    21803398.034   113535986.7000       1150.089          44.832    21803398.179    85561195.1760        866.703          53.265    21803399.874    87793219.5310        889.203          46.241  
C28  22420030.546   117818024.4710      -1751.339          48.410    22420030.600   116746951.2360      -1735.423          44.390    22420030.761    87980991.4570      -1307.832          51.201    22420032.637    90276140.2010      -1342.074          44.177  
C30  25266245.195   132774951.5700       3007.666          42.433    25266245.306   131567905.9800       2980.315          38.412    25266245.629    99150124.4700       2245.959          45.815    25266249.416   101736634.2060       2304.324          38.792  
C37  22074181.564   116000579.3540       -512.657          48.891    22074181.612   114946028.3790       -508.001          44.870    22074181.754    86623808.5100       -382.841          53.387    22074183.417    88883553.3390       -392.939          46.364  
C38  39157741.515   205775269.5870       1937.226          38.697    39157741.604   203904584.8520       1919.607          34.677    39157741.865   153663349.2910       1446.605          42.138    39157744.924   157671946.0870       1484.116          35.115  
C39  39383410.664   206961163.6160      -1658.435          38.120    39383410.762   205079697.9780      -1643.367          34.099    39383411.051   154548919.3630      -1238.468          41.307    39383414.430   158580616.6950      -1271.011          34.284  
C40  36856672.855   193683091.0520       -296.504          42.755    36856672.911   191922335.3860       -293.813          38.734    36856673.075   144633476.2190       -221.429          47.028    36856674.999   148406515.6770       -227.332          40.004  
C46  23182487.060   121824753.5500       2237.619          46.609    23182487.127   120717255.4410       2217.271          42.588    23182487.323    90973029.2170       1670.933          49.627    23182489.617    93346229.4400       1714.384          42.603  
C59  38645462.546   203083230.7310          0.793          39.457    38645462.626   201237019.1250          0.779          35.436    38645462.859   151653060.6780          0.570          43.360    38645465.600   155609216.4440          0.381          36.336  
C60  37013184.213   194505562.3310         45.513          42.208    37013184.272   192737329.6400         45.094          38.187    37013184.444   145247659.2780         33.972          46.666    37013186.456   149036720.5480         34.730          39.642  
E01  25814186.996   135654424.6350      -1164.224          46.423    25814190.413   101300369.6040       -869.621          49.257    25814189.914   103942988.9420       -892.280          49.233  
E04  27767111.691   145917083.5140      -2449.339          42.101    27767115.720   108964028.2710      -1829.390          45.627    27767116.594   111806576.7150      -1877.074          45.603  
E05  27766294.160   145912783.0190        -66.390          42.205    27766302.146   108960829.8230        -49.842          45.701    27766299.353   111803280.3610        -51.111          45.678  
E09  26870937.659   141207670.3730      -1885.686          44.666    26870943.447   105447273.4280      -1408.385          47.196    26870941.680   108198068.8980      -1445.097          47.172  
E10  27397101.220   143972673.3940       3128.645          43.320    27397106.520   107512043.4470       2336.010          46.294    27397105.586   110316706.1890       2396.987          46.270  
E12  25434746.888   133660454.9000       2752.947          46.915    25434744.560    99811344.5680       2055.563          49.508    25434749.707   102415142.4040       2109.211          49.484  
E24  26567799.680   139614674.8460       1730.584          45.334    26567802.689   104257691.0860       1292.097          48.136    26567803.346   106977463.3670       1325.829          48.112  
E26  26984099.107   141802345.6840      -1987.131          45.074    26984100.670   105891337.2400      -1484.166          47.748    26984102.601   108653731.3270      -1522.852          47.725  
E31  24069407.886   126485561.4460        570.422          50.019    24069412.957    94453505.3890        425.819          52.537    24069409.940    96917499.8480        436.944          52.513  
E33  24058794.774   126429789.5510        391.655          49.996    24058795.185    94411839.4850        292.318          52.489    24058796.803    96874765.6430        299.961          52.465  
G01  20769270.093   109143218.9950        700.968          49.596    20769270.093   109143218.9950        700.968          46.596    20769270.093   109143218.9950        700.968          51.096    20769272.966    85046659.7840        546.070          45.948    20769272.966    85046659.7840        546.070          47.448    20769273.616    81503048.0130        523.288          50.417  
G07  20486971.850   107659733.6890      -1578.861          50.295    20486971.850   107659733.6890      -1578.861          47.295    20486971.850   107659733.6890      -1578.861          51.795    20486971.531    83890685.1320      -1230.406          46.901    20486971.531    83890685.1320      -1230.406          48.401    20486971.459    80395236.3540      -1179.166          51.371  
G08  24251752.492   127443757.8550      -3158.138          42.369    24251752.492   127443757.8550      -3158.138          39.369    24251752.492   127443757.8550      -3158.138          43.869    24251757.281    99306812.8270      -2461.170          40.063    24251757.281    99306812.8270      -2461.170          41.563    24251758.365    95169026.4720      -2358.683          44.532  
G13  23823894.065   125195341.0080        677.183          42.837    23823894.065   125195341.0080        677.183          39.837    23823894.065   125195341.0080        677.183          44.337    23823895.950    97554784.9650        527.461          40.296    23823895.950    97554784.9650        527.461          41.796    23823896.376    93489996.5770        505.437          44.766  
G14  21556040.067   113277718.8980       1504.114          48.395    21556040.067   113277718.8980       1504.114          45.395    21556040.067   113277718.8980       1504.114          49.895    21556040.761    88268336.9730       1171.898          45.116    21556040.761    88268336.9730       1171.898          46.616    21556040.918    84590486.2580       1123.038          49.585  
G17  21322904.280   112052582.3350       1362.570          48.453    21322904.280   112052582.3350       1362.570          45.453    21322904.280   112052582.3350       1362.570          49.953    21322904.325    87313682.5840       1061.605          45.177    21322904.325    87313682.5840       1061.605          46.677    21322904.335    83675608.5890       1017.341          49.647  
G19  24188822.056   127113049.7030       2943.205          42.610    24188822.056   127113049.7030       2943.205          39.610    24188822.056   127113049.7030       2943.205          44.110    24188823.270    99049100.2590       2293.169          40.131    24188823.270    99049100.2590       2293.169          41.631    24188823.545    94922048.0460       2197.569          44.601  
G21  22018370.468   115707279.3070      -1949.210          47.604    22018370.468   115707279.3070      -1949.210          44.604    22018370.468   115707279.3070      -1949.210          49.104    22018370.848    90161498.5120      -1519.032          44.272    22018370.848    90161498.5120      -1519.032          45.772    22018370.934    86404765.5430      -1455.775          48.742  
G30  20501773.477   107737518.3950        706.586          50.195    20501773.477   107737518.3950        706.586          47.195    20501773.477   107737518.3950        706.586          51.695    20501775.947    83951308.8360        550.474          48.371    20501775.947    83951308.8360        550.474          49.871    20501776.506    80453336.7250        527.513          52.841  
I02  37315587.243   146434254.3270        188.577          47.356  
I03  37289739.038   146332829.5790        -27.119          48.052  
I06  39792680.917   156154792.7430        -26.607          42.312  
I09  39855337.713   156400673.3960       -416.039          42.215  
J02  39318173.528   206618358.8260        946.529          45.196    39318173.528   206618358.8260        946.529          46.696    39318173.528   206618358.8260        946.529          45.196    39318176.478   154292919.5840        706.627          48.184    39318176.478   154292919.5840        706.627          48.184  
J03  39458603.425   207356327.6960       -534.766          46.352    39458603.425   207356327.6960       -534.766          47.852    39458603.425   207356327.6960       -534.766          46.352    39458605.793   154844000.7800       -399.505          49.792    39458605.793   154844000.7800       -399.505          49.792  
J07  37731644.916   198281093.7230         -4.263          45.508    37731644.916   198281093.7230         -4.263          47.008    37731644.916   198281093.7230         -4.263          45.508    37731646.501   148067033.8600         -3.385          48.288    37731646.501   148067033.8600         -3.385          48.288  
R11  23449094.297   125304786.4210      -2874.365          38.606  
R12  19980910.133   106734404.6160       -371.906          47.928  
R13  20546787.875   109718664.7300       2422.708          46.381  
R22  20865040.519   111378965.1700      -3033.478          45.804  
R23  19372736.507   103631049.4950       1407.760          48.153  
R24  22327739.996   119396403.9210       4037.956          41.944  
S22  38852194.067   204169609.3540         -0.459          41.330    38852194.067   152464318.6730         -0.343          42.378  
S23  40135058.243   210911082.6670         -1.914          39.072    40135058.243   157498535.7580         -1.429          40.079  
S26  37656897.136   197888290.1790          1.044          43.207    37656897.136   147773723.1860          0.780          44.422  
S27  38204091.913   200763812.5580        -11.661          42.334    38204091.913   149921028.8580         -8.708          43.517  
S28  36920422.589   194018096.9010         -8.694          44.744    36920422.589   144883643.7900         -6.492          46.408  
S30  38647907.094   203096076.0630          0.391          41.654    38647907.094   151662654.2030          0.292          42.857  
S32  36781771.029   193289479.1760         -2.661          45.264    36781771.029   144339546.1380         -1.987          46.726  
S34  36783458.870   193298348.7020         -0.201          45.208    36783458.870   144346169.4860         -0.150          46.694  
S37  37732291.167   198284489.7870         -4.767          43.107    37732291.167   148069586.5300         -3.560          44.286  
S43  36946388.610   194154549.5630         -6.094          44.613    36946388.610   144985540.2580         -4.551          46.321  
S44  37014105.194   194510401.5000         45.899          44.408    37014105.194   145251273.8470         34.275          46.166  
> 2023 01 08 11 00  0.0000000  0 64
C01  38992502.216   204906933.9790         33.889          38.949    38992502.301   203044143.2300         33.573          34.928    38992500.958   153014910.6960         25.282          42.569    38992503.851   157006592.3730         25.716          35.545  
C02  36945546.109   194150122.3090          7.927          42.304    36945546.167   192385120.8960          7.850          38.284    36945541.659   144982214.9510          5.905          46.741    36945543.634   148764351.7360          5.927          39.717  
C03  37059661.776   194749804.0550         37.278          42.031    37059661.834   192979350.9890         36.934          38.010    37059658.885   145430035.3560         27.822          46.492    37059660.868   149223854.3800         28.409          39.468  
C04  40267161.608   211605301.6950         24.710          36.615    40267161.715   209681616.5790         24.474          32.594    40267157.739   158016927.6080         18.418          40.458    40267161.388   162139093.6360         18.586          33.435  
C05  38079641.680   200109824.5700          6.884          40.305    38079641.755   198290643.9530          6.816          36.285    38079639.188   149432649.1010          5.123          44.164    38079641.775   153330881.7050          5.095          37.140  
C06  38175441.945   200613257.2950      -1614.119          39.902    38175442.022   198789500.0070      -1599.453          35.881    38175439.131   149808587.8000      -1205.369          43.809    38175441.782   153716627.2430      -1236.997          36.785  
C07  36308626.538   190803091.7520       -108.239          44.212    36308626.588   189068517.9300       -107.260          40.191    36308622.537   142482811.0160        -80.841          48.591    36308624.249   146199747.0180        -83.064          41.568  
C08  39742518.755   208848287.3560       2014.193          37.453    39742518.857   206949666.0290       1995.872          33.432    39742515.439   155958120.5010       1504.075          40.840    39742518.939   160026579.1130       1543.044          33.816  
C09  36991382.051   194390988.9650      -1383.162          41.545    36991382.114   192623797.8300      -1370.593          37.524    36991381.337   145162097.4210      -1032.897          45.714    36991383.483   148948926.1040      -1059.986          38.690  
C10  36483547.607   191722308.3320        -13.905          44.246    36483547.657   189979377.9970        -13.783          40.225    36483546.872   143169251.8100        -10.396          48.756    36483548.575   146904095.0000        -10.780          41.733  
C13  40040618.659   210414809.4050       1785.360          36.938    40040618.767   208501946.9360       1769.119          32.917    40040622.681   157127954.5370       1333.192          40.609    40040626.393   161226929.7090       1367.691          33.585  
C16  38495618.770   202295794.4960      -1615.743          39.371    38495618.854   200456741.3840      -1601.062          35.350    38495621.226   151065048.4150      -1206.584          43.213    38495624.079   155005864.2750      -1238.259          36.189  
C23  25345046.394   133189063.5080      -2586.431          42.938    25345046.489   131978253.3450      -2562.927          38.917    25345046.767    99459364.1430      -1931.454          46.124    25345050.023   102053943.1390      -1982.099          39.100  
C27  21741210.529   114250804.7950       1017.467          48.942    21741210.578   113212160.8620       1008.214          44.922    21741210.719    85317158.6780        759.785          53.479    21741212.380    87542817.0000        779.495          46.455  
C28  22523103.537   118359676.3210      -1859.112          48.035    22523103.592   117283678.9750      -1842.216          44.015    22523103.754    88385471.7240      -1388.313          50.958    22523105.653    90691172.0360      -1424.660          43.934  
C30  25096225.053   131881492.5830       2947.050          42.862    25096225.158   130682569.3730       2920.250          38.841    25096225.467    98482931.1490       2200.694          46.074    25096229.081   101052036.5400       2257.881          39.051  
C37  22106773.113   116171849.2450       -629.966          48.850    22106773.162   115115741.2730       -624.243          44.829    22106773.303    86751704.8620       -470.441          53.275    22106774.958    89014786.1520       -482.828          46.252  
C38  39047191.893   205194329.0930       1934.401          38.870    39047191.979   203328925.6520       1916.807          34.849    39047192.231   153229530.1370       1444.495          42.440    39047195.188   157226810.3220       1481.954          35.416  
C39  39478222.796   207459404.2380      -1663.830          37.951    39478222.895   205573409.1360      -1648.714          33.931    39478223.186   154920982.1520      -1242.498          41.160    39478226.596   158962385.3500      -1275.155          34.136  
C40  36872978.364   193768777.2850       -275.184          42.684    36872978.420   192007242.6550       -272.687          38.663    36872978.583   144697462.6980       -205.509          46.985    36872980.495   148472171.4170       -210.999          39.961  
C46  23056194.296   121161082.1060       2185.303          46.817    23056194.361   120059617.3880       2165.432          42.797    23056194.549    90477430.4530       1631.867          49.875    23056196.752    92837702.3770       1674.299          42.852  
C59  38645376.263   203082777.8190          1.380          39.456    38645376.342   201236570.3350          1.359          35.436    38645376.573   151652722.4780          1.007          43.360    38645379.283   155608869.5440          0.827          36.336  
C60  37010566.373   194491805.8280         45.656          42.216    37010566.431   192723698.1990         45.236          38.195    37010566.601   145237386.5740         34.079          46.672    37010568.592   149026179.9430         34.836          39.648  
E01  25881636.975   136008876.5300      -1199.938          46.305    25881640.403   101565057.6670       -896.299          49.187    25881639.903   104214581.9150       -919.652          49.163  
E05  27773557.363   145950951.6830       -188.650          42.188    27773565.329   108989332.4770       -141.147          45.689    27773562.538   111832526.5540       -144.798          45.665  
E09  26980209.968   141781899.1850      -1942.228          44.454    26980215.835   105876080.3490      -1450.619          46.973    26980214.059   108638062.1230      -1488.432          46.949  
E10  27218806.037   143035728.8890       3115.599          43.734    27218811.110   106812377.9870       2326.274          46.491    27218810.202   109598788.4830       2386.995          46.467  
E12  25279458.316   132844409.8390       2685.639          47.179    25279455.845    99201960.8300       2005.304          49.656    25279461.008   101789861.6330       2057.641          49.633  
E24  26468621.861   139093493.6850       1743.097          45.504    26468624.735   103868497.8920       1301.439          48.391    26468625.408   106578117.2450       1335.416          48.367  
E26  27100355.026   142413273.9310      -2085.753          44.867    27100356.643   106347549.6750      -1557.824          47.451    27100358.568   109121844.9820      -1598.430          47.427  
E31  24037451.821   126317631.7060        548.203          50.028    24037456.853    94328103.4650        409.225          52.644    24037453.840    96788826.5520        419.917          52.620  
E33  24040591.082   126334128.9200        245.484          50.010    24040591.462    94340404.7210        183.162          52.549    24040593.083    96801467.3490        187.958          52.525  
G01  20735473.871   108965619.1630        481.919          49.708    20735473.871   108965619.1630        481.919          46.708    20735473.871   108965619.1630        481.919          51.208    20735476.712    84908270.4340        375.382          46.010    20735476.712    84908270.4340        375.382          47.510    20735477.355    81370424.9140        359.711          50.480  
G07  20582090.689   108159586.1770      -1753.410          50.279    20582090.689   108159586.1770      -1753.410          47.279    20582090.689   108159586.1770      -1753.410          51.779    20582090.393    84280180.4810      -1366.424          46.527    20582090.393    84280180.4810      -1366.424          48.027    20582090.326    80768502.7090      -1309.518          50.997  
G08  24431532.125   128388505.0630      -3140.619          41.869    24431532.125   128388505.0630      -3140.619          38.869    24431532.125   128388505.0630      -3140.619          43.369    24431536.985   100042979.1950      -2447.536          39.838    24431536.985   100042979.1950      -2447.536          41.338    24431538.084    95874519.1790      -2345.621          44.308  
G13  23790236.733   125018471.5920        501.124          42.958    23790236.733   125018471.5920        501.124          39.958    23790236.733   125018471.5920        501.124          44.458    23790238.553    97416964.9080        390.268          40.352    23790238.553    97416964.9080        390.268          41.852    23790238.964    93357919.0800        373.960          44.821  
G14  21471068.382   112831190.7480       1471.786          48.553    21471068.382   112831190.7480       1471.786          45.553    21471068.382   112831190.7480       1471.786          50.053    21471069.010    87920393.2300       1146.707          45.272    21471069.010    87920393.2300       1146.707          46.772    21471069.152    84257040.2290       1098.897          49.742  
G17  21248585.693   111662036.6210       1240.761          48.629    21248585.693   111662036.6210       1240.761          45.629    21248585.693   111662036.6210       1240.761          50.129    21248585.670    87009361.5250        966.689          45.334    21248585.670    87009361.5250        966.689          46.834    21248585.665    83383967.6330        926.380          49.804  
G19  24022598.243   126239540.6450       2878.756          43.073    24022598.243   126239540.6450       2878.756          40.073    24022598.243   126239540.6450       2878.756          44.573    24022599.273    98368444.5990       2242.951          40.349    24022599.273    98368444.5990       2242.951          41.849    24022599.507    94269753.2020       2149.443          44.819  
G21  22134195.474   116315943.4460      -2108.033          47.430    22134195.474   116315943.4460      -2108.033          44.430    22134195.474   116315943.4460      -2108.033          48.930    22134195.878    90635782.1620      -1642.796          44.138    22134195.878    90635782.1620      -1642.796          45.638    22134195.970    86859287.3530      -1574.384          48.608  
G30  20466607.811   107552721.9790        524.253          50.272    20466607.811   107552721.9790        524.253          47.272    20466607.811   107552721.9790        524.253          51.772    20466610.256    83807311.7320        408.394          48.478    20466610.256    83807311.7320        408.394          49.978    20466610.809    80315339.5220        391.353          52.947  
I02  37301090.379   146377367.0240        188.785          47.394  
I03  37291683.869   146340462.5710        -25.642          48.044  
I06  39794633.357   156162456.2320        -27.526          42.310  
I09  39886429.319   156522684.1250       -400.671          42.187  
J02  39263885.706   206333074.7780        954.508          45.207    39263885.706   206333074.7780        954.508          46.707    39263885.706   206333074.7780        954.508          45.207    39263888.628   154079882.9070        712.582          48.188    39263888.628   154079882.9070        712.582          48.188  
J03  39489188.709   207517054.8410       -537.165          46.375    39489188.709   207517054.8410       -537.165          47.875    39489188.709   207517054.8410       -537.165          46.375    39489191.047   154964024.4140       -401.298          49.806    39489191.047   154964024.4140       -401.298          49.806  
J07  37731867.109   198282261.7640         -4.207          45.508    37731867.109   198282261.7640         -4.207          47.008    37731867.109   198282261.7640         -4.207          45.508    37731868.662   148067906.2200         -3.346          48.288    37731868.662   148067906.2200         -3.346          48.288  
R12  20005998.909   106868424.5260       -522.964          47.831  
R13  20412650.559   109002380.4550       2350.330          46.627  
R22  21039978.269   112312793.5740      -3190.433          45.452  
R23  19300930.074   103246934.0740       1152.083          48.336  
R24  22104046.827   118200219.3050       3933.891          42.597  
S22  38852194.400   204169611.6520         -0.467          41.330    38852194.400   152464320.3890         -0.349          42.378  
S23  40135140.317   210911514.5240         -1.889          39.072    40135140.317   157498858.2480         -1.410          40.079  
S26  37656821.396   197887892.5290          0.991          43.207    37656821.396   147773426.2390          0.740          44.422  
S27  38204739.778   200767217.5170        -11.831          42.334    38204739.778   149923571.5230         -8.835          43.517  
S28  36920895.461   194020582.1800         -8.679          44.743    36920895.461   144885499.6800         -6.481          46.408  
S30  38647843.180   203095740.7110          0.982          41.654    38647843.180   151662403.7770          0.734          42.857  
S32  36781907.384   193290196.0440         -2.648          45.264    36781907.384   144340081.4610         -1.977          46.726  
S34  36783455.431   193298330.9460         -0.211          45.208    36783455.431   144346156.2260         -0.157          46.694  
S37  37732542.798   198285812.5310         -4.734          43.107    37732542.798   148070574.2920         -3.535          44.286  
S43  36946734.233   194156366.1650         -6.577          44.614    36946734.233   144986896.8110         -4.911          46.322  
S44  37011464.935   194496527.1940         46.045          44.416    37011464.935   145240913.1650         34.384          46.172  
> 2023 01 08 11 05  0.0000000  0 64
C01  38990527.932   204896559.6280         34.335          38.951    38990528.016   203033863.1960         34.014          34.931    38990526.671   153007163.6310         25.614          42.574    38990529.528   156998643.3510         26.054          35.550  
C02  36945064.481   194147591.6660          8.395          42.305    36945064.538   192382613.2620          8.314          38.285    36945060.028   144980325.1940          6.254          46.741    36945061.983   148762412.7610          6.283          39.718  
C03  37057503.473   194738462.4590         37.751          42.035    37057503.531   192968112.5020         37.402          38.014    37057500.580   145421565.9920         28.175          46.496    37057502.542   149215164.1640         28.768          39.473  
C04  40265714.466   211597697.7010         24.686          36.618    40265714.571   209674081.7200         24.450          32.597    40265710.591   158011249.3220         18.399          40.460    40265714.193   162133267.4120         18.563          33.436  
C05  38079204.294   200107526.4910          7.762          40.305    38079204.369   198288366.7700          7.686          36.284    38079201.799   149430933.0140          5.778          44.164    38079204.362   153329120.9480          5.764          37.140  
C06  38268131.678   201100344.6940      -1633.603          39.756    38268131.757   199272159.3350      -1618.759          35.735    38268128.867   150172321.8860      -1219.919          43.671    38268131.544   154089849.9380      -1251.934          36.647  
C07  36314377.130   190833311.5750        -93.666          44.202    36314377.180   189098463.0300        -92.818          40.181    36314373.127   142505377.7740        -69.958          48.565    36314374.824   146222902.5360        -71.900          41.542  
C08  39627211.965   208242348.0220       2023.892          37.682    39627212.064   206349235.2520       2005.483          33.662    39627208.635   155505633.3880       1511.318          40.968    39627212.020   159562288.4570       1550.479          33.944  
C09  37071366.814   194811311.4150      -1419.352          41.407    37071366.877   193040299.1640      -1406.455          37.387    37071366.103   145475974.5660      -1059.923          45.477    37071368.267   149270991.2720      -1087.723          38.453  
C10  36483882.093   191724066.3320          1.779          44.239    36483882.143   189981120.0180          1.759          40.218    36483881.357   143170564.6090          1.316          48.739    36483883.044   146905442.1100          1.236          41.715  
C13  39938203.529   209876616.1780       1801.072          37.161    39938203.634   207968646.3930       1784.688          33.140    39938207.538   156726057.0490       1344.925          40.708    39938211.135   160814548.4010       1379.733          33.684  
C16  38588328.484   202782986.8520      -1632.731          39.227    38588328.568   200939504.7150      -1617.895          35.207    38588330.942   151428860.8760      -1219.270          42.989    38588333.824   155379167.3820      -1251.284          35.965  
C23  25494544.370   133974679.7320      -2651.676          42.565    25494544.467   132756727.5940      -2627.580          38.544    25494544.749   100046025.5840      -1980.178          45.885    25494548.063   102655908.5620      -2032.107          38.861  
C27  21687205.348   113967006.1630        874.074          49.074    21687205.396   112930942.2220        866.123          45.053    21687205.535    85105231.1420        652.705          53.668    21687207.165    87325361.0420        669.620          46.644  
C28  22632140.825   118932670.7120      -1960.291          47.656    22632140.881   117851464.3220      -1942.475          43.635    22632141.045    88813357.1340      -1463.869          50.716    22632142.969    91130219.5730      -1502.192          43.693  
C30  24929794.093   131006894.7410       2881.973          43.249    24929794.193   129815922.4460       2855.765          39.228    24929794.488    97829822.4450       2152.098          46.402    24929797.936   100381890.8840       2208.021          39.378  
C37  22146119.426   116378615.6260       -749.253          48.825    22146119.474   115320627.9610       -742.446          44.804    22146119.614    86906108.3310       -559.520          53.129    22146121.262    89173217.5650       -574.233          46.105  
C38  38936869.707   204614583.7460       1929.270          39.039    38936869.790   202754450.7310       1911.723          35.018    38936870.034   152796603.4610       1440.664          42.739    38936872.892   156782590.3060       1478.025          35.716  
C39  39573284.498   207958956.3820      -1667.214          37.776    39573284.599   206068419.8920      -1652.067          33.755    39573284.892   155294024.3250      -1245.026          41.038    39573288.330   159345158.9430      -1277.759          34.014  
C40  36888053.349   193847997.0870       -253.419          42.620    36888053.404   192085742.2790       -251.120          38.599    36888053.566   144756620.3480       -189.256          46.945    36888055.465   148532872.3630       -194.325          39.921  
C46  22933058.161   120513998.7760       2127.013          47.029    22933058.223   119418416.6470       2107.671          43.009    22933058.404    89994218.9140       1588.338          50.135    22933060.521    92341885.6650       1629.635          43.112  
C59  38645256.134   203082147.0580          1.966          39.456    38645256.213   201235945.3130          1.940          35.436    38645256.441   151652251.4690          1.444          43.360    38645259.120   155608386.3730          1.272          36.336  
C60  37007940.709   194478008.2190         45.777          42.224    37007940.766   192710026.0270         45.355          38.203    37007940.934   145227083.1740         34.169          46.678    37007942.905   149015607.8440         34.926          39.655  
E01  25951184.008   136374348.5170      -1237.711          46.184    25951187.447   101837975.0180       -924.515          49.108    25951186.945   104494618.8540       -948.603          49.084  
E05  27787740.287   146025483.6230       -308.768          42.154    27787748.240   109044989.4950       -230.854          45.664    27787745.451   111889635.4890       -236.843          45.640  
E09  27092516.295   142372071.8330      -1992.004          44.225    27092522.243   106316793.3690      -1487.802          46.783    27092520.458   109090272.0410      -1526.583          46.759  
E10  27041428.510   142103606.6070       3096.516          44.127    27041433.364   106116313.5090       2312.030          46.714    27041432.481   108884565.7000       2372.379          46.690  
E12  25128186.236   132049471.4770       2612.275          47.434    25128183.631    98608338.5550       1950.524          49.852    25128188.809   101180753.4980       2001.431          49.828  
E24  26368750.402   138568667.3880       1754.846          45.676    26368753.143   103476582.6730       1310.212          48.629    26368753.831   106175978.0900       1344.417          48.605  
E26  27222083.782   143052962.0960      -2178.874          44.640    27222085.458   106825238.6630      -1627.374          47.168    27222087.376   109611995.4480      -1669.793          47.144  
E31  24006836.453   126156747.3760        523.419          50.031    24006841.447    94207962.7200        390.715          52.753    24006838.439    96665551.6820        400.925          52.729  
E33  24030741.303   126282368.3450         99.067          50.014    24030741.654    94301752.4530         73.823          52.584    24030743.279    96761806.7480         75.767          52.560  
G01  20714269.030   108854187.4060        260.018          49.774    20714269.030   108854187.4060        260.018          46.774    20714269.030   108854187.4060        260.018          51.274    20714271.845    84821440.6030        202.471          46.047    20714271.845    84821440.6030        202.471          47.547    20714272.481    81287213.0170        194.004          50.517  
G07  20687066.367   108711236.6210      -1924.081          49.995    20687066.367   108711236.6210      -1924.081          46.995    20687066.367   108711236.6210      -1924.081          51.495    20687066.100    84710037.8520      -1499.420          46.199    20687066.100    84710037.8520      -1499.420          47.699    20687066.039    81180449.3300      -1436.974          50.669  
G08  24610189.857   129327356.7550      -3118.963          41.384    24610189.857   129327356.7550      -3118.963          38.384    24610189.857   129327356.7550      -3118.963          42.884    24610194.780   100774551.6830      -2430.678          39.594    24610194.780   100774551.6830      -2430.678          41.094    24610195.894    96575609.4240      -2329.469          44.064  
G13  23766617.203   124894351.0390        325.640          43.051    23766617.203   124894351.0390        325.640          40.051    23766617.203   124894351.0390        325.640          44.551    23766618.966    97320247.8240        253.523          40.394    23766618.966    97320247.8240        253.523          41.894    23766619.365    93265231.9250        242.911          44.864  
G14  21388014.031   112394738.2200       1436.895          48.725    21388014.031   112394738.2200       1436.895          45.725    21388014.031   112394738.2200       1436.895          50.225    21388014.596    87580300.6100       1119.518          45.412    21388014.596    87580300.6100       1119.518          46.912    21388014.724    83931118.1910       1072.841          49.882  
G17  21181176.042   111307797.5260       1120.597          48.831    21181176.042   111307797.5260       1120.597          45.831    21181176.042   111307797.5260       1120.597          50.331    21181175.958    86733331.3160        873.054          45.469    21181175.958    86733331.3160        873.054          46.969    21181175.938    83119438.7380        836.647          49.938  
G19  23860137.444   125385806.2180       2811.426          43.518    23860137.444   125385806.2180       2811.426          40.518    23860137.444   125385806.2180       2811.426          45.018    23860138.300    97703197.7090       2190.487          40.594    23860138.300    97703197.7090       2190.487          42.094    23860138.494    93632225.0870       2099.166          45.063  
G21  22258878.034   116971154.2700      -2259.471          47.235    22258878.034   116971154.2700      -2259.471          44.235    22258878.034   116971154.2700      -2259.471          48.735    22258878.466    91146335.9370      -1760.807          44.010    22258878.466    91146335.9370      -1760.807          45.510    22258878.564    87348568.0290      -1687.479          48.480  
G30  20441961.676   107423206.0320        338.162          50.326    20441961.676   107423206.0320        338.162          47.326    20441961.676   107423206.0320        338.162          51.826    20441964.099    83706390.3060        263.386          48.549    20441964.099    83706390.3060        263.386          50.049    20441964.647    80218623.1750        252.386          53.019  
I02  37286577.843   146320418.2400        188.950          47.431  
I03  37293513.675   146347644.2020        -24.148          48.037  
I06  39796652.397   156170381.1210        -28.431          42.307  
I09  39916330.073   156640021.8280       -384.988          42.160  
J02  39209174.924   206045568.0610        961.331          45.217    39209174.924   206045568.0610        961.331          46.717    39209174.924   206045568.0610        961.331          45.217    39209177.817   153865186.4460        717.674          48.191    39209177.817   153865186.4460        717.674          48.191  
J03  39519885.435   207678367.6180       -538.677          46.395    39519885.435   207678367.6180       -538.677          47.895    39519885.435   207678367.6180       -538.677          46.395    39519887.743   155084485.3710       -402.430          49.817    39519887.743   155084485.3710       -402.430          49.817  
J07  37732085.703   198283410.9030         -4.149          45.508    37732085.703   198283410.9030         -4.149          47.008    37732085.703   198283410.9030         -4.149          45.508    37732087.225   148068764.4670         -3.306          48.288    37732087.225   148068764.4670         -3.306          48.288  
R12  20039714.012   107048524.6690       -679.026          47.701  
R13  20282857.807   108309295.8160       2267.998          46.896  
R22  21223352.699   113291657.4560      -3333.739          45.061  
R23  19243529.653   102939881.0180        894.247          48.555  
R24  21886502.734   117036916.3480       3818.831          43.220  
S22  38852194.791   204169614.2640         -0.475          41.330    38852194.791   152464322.3400         -0.355          42.378  
S23  40135220.253   210911935.1600         -1.863          39.072    40135220.253   157499172.3600         -1.391          40.079  
S26  37656748.344   197887509.0210          0.937          43.207    37656748.344   147773139.8530          0.700          44.422  
S27  38205396.782   200770670.5180        -11.996          42.334    38205396.782   149926150.0620         -8.958          43.517  
S28  36921367.071   194023060.8400         -8.660          44.743    36921367.071   144887350.6270         -6.467          46.408  
S30  38647745.128   203095225.9700          1.573          41.654    38647745.128   151662019.3930          1.175          42.857  
S32  36782042.642   193290907.1570         -2.633          45.264    36782042.642   144340612.4870         -1.966          46.726  
S34  36783452.231   193298314.4560         -0.220          45.208    36783452.231   144346143.9120         -0.164          46.694  
S37  37732792.120   198287123.1430         -4.698          43.107    37732792.120   148071552.9970         -3.508          44.286  
S43  36947107.025   194158325.5480         -7.056          44.615    36947107.025   144988359.9870         -5.269          46.323  
S44  37008816.697   194482610.9660         46.168          44.424    37008816.697   145230521.1760         34.476          46.179  
> 2023 01 08 11 10  0.0000000  0 64
C01  38988528.315   204886052.1550         34.764          38.954    38988528.397   203023451.2520         34.439          34.934    38988527.049   152999317.1580         25.934          42.579    38988529.871   156990592.3290         26.379          35.555  
C02  36944555.940   194144919.6010          8.859          42.306    36944555.996   192379965.4920          8.774          38.286    36944551.484   144978329.8300          6.601          46.742    36944553.420   148760365.4250          6.636          39.719  
C03  37055318.492   194726980.6690         38.203          42.039    37055318.549   192956735.0960         37.850          38.018    37055315.596   145412991.9390         28.512          46.501    37055317.536   149206366.5280         29.113          39.477  
C04  40264268.620   211590100.5300         24.649          36.620    40264268.724   209666553.6210         24.413          32.600    40264264.740   158005576.1310         18.371          40.461    40264268.293   162127446.4190         18.531          33.437  
C05  38078716.502   200104963.5410          8.636          40.305    38078716.576   198285827.1230          8.551          36.284    38078714.005   149429019.1340          6.430          44.164    38078716.543   153327157.2400          6.430          37.140  
C06  38361880.658   201592998.4740      -1651.252          39.608    38361880.737   199760334.4400      -1636.248          35.587    38361877.850   150540212.6830      -1233.100          43.520    38361880.553   154467337.7820      -1265.466          36.496  
C07  36319289.470   190859126.3640        -78.892          44.193    36319289.519   189124043.1410        -78.179          40.173    36319285.466   142524655.0590        -58.926          48.542    36319287.146   146242682.7710        -60.582          41.519  
C08  39511422.689   207633873.1760       2031.107          37.903    39511422.785   205746292.0130       2012.633          33.882    39511419.346   155051252.8720       1516.707          41.120    39511422.616   159096054.9970       1556.011          34.096  
C09  37153374.082   195242262.1880      -1454.028          41.270    37153374.145   193467332.2000      -1440.816          37.250    37153373.372   145797788.4460      -1085.818          45.246    37153375.557   149601200.2180      -1114.299          38.222  
C10  36483310.798   191721064.4270         17.809          44.233    36483310.847   189978145.4050         17.642          40.213    36483310.060   143168322.9340         13.286          48.724    36483311.731   146903142.0220         13.515          41.700  
C13  39834956.279   209334050.1100       1814.519          37.381    39834956.380   207431012.7610       1798.013          33.361    39834960.275   156320894.1270       1354.967          40.810    39834963.759   160398816.4690       1390.039          33.786  
C16  38681952.227   203274982.4730      -1647.792          39.084    38681952.312   201427027.6440      -1632.820          35.063    38681954.689   151796260.1900      -1230.518          42.744    38681957.599   155756150.9120      -1262.834          35.721  
C23  25647688.300   134779455.5830      -2714.178          42.167    25647688.399   133554187.2930      -2689.515          38.147    25647688.686   100646994.5380      -2026.853          45.679    25647692.055   103272554.7420      -2080.015          38.655  
C27  21641379.897   113726192.2580        730.984          49.213    21641379.944   112692317.5390        724.335          45.192    21641380.081    84925402.5890        545.852          53.842    21641381.683    87140841.4220        559.979          46.818  
C28  22746762.733   119535012.4390      -2054.772          47.357    22746762.790   118448330.2110      -2036.097          43.336    22746762.957    89263157.7620      -1534.423          50.487    22746764.909    91591754.0160      -1574.593          43.463  
C30  24767200.539   130152462.4740       2812.664          43.601    24767200.635   128969257.7690       2787.086          39.581    24767200.916    97191772.4460       2100.342          46.809    24767204.207    99727196.7370       2154.917          39.785  
C37  22192323.196   116621418.1630       -870.157          48.823    22192323.244   115561223.2030       -862.251          44.803    22192323.384    87087421.9160       -649.806          52.939    22192325.027    89359261.0900       -666.877          45.916  
C38  38826906.364   204036724.0890       1921.842          39.207    38826906.444   202181844.3590       1904.362          35.187    38826906.680   152365084.9290       1435.117          43.023    38826909.441   156339815.1580       1472.336          35.999  
C39  39668480.476   208459214.1750      -1668.571          37.592    39668480.577   206564129.8830      -1653.412          33.572    39668480.873   155667593.4440      -1246.041          40.931    39668484.338   159728473.2350      -1278.810          33.907  
C40  36901874.555   193920628.2520       -231.285          42.563    36901874.610   192157713.1630       -229.187          38.542    36901874.771   144810857.9130       -172.728          46.907    36901876.656   148588524.8780       -177.368          39.883  
C46  22813423.228   119885314.3050       2062.630          47.258    22813423.287   118795447.5020       2043.874          43.237    22813423.461    89524746.7800       1540.260          50.390    22813425.497    91860166.7580       1580.304          43.367  
C59  38645102.196   203081338.6300          2.551          39.457    38645102.273   201235144.2400          2.520          35.436    38645102.499   151651647.7870          1.881          43.360    38645105.147   155607767.0700          1.717          36.336  
C60  37005308.488   194464176.1590         45.875          42.232    37005308.545   192696319.7150         45.453          38.212    37005308.711   145216754.0480         34.242          46.685    37005310.660   149005009.3480         34.999          39.661  
E01  26022944.115   136751450.2830      -1277.488          46.058    26022947.564   102119576.9440       -954.227          49.016    26022947.062   104783566.9230       -979.089          48.992  
E05  27808708.806   146135674.0000       -426.332          42.104    27808716.755   109127274.5370       -318.653          45.628    27808713.966   111974067.0940       -326.932          45.604  
E09  27207468.328   142976147.7310      -2034.948          43.978    27207474.361   106767888.6770      -1519.883          46.623    27207472.567   109553135.0910      -1559.499          46.600  
E10  26865313.066   141178116.5080       3071.408          44.489    26865317.709   105425201.6030       2293.286          47.004    26865316.849   108175424.6910       2353.146          46.980  
E12  24981271.485   131277430.9210       2533.030          47.675    24981268.753    98031815.2590       1891.351          50.113    24981273.946   100589190.4060       1940.713          50.089  
E24  26268234.847   138040456.3120       1765.624          45.850    26268237.457   103082139.8510       1318.259          48.833    26268238.159   105771245.3950       1352.675          48.810  
E26  27348966.575   143719734.8750      -2266.335          44.393    27348968.310   107323153.1640      -1692.698          46.917    27348970.222   110122899.0500      -1736.820          46.893  
E31  23977712.530   126003700.6220        495.921          50.031    23977717.486    94093674.7070        370.179          52.860    23977714.482    96548282.2260        379.853          52.836  
E33  24029244.613   126274503.5120        -47.076          50.015    24029244.940    94295879.4590        -35.312          52.591    24029246.568    96755780.5340        -36.215          52.568  
G01  20705787.712   108809618.1330         36.342          49.791    20705787.712   108809618.1330         36.342          46.791    20705787.712   108809618.1330         36.342          51.291    20705790.505    84786711.3890         28.176          46.058    20705790.505    84786711.3890         28.176          47.558    20705791.136    81253930.8730         26.971          50.528  
G07  20801656.761   109313412.6570      -2090.156          49.517    20801656.761   109313412.6570      -2090.156          46.517    20801656.761   109313412.6570      -2090.156          51.017    20801656.528    85179265.7930      -1628.836          45.903    20801656.528    85179265.7930      -1628.836          47.403    20801656.475    81630126.0770      -1560.999          50.373  
G08  24787499.849   130259126.1520      -3093.534          40.924    24787499.849   130259126.1520      -3093.534          37.924    24787499.849   130259126.1520      -3093.534          42.424    24787504.827   101500605.5330      -2410.881          39.306    24787504.827   101500605.5330      -2410.881          40.806    24787505.953    97271410.9810      -2310.500          43.775  
G13  23752979.773   124822686.6370        151.531          43.114    23752979.773   124822686.6370        151.531          40.114    23752979.773   124822686.6370        151.531          44.614    23752981.489    97264405.6290        117.849          40.423    23752981.489    97264405.6290        117.849          41.923    23752981.877    93211716.5300        112.889          44.893  
G14  21307031.123   111969171.1510       1399.169          48.937    21307031.123   111969171.1510       1399.169          45.937    21307031.123   111969171.1510       1399.169          50.437    21307031.627    87248690.1560       1090.121          45.542    21307031.627    87248690.1560       1090.121          47.042    21307031.741    83613324.8930       1044.669          50.012  
G17  21120569.450   110989308.6670       1002.493          49.072    21120569.450   110989308.6670       1002.493          46.072    21120569.450   110989308.6670       1002.493          50.572    21120569.308    86485158.4140        781.025          45.601    21120569.308    86485158.4140        781.025          47.101    21120569.276    82881606.4250        748.452          50.070  
G19  23701596.376   124552669.9780       2741.489          43.928    23701596.376   124552669.9780       2741.489          40.928    23701596.376   124552669.9780       2741.489          45.428    23701597.066    97054001.3180       2135.993          40.889    23701597.066    97054001.3180       2135.993          42.389    23701597.222    93010078.6920       2046.943          45.358  
G21  22391984.062   117670630.6420      -2403.100          47.020    22391984.062   117670630.6420      -2403.100          44.020    22391984.062   117670630.6420      -2403.100          48.520    22391984.526    91691382.3290      -1872.732          43.883    22391984.526    91691382.3290      -1872.732          45.383    22391984.631    87870904.1260      -1794.742          48.353  
G30  20428028.568   107349987.3770        149.057          50.351    20428028.568   107349987.3770        149.057          47.351    20428028.568   107349987.3770        149.057          51.851    20428030.972    83649336.8900        116.029          48.580    20428030.972    83649336.8900        116.029          50.080    20428031.515    80163947.0020        111.169          53.050  
I02  37272053.581   146263423.4560        189.056          47.468  
I03  37295227.254   146354369.7620        -22.639          48.030  
I06  39798736.975   156178563.2420        -29.320          42.305  
I09  39945016.670   156752595.0420       -369.008          42.133  
J02  39154107.781   205756188.6610        966.977          45.228    39154107.781   205756188.6610        966.977          46.728    39154107.781   205756188.6610        966.977          45.228    39154110.645   153649091.5540        721.887          48.194    39154110.645   153649091.5540        721.887          48.194  
J03  39550642.752   207839998.8010       -539.294          46.411    39550642.752   207839998.8010       -539.294          47.911    39550642.752   207839998.8010       -539.294          46.411    39550645.031   155205184.0960       -402.893          49.825    39550645.031   155205184.0960       -402.893          49.825  
J07  37732300.611   198284540.6760         -4.089          45.507    37732300.611   198284540.6760         -4.089          47.007    37732300.611   198284540.6760         -4.089          45.507    37732302.101   148069608.2540         -3.265          48.288    37732302.101   148069608.2540         -3.265          48.288  
R12  20082320.165   107276119.1590       -839.517          47.534  
R13  20157976.851   107642439.7930       2175.436          47.257  
R22  21414394.604   114311450.7510      -3463.329          44.635  
R23  19200616.010   102710322.3870        635.681          48.782  
R24  21675714.484   115909739.7190       3693.123          43.803  
S22  38852195.240   204169617.1910         -0.483          41.330    38852195.240   152464324.5250         -0.361          42.378  
S23  40135298.026   210912344.4430         -1.837          39.072    40135298.026   157499477.9930         -1.372          40.079  
S26  37656678.008   197887139.7860          0.883          43.207    37656678.008   147772864.1260          0.660          44.422  
S27  38206062.618   200774169.9400        -12.155          42.334    38206062.618   149928763.2670         -9.077          43.516  
S28  36921837.196   194025531.7000         -8.637          44.743    36921837.196   144889195.7500         -6.450          46.408  
S30  38647612.961   203094531.9620          2.164          41.654    38647612.961   151661501.1400          1.616          42.857  
S32  36782176.740   193291612.1780         -2.617          45.264    36782176.740   144341138.9640         -1.954          46.726  
S34  36783449.272   193298299.2380         -0.229          45.208    36783449.272   144346132.5480         -0.171          46.694  
S37  37733039.012   198288420.9950         -4.660          43.106    37733039.012   148072522.1710         -3.480          44.286  
S43  36947506.780   194160426.6230         -7.531          44.617    36947506.780   144989928.9720         -5.624          46.323  
S44  37006161.758   194468659.5250         46.269          44.433    37006161.758   145220102.8920         34.552          46.185  
> 2023 01 08 11 15  0.0000000  0 63
C01  38986504.370   204875416.8470         35.174          38.957    38986504.451   203012912.6340         34.846          34.936    38986503.100   152991375.2230         26.241          42.584    38986505.886   156982443.3570         26.691          35.560  
C02  36944020.755   194142107.5310          9.319          42.307    36944020.811   192377178.9900          9.229          38.287    36944016.298   144976229.9170          6.943          46.743    36944018.212   148758210.8150          6.986          39.719  
C03  37053107.973   194715364.6850         38.636          42.043    37053108.029   192945224.7140         38.279          38.022    37053105.074   145404317.6750         28.835          46.506    37053106.992   149197466.0680         29.441          39.482  
C04  40262824.770   211582513.8530         24.601          36.623    40262824.872   209659035.9210         24.365          32.602    40262820.884   157999910.7780         18.335          40.462    40262824.389   162121633.4690         18.490          33.439  
C05  38078178.581   200102137.1640          9.505          40.305    38078178.654   198283026.4440          9.412          36.284    38078176.080   149426908.5390          7.079          44.163    38078178.593   153324991.6870          7.092          37.140  
C06  38456583.044   202090662.4370      -1667.029          39.461    38456583.123   200253474.1820      -1651.882          35.440    38456580.238   150911844.8520      -1244.882          43.347    38456582.967   154848664.5990      -1277.563          36.323  
C07  36323353.889   190880485.3080        -63.979          44.186    36323353.938   189145207.9160        -63.402          40.165    36323349.883   142540604.9270        -47.790          48.522    36323351.547   146259048.7900        -49.158          41.498  
C08  39395293.039   207023609.6160       2035.829          38.112    39395293.132   205141576.3210       2017.311          34.091    39395289.684   154595536.6280       1520.233          41.309    39395292.842   158628450.9550       1559.632          34.286  
C09  37237315.376   195683376.3290      -1487.121          41.131    37237315.440   193904436.2090      -1473.608          37.111    37237314.669   146127191.8540      -1110.530          45.028    37237316.874   149939196.6770      -1139.662          38.005  
C10  36481815.747   191713208.1610         34.123          44.229    36481815.795   189970360.5620         33.808          40.208    36481815.007   143162456.2490         25.468          48.712    36481816.661   146897122.3620         26.014          41.688  
C13  39731006.728   208787793.4000       1825.684          37.597    39731006.827   206889722.0380       1809.077          33.577    39731010.712   155912975.2060       1363.305          40.921    39731014.083   159980256.6360       1398.597          33.897  
C16  38776379.042   203771198.2750      -1660.893          38.938    38776379.128   201918732.3890      -1645.803          34.917    38776381.507   152166810.9390      -1240.303          42.489    38776384.445   156136368.0900      -1272.882          35.465  
C23  25804314.503   135602530.9200      -2773.693          41.745    25804314.603   134369780.1180      -2748.489          37.724    25804314.895   101261628.6940      -2071.298          45.488    25804318.319   103903222.6110      -2125.634          38.464  
C27  21603702.094   113528194.4860        588.712          49.351    21603702.140   112496119.7510        583.356          45.330    21603702.274    84777547.1220        439.610          53.992    21603703.851    86989128.9580        450.964          46.968  
C28  22866584.839   120164681.3430      -2142.491          47.117    22866584.897   119072274.8470      -2123.019          43.096    22866585.066    89733365.0460      -1599.928          50.238    22866587.049    92074227.4540      -1641.813          43.214  
C30  24608679.131   129319429.3400       2739.367          43.921    24608679.222   128143797.6860       2714.456          39.900    24608679.490    96569702.3160       2045.608          47.258    24608682.632    99088899.2920       2098.759          40.235  
C37  22245465.856   116900684.7750       -992.296          48.840    22245465.904   115837951.0280       -983.279          44.820    22245466.044    87295965.1670       -741.014          52.711    22245467.683    89573244.6120       -760.468          45.687  
C38  38717432.708   203461437.7120       1912.128          39.378    38717432.785   201611787.8730       1894.737          35.357    38717433.013   151935488.0020       1427.864          43.271    38717435.680   155899011.7340       1464.896          36.247  
C39  39763694.662   208959567.6810      -1667.890          37.403    39763694.764   207059934.7170      -1652.738          33.383    39763695.062   156041234.0380      -1245.533          40.835    39763698.552   160111860.8730      -1278.298          33.811  
C40  36914423.121   193986571.6660       -208.858          42.510    36914423.176   192223057.0930       -206.965          38.490    36914423.335   144860101.3780       -155.981          46.872    36914425.205   148639053.0170       -160.188          39.849  
C46  22697639.985   119276870.5250       1992.065          47.523    22697640.042   118192535.0400       1973.950          43.503    22697640.210    89070389.4460       1487.566          50.625    22697642.170    91393956.9300       1526.236          43.601  
C59  38644914.500   203080352.8110          3.136          39.457    38644914.576   201234167.3880          3.099          35.436    38644914.799   151650911.6380          2.317          43.360    38644917.415   155607011.8450          2.162          36.336  
C60  37002670.973   194450316.2870         45.952          42.241    37002671.030   192682585.8460         45.529          38.220    37002671.194   145206404.1530         34.300          46.691    37002673.122   148994389.5430         35.056          39.668  
E01  26097029.625   137140772.1210      -1319.195          45.928    26097033.085   102410304.2490       -985.381          48.908    26097032.581   105081878.4230      -1011.055          48.884  
E05  27836305.609   146280696.1400       -540.942          42.039    27836313.560   109235570.2800       -404.246          45.581    27836310.771   112085187.9450       -414.758          45.557  
E09  27324674.623   143592069.8220      -2071.017          43.714    27324680.742   107227830.1590      -1546.830          46.479    27324678.937   110025075.0870      -1587.148          46.455  
E10  26690802.973   140261062.4750       3040.303          44.820    26690807.412   104740389.3250       2270.065          47.386    26690806.575   107472747.6520       2329.318          47.363  
E12  24839044.319   130530023.6890       2448.100          47.911    24839041.469    97473686.9460       1827.933          50.422    24839046.675   100016502.1710       1875.641          50.398  
E24  26167136.754   137509183.9510       1775.218          46.027    26167139.236   102685410.9940       1325.423          48.996    26167139.953   105364167.0310       1360.026          48.972  
E26  27480676.367   144411873.6860      -2348.005          44.122    27480678.164   107840009.8260      -1753.698          46.707    27480680.069   110653238.9580      -1799.410          46.684  
E31  23950239.061   125859327.0580        465.569          50.029    23950243.980    93985863.4250        347.512          52.966    23950240.980    96437658.4580        356.595          52.942  
E33  24036070.728   126310375.2710       -192.433          50.014    24036071.034    94322666.8950       -143.861          52.571    24036072.664    96783266.7630       -147.595          52.547  
G01  20710100.201   108832280.6950       -188.021          49.763    20710100.201   108832280.6950       -188.021          46.763    20710100.201   108832280.6950       -188.021          51.263    20710102.976    84804370.5990       -146.655          46.041    20710102.976    84804370.5990       -146.655          47.541    20710103.604    81270854.2970       -140.576          50.511  
G07  20925579.797   109964631.9720      -2250.954          49.042    20925579.797   109964631.9720      -2250.954          46.042    20925579.797   109964631.9720      -2250.954          50.542    20925579.603    85686709.2550      -1754.140          45.656    20925579.603    85686709.2550      -1754.140          47.156    20925579.559    82116426.0270      -1681.084          50.126  
G13  23749223.273   124802946.7360        -20.412          43.148    23749223.273   124802946.7360        -20.412          40.148    23749223.273   124802946.7360        -20.412          44.648    23749224.949    97249024.0490        -16.137          40.437    23749224.949    97249024.0490        -16.137          41.937    23749225.328    93196975.8850        -15.515          44.907  
G14  21228289.113   111555380.0430       1358.343          49.190    21228289.113   111555380.0430       1358.343          46.190    21228289.113   111555380.0430       1358.343          50.690    21228289.558    86926255.7650       1058.308          45.679    21228289.558    86926255.7650       1058.308          47.179    21228289.659    83304325.3200       1014.181          50.149  
G17  21066636.947   110705892.3100        886.841          49.321    21066636.947   110705892.3100        886.841          46.321    21066636.947   110705892.3100        886.841          50.821    21066636.752    86264314.7160        690.906          45.735    21066636.752    86264314.7160        690.906          47.235    21066636.708    82669964.5950        662.088          50.205  
G19  23547115.908   123740872.1990       2669.225          44.311    23547115.908   123740872.1990       2669.225          41.311    23547115.908   123740872.1990       2669.225          45.811    23547116.441    96421432.2650       2079.686          41.254    23547116.441    96421432.2650       2079.686          42.754    23547116.561    92403866.8240       1992.982          45.724  
G21  22533057.106   118411973.9010      -2538.560          46.786    22533057.106   118411973.9010      -2538.560          43.786    22533057.106   118411973.9010      -2538.560          48.286    22533057.606    92269052.2520      -1978.294          43.753    22533057.606    92269052.2520      -1978.294          45.253    22533057.719    88424504.4370      -1895.907          48.222  
G30  20424958.479   107333854.2330        -42.284          50.343    20424958.479   107333854.2330        -42.284          47.343    20424958.479   107333854.2330        -42.284          51.843    20424960.865    83636765.6800        -33.070          48.570    20424960.865    83636765.6800        -33.070          50.070    20424961.405    80151899.6080        -31.718          53.039  
I02  37257522.632   146206402.4420        189.089          47.506  
I03  37296823.472   146360634.7920        -21.114          48.024  
I06  39800885.989   156186998.2690        -30.195          42.303  
I09  39972467.186   156860317.7440       -352.750          42.107  
J02  39098752.011   205465292.5140        971.428          45.237    39098752.011   205465292.5140        971.428          46.737    39098752.011   205465292.5140        971.428          45.237    39098754.845   153431864.0280        725.207          48.196    39098754.845   153431864.0280        725.207          48.196  
J03  39581409.286   208001678.4140       -539.007          46.424    39581409.286   208001678.4140       -539.007          47.924    39581409.286   208001678.4140       -539.007          46.424    39581411.536   155325918.9860       -402.681          49.831    39581411.536   155325918.9860       -402.681          49.831  
J07  37732511.747   198285650.6350         -4.028          45.507    37732511.747   198285650.6350         -4.028          47.007    37732511.747   198285650.6350         -4.028          45.507    37732513.205   148070437.2470         -3.222          48.288    37732513.205   148070437.2470         -3.222          48.288  
R12  20134049.383   107552447.3640      -1003.828          47.340  
R13  20038588.716   107004915.0330       2072.429          47.691  
R22  21612332.898   115368057.3570      -3579.219          44.150  
R23  19172190.596   102558265.9520        377.797          48.998  
R24  21472269.423   114821830.2190       3557.145          44.339  
S22  38852195.748   204169620.4310         -0.490          41.330    38852195.748   152464326.9450         -0.366          42.378  
S23  40135373.611   210912742.2440         -1.810          39.072    40135373.611   157499775.0520         -1.352          40.079  
S26  37656610.411   197886784.9520          0.829          43.207    37656610.411   147772599.1530          0.619          44.422  
S27  38206736.974   200777714.1390        -12.309          42.334    38206736.974   149931409.9090         -9.191          43.516  
S28  36922305.612   194027993.5850         -8.610          44.743    36922305.612   144891034.1710         -6.430          46.408  
S30  38647446.719   203093658.8960          2.754          41.654    38647446.719   151660849.1760          2.057          42.857  
S32  36782309.614   193292310.7700         -2.599          45.264    36782309.614   144341660.6400         -1.941          46.726  
S34  36783446.556   193298285.3000         -0.238          45.208    36783446.556   144346122.1400         -0.178          46.694  
S37  37733283.356   198289705.4600         -4.620          43.106    37733283.356   148073481.3500         -3.450          44.286  
S43  36947933.277   194162668.2400         -8.002          44.618    36947933.277   144991602.9070         -5.976          46.324  
S44  37003501.391   194454679.5710         46.348          44.441    37003501.391   145209663.3160         34.611          46.191  
> 2023 01 08 11 20  0.0000000  0 62
C01  38984457.114   204864659.0500         35.568          38.960    38984457.195   203002252.6400         35.236          34.939    38984455.840   152983341.8190         26.534          42.589    38984458.591   156974200.5320         26.989          35.565  
C02  36943459.212   194139156.9540          9.773          42.309    36943459.268   192374255.2390          9.679          38.288    36943454.752   144974026.5740          7.282          46.744    36943456.646   148755950.0780          7.331          39.720  
C03  37050873.071   194703620.5740         39.048          42.048    37050873.126   192933587.3720         38.688          38.027    37050870.170   145395547.7320         29.143          46.511    37050872.065   149188467.4360         29.755          39.487  
C04  40261383.612   211574941.3340         24.541          36.626    40261383.713   209651532.2510         24.305          32.605    40261379.721   157994255.9960         18.290          40.463    40261383.176   162115831.3690         18.440          33.440  
C05  38077590.833   200099048.9570         10.368          40.305    38077590.906   198279966.3160         10.268          36.284    38077588.330   149424602.4220          7.723          44.163    38077590.817   153322625.5140          7.750          37.140  
C06  38552130.885   202592769.3110      -1680.898          39.314    38552130.966   200751016.4440      -1665.625          35.293    38552128.083   151286794.7790      -1255.240          43.143    38552130.837   155233395.7250      -1288.198          36.119  
C07  36326564.188   190897355.8290        -48.988          44.179    36326564.236   189161925.0700        -48.547          40.158    36326560.180   142553203.0510        -36.596          48.504    36326561.827   146271975.6300        -37.674          41.480  
C08  39278965.658   206412306.9310       2038.048          38.312    39278965.747   204535830.9500       2019.511          34.291    39278962.290   154139044.4130       1521.891          41.545    39278965.338   158160050.6890       1561.337          34.521  
C09  37323098.368   196134168.6530      -1518.564          40.988    37323098.433   194351130.4180      -1504.765          36.967    37323097.664   146463822.4760      -1134.011          44.830    37323099.889   150284608.8840      -1163.761          37.806  
C10  36479382.346   191700420.8440         50.664          44.226    36479382.394   189957689.4970         50.198          40.205    36479381.604   143152907.2870         37.820          48.702    36479383.241   146887324.3660         38.685          41.679  
C13  39626485.535   208238532.6640       1834.555          37.807    39626485.631   206345454.5980       1817.867          33.786    39626489.506   155502813.0180       1369.930          41.048    39626492.768   159559395.0090       1405.397          34.024  
C16  38871496.121   204271041.4450      -1672.004          38.790    38871496.207   202414031.5270      -1656.813          34.770    38871498.589   152540070.4370      -1248.600          42.230    38871501.553   156519364.6840      -1281.405          35.206  
C23  25964245.633   136442973.7980      -2829.987          41.314    25964245.734   135202582.5980      -2804.272          37.293    25964246.031   101889232.1180      -2113.338          45.292    25964249.508   104547198.0850      -2168.786          38.269  
C27  21574110.904   113372692.1250        447.758          49.480    21574110.950   112342031.0520        443.683          45.459    21574111.082    84661425.2400        334.352          54.110    21574112.636    86869977.9030        342.959          47.086  
C28  22991220.240   120819644.2430      -2223.424          46.896    22991220.299   119721283.5350      -2203.217          42.875    22991220.471    90222460.7040      -1660.367          49.973    22991222.487    92576081.9950      -1703.835          42.950  
C30  24454450.175   128508953.0660       2662.343          44.217    24454450.262   127340689.4000       2638.132          40.197    24454450.518    95964476.5910       1988.090          47.700    24454453.518    98467885.6410       2039.744          40.676  
C37  22305606.607   117216726.5720      -1115.272          48.869    22305606.655   116151119.7180      -1105.138          44.848    22305606.795    87531970.4050       -832.847          52.453    22305608.433    89815406.5130       -854.700          45.429  
C38  38608578.794   202889408.0580       1900.144          39.551    38608578.869   201044958.5020       1882.862          35.530    38608579.089   151508323.0420       1418.915          43.477    38608581.664   155460703.7090       1455.717          36.453  
C39  39858810.417   209459403.9580      -1665.162          37.211    39858810.520   207555227.0240      -1650.035          33.190    39858810.820   156414488.3900      -1243.497          40.745    39858814.333   160494852.2010      -1276.219          33.721  
C40  36925684.603   194045751.4210       -186.218          42.463    36925684.657   192281698.8540       -184.530          38.442    36925684.816   144904294.0600       -139.074          46.841    36925686.669   148684398.6160       -142.843          39.817  
C46  22586063.243   118690531.9750       1915.257          47.881    22586063.299   117611526.8520       1897.841          43.860    22586063.460    88632539.2620       1430.209          50.861    22586065.349    90944684.8540       1467.384          43.838  
C59  38644693.114   203079189.9620          3.719          39.457    38644693.189   201233015.1150          3.677          35.436    38644693.410   151650043.2910          2.753          43.360    38644695.993   155606120.9760          2.606          36.336  
C60  37000029.427   194436435.2340         46.007          42.249    37000029.483   192668830.9870         45.584          38.228    37000029.645   145196038.4410         34.340          46.698    37000031.551   148983753.5100         35.095          39.674  
E01  26173548.340   137542880.5400      -1362.746          45.794    26173551.811   102710579.9730      -1017.912          48.773    26173551.306   105389987.4320      -1044.434          48.749  
E09  27443741.993   144217771.9120      -2100.191          43.439    27443748.199   107695074.8820      -1568.629          46.346    27443746.385   110504508.8420      -1609.515          46.322  
E10  26518239.295   139354236.8090       3003.250          45.129    26518243.538   104063215.0810       2242.402          47.826    26518242.724   106777907.9040       2300.932          47.802  
E12  24701822.954   129808922.0110       2357.710          48.158    24701819.994    96935202.3600       1760.437          50.752    24701825.212    99463970.1100       1806.384          50.729  
E24  26065529.885   136975237.9200       1783.412          46.207    26065532.241   102286685.5560       1331.542          49.128    26065532.972   104955040.0020       1366.304          49.105  
E26  27616879.577   145127625.5550      -2423.785          43.822    27616881.437   108374499.6110      -1810.301          46.532    27616883.334   111201671.9840      -1857.488          46.509  
E31  23924582.633   125724502.0990        432.237          50.024    23924587.516    93885182.5900        322.619          53.067    23924584.521    96334351.1510        331.053          53.044  
E33  24051160.358   126389672.0510       -336.502          50.010    24051160.646    94381882.0930       -251.448          52.523    24051162.278    96844026.6980       -257.988          52.500  
G01  20727214.524   108922217.2760       -411.980          49.686    20727214.524   108922217.2760       -411.980          46.686    20727214.524   108922217.2760       -411.980          51.186    20727217.287    84874451.1030       -321.172          45.999    20727217.287    84874451.1030       -321.172          47.499    20727217.912    81338014.7910       -307.822          50.469  
G07  21058515.633   110663213.7880      -2405.834          48.700    21058515.633   110663213.7880      -2405.834          45.700    21058515.633   110663213.7880      -2405.834          50.200    21058515.483    86231058.5410      -1874.834          45.415    21058515.483    86231058.5410      -1874.834          46.915    21058515.449    82638094.0540      -1796.750          49.885  
G13  23755201.673   124834363.9500       -189.409          43.154    23755201.673   124834363.9500       -189.409          40.154    23755201.673   124834363.9500       -189.409          44.654    23755203.317    97273505.1240       -147.828          40.438    23755203.317    97273505.1240       -147.828          41.938    23755203.690    93220436.9420       -141.720          44.907  
G14  21151972.455   111154334.2060       1314.157          49.466    21151972.455   111154334.2060       1314.157          46.466    21151972.455   111154334.2060       1314.157          50.966    21151972.845    86613752.7440       1023.876          45.827    21151972.845    86613752.7440       1023.876          47.327    21151972.933    83004843.3080        981.184          50.297  
G17  21019227.991   110456757.3580        774.006          49.556    21019227.991   110456757.3580        774.006          46.556    21019227.991   110456757.3580        774.006          51.056    21019227.747    86070183.7850        602.982          45.870    21019227.747    86070183.7850        602.982          47.370    21019227.692    82483922.4960        577.828          50.339  
G19  23396820.759   122951068.2900       2594.919          44.670    23396820.759   122951068.2900       2594.919          41.670    23396820.759   122951068.2900       2594.919          46.170    23396821.143    95806001.2600       2021.788          41.663    23396821.143    95806001.2600       2021.788          43.163    23396821.229    91814078.9100       1937.497          46.133  
G21  22681622.082   119192687.4690      -2665.558          46.532    22681622.082   119192687.4690      -2665.558          43.532    22681622.082   119192687.4690      -2665.558          48.032    22681622.623    92877400.3220      -2077.261          43.606    22681622.623    92877400.3220      -2077.261          45.106    22681622.745    89007504.6350      -1990.753          48.076  
G30  20432855.945   107375355.9410       -235.048          50.302    20432855.945   107375355.9410       -235.048          47.302    20432855.945   107375355.9410       -235.048          51.802    20432858.316    83669104.7350       -183.278          48.517    20432858.316    83669104.7350       -183.278          50.017    20432858.852    80182891.2160       -175.668          52.987  
I02  37242991.127   146149379.2660        189.036          47.543  
I03  37298301.255   146366435.0850        -19.576          48.017  
I06  39803098.295   156195681.7180        -31.054          42.300  
I09  39998661.109   156963109.4320       -336.233          42.082  
J02  39043176.388   205173241.0370        974.666          45.246    39043176.388   205173241.0370        974.666          46.746    39043176.388   205173241.0370        974.666          45.246    39043179.192   153213773.7570        727.622          48.196    39043179.192   153213773.7570        727.622          48.196  
J03  39612133.229   208163134.2070       -537.809          46.433    39612133.229   208163134.2070       -537.809          47.933    39612133.229   208163134.2070       -537.809          46.433    39612135.450   155446486.7380       -401.789          49.835    39612135.450   155446486.7380       -401.789          49.835  
J07  37732719.030   198286740.3520         -3.965          45.507    37732719.030   198286740.3520         -3.965          47.007    37732719.030   198286740.3520         -3.965          45.507    37732720.455   148071251.1270         -3.178          48.287    37732720.455   148071251.1270         -3.178          48.287  
R12  20195097.952   107878557.8150      -1171.299          47.128  
R13  19925284.769   106399879.4000       1958.828          48.101  
R22  21816400.134   116457380.6080      -3681.516          43.602  
R23  19158175.576   102483295.3660        122.000          49.167  
R24  21276731.185   113776201.8480       3411.355          44.798  
S22  38852196.314   204169623.9850         -0.498          41.330    38852196.314   152464329.5990         -0.372          42.378  
S23  40135446.986   210913128.4410         -1.783          39.071    40135446.986   157500063.4460         -1.331          40.078  
S26  37656545.575   197886444.6370          0.775          43.207    37656545.575   147772345.0210          0.578          44.422  
S27  38207419.532   200781301.4510        -12.456          42.333    38207419.532   149934088.7460         -9.302          43.516  
S28  36922772.096   194030445.3230         -8.579          44.743    36922772.096   144892865.0140         -6.406          46.408  
S30  38647246.459   203092607.0740          3.343          41.654    38647246.459   151660063.7240          2.497          42.857  
S32  36782441.200   193293002.6010         -2.581          45.264    36782441.200   144342177.2670         -1.927          46.726  
S34  36783444.083   193298272.6490         -0.247          45.208    36783444.083   144346112.6920         -0.184          46.694  
S37  37733525.034   198290975.9220         -4.577          43.106    37733525.034   148074430.0720         -3.418          44.286  
S43  36948386.286   194165049.1820         -8.469          44.619    36948386.286   144993380.8830         -6.325          46.325  
S44  37000836.870   194440677.7920         46.405          44.449    37000836.870   145199207.4420         34.653          46.198  
> 2023 01 08 11 25  0.0000000  0 63
C01  38982387.577   204853784.1680         35.943          38.963    38982387.657   202991476.6270         35.607          34.942    38982386.299   152975220.9830         26.814          42.594    38982389.013   156965867.9950         27.273          35.570  
C02  36942871.611   194136069.4460         10.222          42.310    36942871.666   192371195.8030         10.124          38.290    36942867.149   144971720.9770          7.618          46.745    36942869.021   148753584.4210          7.673          39.721  
C03  37048614.954   194691754.4740         39.440          42.052    37048615.009   192921829.1480         39.076          38.031    37048612.051   145386686.6930         29.435          46.516    37048613.922   149179375.3320         30.053          39.492  
C04  40259945.841   211567386.6230         24.469          36.628    40259945.941   209644046.2260         24.234          32.607    40259941.944   157988614.5140         18.235          40.465    40259945.350   162110042.9160         18.382          33.441  
C05  38076953.592   200095700.6680         11.226          40.305    38076953.664   198276648.4690         11.117          36.284    38076951.085   149422102.0880          8.363          44.164    38076953.546   153320060.0600          8.404          37.140  
C06  38648414.334   203098741.8310      -1692.827          39.169    38648414.415   201252389.2100      -1677.446          35.148    38648411.534   151664631.3900      -1264.149          42.911    38648414.314   155621088.8430      -1297.348          35.887  
C07  36328917.646   190909723.6300        -33.980          44.173    36328917.694   189174180.4400        -33.676          40.152    36328913.636   142562438.7550        -25.389          48.489    36328915.265   146281452.3360        -26.176          41.466  
C08  39162583.494   205800716.3210       2037.763          38.502    39162583.580   203929800.2710       2019.228          34.482    39162580.113   153682337.1870       1521.678          41.823    39162583.054   157691429.7950       1561.122          34.799  
C09  37410627.084   196594134.8070      -1548.295          40.839    37410627.150   194806915.0580      -1534.226          36.819    37410626.382   146807303.6860      -1156.214          44.653    37410628.629   150637050.3880      -1186.549          37.630  
C10  36475999.418   191682643.7330         67.370          44.224    36475999.465   189940073.9980         66.753          40.203    36475998.674   143139632.1790         50.295          48.696    36476000.292   146873703.0240         51.484          41.672  
C13  39521524.002   207686957.8870       1841.122          38.007    39521524.094   205798894.1540       1824.374          33.986    39521527.960   155090922.8110       1374.834          41.203    39521531.113   159136760.2770       1410.433          34.179  
C16  38967189.017   204773910.5740      -1681.098          38.639    38967189.104   202912329.1130      -1665.824          34.619    38967191.488   152915589.5800      -1255.392          41.977    38967194.479   156904679.8730      -1288.382          34.953  
C23  26127291.289   137299783.6690      -2882.837          40.875    26127291.392   136051603.2800      -2856.642          36.855    26127291.693   102529057.6480      -2152.805          45.072    26127295.220   105203714.5140      -2209.299          38.049  
C27  21552517.172   113259216.6580        308.606          49.591    21552517.217   112229587.1820        305.796          45.570    21552517.348    84576687.0750        230.440          54.198    21552518.880    86783029.2650        236.334          47.174  
C28  23120281.709   121497866.2500      -2297.585          46.682    23120281.769   120393339.8810      -2276.704          42.662    23120281.944    90728925.1740      -1715.747          49.713    23120283.995    93095758.4390      -1760.667          42.689  
C30  24304718.658   127722110.8680       2581.868          44.501    24304718.741   126561000.3330       2558.388          40.480    24304718.986    95376899.6850       1927.995          48.093    24304721.851    97864981.1820       1978.084          41.069  
C37  22372781.625   117569733.6520      -1238.677          48.894    22372781.672   116500917.6410      -1227.421          44.874    22372781.812    87795579.5870       -925.000          52.178    22372783.452    90085892.4510       -949.261          45.155  
C38  38500473.657   202321313.2120       1885.911          39.725    38500473.730   200482028.1680       1868.758          35.704    38500473.942   151084096.4110       1408.286          43.654    38500476.428   155025410.6540       1444.814          36.630  
C39  39953710.727   209958108.0990      -1660.383          37.015    39953710.831   208049397.4870      -1645.299          32.995    39953711.132   156786897.3160      -1239.929          40.658    39953714.667   160876976.0580      -1272.568          33.634  
C40  36935648.987   194098114.8980       -163.440          42.420    36935649.041   192333586.3020       -161.960          38.399    36935649.198   144943396.6640       -122.065          46.812    36935651.034   148724521.3570       -125.393          39.789  
C46  22479050.405   118128176.8240       1832.177          48.278    22479050.459   117054284.0300       1815.515          44.257    22479050.614    88212598.7580       1368.169          51.110    22479052.436    90513789.6480       1403.726          44.087  
C59  38644438.125   203077850.5350          4.301          39.457    38644438.200   201231687.8700          4.254          35.436    38644438.417   151649043.0850          3.187          43.360    38644440.968   155605094.8100          3.049          36.337  
C60  36997385.107   194422539.6100         46.040          42.257    36997385.162   192655061.6910         45.616          38.237    36997385.323   145185661.8500         34.365          46.704    36997387.206   148973106.3140         35.118          39.680  
E01  26252602.723   137958313.9770      -1408.042          45.658    26252606.204   103020806.1980      -1051.746          48.608    26252605.698   105708306.5200      -1079.149          48.584  
E09  27564276.851   144851185.6940      -2122.476          43.154    27564283.147   108168078.3320      -1585.284          46.216    27564281.323   110989851.5530      -1626.603          46.193  
E10  26347959.804   138459414.5160       2960.315          45.424    26347963.861   103395004.3590       2210.347          48.271    26347963.067   106092265.5130       2268.040          48.248  
E12  24569912.096   129115727.1380       2262.109          48.432    24569909.033    96417557.2410       1689.050          51.083    24569914.263    98932821.1590       1733.134          51.060  
E24  25963500.345   136439070.7010       1789.990          46.385    25963502.578   101886301.4280       1336.454          49.241    25963503.323   104544211.0140       1371.345          49.217  
E26  27757237.721   145865211.7420      -2493.604          43.501    27757239.644   108925294.2440      -1862.452          46.372    27757241.534   111766835.2010      -1910.998          46.348  
E31  23900916.652   125600136.9940        395.813          50.020    23900921.499    93792312.6830        295.417          53.163    23900918.508    96239058.5340        303.142          53.139  
E33  24074425.878   126511933.3820       -478.793          49.990    24074426.152    94473181.1990       -357.707          52.453    24074427.785    96937707.5120       -367.019          52.429  
G01  20757076.777   109079144.6060       -634.459          49.563    20757076.777   109079144.6060       -634.459          46.563    20757076.777   109079144.6060       -634.459          51.063    20757079.532    84996732.1730       -494.535          45.932    20757079.532    84996732.1730       -494.535          47.432    20757080.155    81455200.8240       -473.962          50.402  
G07  21200109.117   111407291.7660      -2554.200          48.419    21200109.117   111407291.7660      -2554.200          45.419    21200109.117   111407291.7660      -2554.200          49.919    21200109.016    86810859.3610      -1990.452          45.127    21200109.016    86810859.3610      -1990.452          46.627    21200108.993    83193736.4630      -1907.553          49.597  
G13  23770725.088   124915940.4340       -354.704          43.131    23770725.088   124915940.4340       -354.704          40.131    23770725.088   124915940.4340       -354.704          44.631    23770726.709    97337071.3120       -276.635          40.424    23770726.709    97337071.3120       -276.635          41.924    23770727.076    93281354.5600       -265.161          44.894  
G14  21078280.112   110767079.1950       1266.362          49.736    21078280.112   110767079.1950       1266.362          46.736    21078280.112   110767079.1950       1266.362          51.236    21078280.448    86311995.8110        986.633          45.988    21078280.448    86311995.8110        986.633          47.488    21078280.524    82715659.6280        945.493          50.457  
G17  20978172.137   110241008.1290        664.320          49.751    20978172.137   110241008.1290        664.320          46.751    20978172.137   110241008.1290        664.320          51.251    20978171.848    85902067.6880        517.512          45.999    20978171.848    85902067.6880        517.512          47.499    20978171.783    82322811.2760        495.919          50.468  
G19  23250819.294   122183827.7130       2518.860          45.001    23250819.294   122183827.7130       2518.860          42.001    23250819.294   122183827.7130       2518.860          46.501    23250819.536    95208152.0400       1962.523          42.083    23250819.536    95208152.0400       1962.523          43.583    23250819.591    91241140.1990       1880.703          46.553  
G21  22837188.926   120010196.0400      -2783.861          46.259    22837188.926   120010196.0400      -2783.861          43.259    22837188.926   120010196.0400      -2783.861          47.759    22837189.510    93514419.8090      -2169.455          43.430    22837189.510    93514419.8090      -2169.455          44.930    22837189.642    89617981.6040      -2079.107          47.900  
G30  20451778.542   107474795.0640       -428.403          50.236    20451778.542   107474795.0640       -428.403          47.236    20451778.542   107474795.0640       -428.403          51.736    20451780.900    83746589.8170       -333.947          48.426    20451780.900    83746589.8170       -333.947          49.926    20451781.434    80257147.7640       -320.059          52.896  
I02  37228466.299   146092382.3010        188.882          47.581  
I03  37299659.598   146371766.6940        -18.024          48.011  
I06  39805372.713   156204608.9510        -31.896          42.298  
I09  40023579.349   157060895.1980       -319.474          42.058  
J02  38987450.636   204880400.6310        976.674          45.255    38987450.636   204880400.6310        976.674          46.755    38987450.636   204880400.6310        976.674          45.255    38987453.410   152995094.3500        729.118          48.196    38987453.410   152995094.3500        729.118          48.196  
J03  39642762.429   208324092.1210       -535.695          46.438    39642762.429   208324092.1210       -535.695          47.938    39642762.429   208324092.1210       -535.695          46.438    39642764.621   155566682.6950       -400.213          49.837    39642764.621   155566682.6950       -400.213          49.837  
J04  38267841.089   201098800.7350        -98.824          41.250    38267841.089   201098800.7350        -98.824          42.750    38267841.089   201098800.7350        -98.824          41.250    38267844.734   150171160.2420        -74.236          44.183    38267844.734   150171160.2420        -74.236          44.183  
J07  37732922.383   198287809.4200         -3.900          45.507    37732922.383   198287809.4200         -3.900          47.007    37732922.383   198287809.4200         -3.900          45.507    37732923.774   148072049.5880         -3.133          48.287    37732923.774   148072049.5880         -3.133          48.287  
R12  20265623.393   108255291.9580      -1341.220          46.923  
R13  19818662.487   105830523.3900       1834.560          48.334  
R22  22025837.457   117575369.6910      -3770.413          43.018  
R23  19158415.397   102484578.5320       -130.343          49.174  
R24  21089635.617   112775720.0380       3256.283          45.211  
S22  38852196.938   204169627.8530         -0.505          41.330    38852196.938   152464332.4880         -0.377          42.378  
S23  40135518.128   210913502.9180         -1.755          39.071    40135518.128   157500343.0880         -1.311          40.078  
S26  37656483.521   197886118.9530          0.720          43.207    37656483.521   147772101.8160          0.538          44.422  
S27  38208109.973   200784930.1930        -12.598          42.333    38208109.973   149936798.5210         -9.408          43.516  
S28  36923236.426   194032885.7480         -8.544          44.743    36923236.426   144894687.4090         -6.380          46.408  
S30  38647012.256   203091376.8850          3.931          41.654    38647012.256   151659145.0770          2.936          42.857  
S32  36782571.436   193293687.3420         -2.561          45.264    36782571.436   144342688.6000         -1.913          46.726  
S34  36783441.855   193298261.2880         -0.256          45.208    36783441.855   144346104.2090         -0.191          46.694  
S37  37733763.929   198292231.7700         -4.533          43.106    37733763.929   148075367.8800         -3.385          44.286  
S43  36948865.564   194167568.1710         -8.932          44.620    36948865.564   144995261.9460         -6.670          46.326  
S44  36998169.465   194426660.8590         46.440          44.458    36998169.465   145188740.2520         34.679          46.204  
> 2023 01 08 11 30  0.0000000  0 64
C01  38980296.798   204842797.6640         36.301          38.966    38980296.876   202980590.0050         35.961          34.945    38980295.516   152967016.7920         27.080          42.599    38980298.192   156957449.9300         27.544          35.575  
C02  36942258.267   194132846.6620         10.666          42.312    36942258.321   192368002.3200         10.563          38.291    36942253.802   144969314.3620          7.948          46.746    36942255.653   148751115.1130          8.010          39.723  
C03  37046334.802   194679772.5830         39.812          42.056    37046334.856   192909956.1880         39.444          38.036    37046331.896   145377739.1880         29.712          46.521    37046333.744   149170194.5080         30.335          39.498  
C04  40258512.150   211559853.3580         24.385          36.631    40258512.248   209636581.4530         24.151          32.610    40258508.247   157982989.0460         18.172          40.466    40258511.604   162104270.8980         18.314          33.442  
C05  38076267.218   200092094.1940         12.077          40.305    38076267.289   198273074.7850         11.960          36.285    38076264.709   149419408.9540          8.998          44.164    38076267.143   153317296.7770          9.053          37.140  
C06  38745321.845   203607993.8350      -1702.789          39.024    38745321.927   201757011.6460      -1687.318          35.004    38745319.048   152044916.9660      -1271.589          42.660    38745321.852   156011294.8150      -1304.990          35.637  
C07  36330415.025   190917592.7110        -19.015          44.169    36330415.072   189181977.9860        -18.847          40.148    36330411.012   142568315.0250        -14.214          48.478    36330412.623   146287481.9740        -14.712          41.454  
C08  39046289.573   205189589.3890       2034.973          38.687    39046289.656   203324229.0550       2016.464          34.666    39046286.181   153225976.2140       1519.595          42.129    39046289.016   157223164.1750       1558.989          35.105  
C09  37499802.108   197062752.3640      -1576.256          40.689    37499802.174   195271272.4520      -1561.933          36.668    37499801.409   147157245.3580      -1177.094          44.497    37499803.677   150996120.8870      -1207.981          37.473  
C10  36471659.226   191659836.1780         84.182          44.223    36471659.272   189917473.7870         83.412          40.203    36471658.479   143122600.5720         62.849          48.692    36471660.079   146856227.1880         64.364          41.668  
C13  39416253.865   207133761.3590       1845.379          38.197    39416253.954   205250726.7020       1828.593          34.176    39416257.812   154677821.5560       1378.013          41.398    39416260.858   158712882.8950       1413.698          34.374  
C16  39063341.863   205279196.7730      -1688.150          38.484    39063341.951   203413021.7980      -1672.813          34.463    39063344.337   153292913.6780      -1260.660          41.740    39063347.353   157291847.1070      -1293.796          34.716  
C23  26293248.685   138171894.9040      -2932.031          40.446    26293248.790   136915786.2250      -2905.389          36.426    26293249.094   103180309.5240      -2189.543          44.803    26293252.668   105871955.3830      -2247.012          37.780  
C27  21538804.664   113187157.2780        171.720          49.672    21538804.708   112158182.8910        170.155          45.652    21538804.837    84522876.5090        128.219          54.258    21538806.349    86727815.0260        131.446          47.234  
C28  23253383.714   122197321.3910      -2365.019          46.464    23253383.775   121086436.3330      -2343.526          42.443    23253383.953    91251245.5540      -1766.105          49.475    23253386.042    93631704.4190      -1812.346          42.451  
C30  24159673.421   126959895.1130       2498.230          44.777    24159673.501   125805713.8320       2475.511          40.757    24159673.734    94807712.6520       1865.539          48.397    24159676.473    97280946.3010       1914.002          41.374  
C37  22447003.425   117959771.7840      -1362.091          48.902    22447003.473   116887409.9720      -1349.714          44.881    22447003.613    88086841.8280      -1017.161          51.905    22447005.256    90384752.8230      -1043.830          44.881  
C38  38393245.081   201757824.6740       1869.451          39.897    38393245.151   199923662.2660       1852.448          35.876    38393245.355   150663309.5550       1395.996          43.815    38393247.756   154593647.0960       1432.205          36.791  
C39  40048278.400   210455064.2570      -1653.550          36.820    40048278.504   208541835.8600      -1638.529          32.799    40048278.807   157158000.9330      -1234.828          40.571    40048282.361   161257760.5620      -1267.344          33.548  
C40  36944310.699   194143632.8010       -140.604          42.385    36944310.752   192378690.4080       -139.331          38.364    36944310.907   144977387.3140       -105.013          46.786    36944312.726   148759398.7920       -107.897          39.762  
C46  22376959.611   117591687.1110       1742.827          48.628    22376959.662   116522671.5060       1726.978          44.607    22376959.813    87811973.3510       1301.447          51.365    22376961.573    90102713.3930       1335.264          44.342  
C59  38644149.637   203076335.0720          4.881          39.457    38644149.710   201230186.1890          4.828          35.436    38644149.925   151647911.4230          3.620          43.361    38644152.442   155603933.7600          3.490          36.337  
C60  36994739.268   194408636.0090         46.052          42.266    36994739.323   192641284.4890         45.627          38.245    36994739.481   145175279.3000         34.373          46.711    36994741.342   148962453.0060         35.124          39.687  
E01  26334289.101   138387578.6440      -1454.967          45.518    26334292.594   103341360.9380      -1086.797          48.414    26334292.086   106037223.5630      -1115.114          48.390  
E09  27685886.480   145490247.4240      -2137.897          42.861    27685892.864   108645299.4040      -1596.814          46.077    27685891.030   111479521.9110      -1638.432          46.054  
E10  26180297.858   137578347.3990       2911.587          45.710    26180301.737   102737065.3270       2173.965          48.669    26180300.964   105417162.7730       2230.709          48.646  
E12  24443601.498   128451961.7310       2161.571          48.760    24443598.340    95921888.6430       1613.976          51.388    24443603.581    98424222.0320       1656.101          51.365  
E24  25861146.677   135901200.1410       1794.733          46.562    25861148.789   101484645.3140       1339.997          49.338    25861149.548   104132076.8600       1374.980          49.314  
E26  27901408.998   146622836.0900      -2557.415          43.163    27901410.983   109491052.4410      -1910.118          46.216    27901412.866   112347352.3360      -1959.905          46.192  
E31  23879420.524   125487174.5370        356.198          50.016    23879425.337    93707957.7360        265.833          53.251    23879422.350    96152503.0080        272.786          53.227  
E33  24105752.203   126676554.4910       -618.834          49.955    24105752.465    94596112.5930       -462.286          52.360    24105754.099    97063845.8070       -474.326          52.336  
G01  20799572.170   109302459.4650       -854.404          49.399    20799572.170   109302459.4650       -854.404          46.399    20799572.170   109302459.4650       -854.404          50.899    20799574.921    85170743.7660       -665.924          45.849    20799574.921    85170743.7660       -665.924          47.349    20799575.543    81621961.9370       -638.211          50.318  
G07  21349972.458   112194828.0610      -2695.505          48.145    21349972.458   112194828.0610      -2695.505          45.145    21349972.458   112194828.0610      -2695.505          49.645    21349972.411    87424523.7850      -2100.569          44.817    21349972.411    87424523.7850      -2100.569          46.317    21349972.401    83781831.4880      -2013.084          49.287  
G13  23795561.157   125046455.1170       -515.567          43.080    23795561.157   125046455.1170       -515.567          40.080    23795561.157   125046455.1170       -515.567          44.580    23795562.762    97438771.1310       -401.989          40.398    23795562.762    97438771.1310       -401.989          41.898    23795563.125    93378816.9010       -385.293          44.867  
G14  21007424.924   110394733.4970       1214.721          49.968    21007424.924   110394733.4970       1214.721          46.968    21007424.924   110394733.4970       1214.721          51.468    21007425.209    86021856.5140        946.394          46.156    21007425.209    86021856.5140        946.394          47.656    21007425.274    82437609.5140        906.930          50.626  
G17  20943280.846   110057653.8330        558.084          49.899    20943280.846   110057653.8330        558.084          46.899    20943280.846   110057653.8330        558.084          51.399    20943280.515    85759194.3830        434.730          46.120    20943280.515    85759194.3830        434.730          47.620    20943280.440    82185891.0630        416.586          50.589  
G19  23109203.422   121439633.4620       2441.335          45.311    23109203.422   121439633.4620       2441.335          42.311    23109203.422   121439633.4620       2441.335          46.811    23109203.530    94628260.9650       1902.117          42.488    23109203.530    94628260.9650       1902.117          43.988    23109203.554    90685411.3710       1822.814          46.957  
G21  22999256.119   120861864.1230      -2893.301          45.967    22999256.119   120861864.1230      -2893.301          42.967    22999256.119   120861864.1230      -2893.301          47.467    22999256.751    94178057.0830      -2254.742          43.211    22999256.751    94178057.0830      -2254.742          44.711    22999256.894    90253967.2840      -2160.843          47.681  
G30  20481735.865   107632222.0210       -621.502          50.159    20481735.865   107632222.0210       -621.502          47.159    20481735.865   107632222.0210       -621.502          51.659    20481738.214    83869260.2140       -484.416          48.299    20481738.214    83869260.2140       -484.416          49.799    20481738.745    80374706.9040       -464.260          52.769  
I02  37213956.471   146035444.2150        188.612          47.617  
I03  37300897.562   146376625.9300        -16.460          48.005  
I06  39807708.022   156213775.1780        -32.721          42.295  
I09  40047204.260   157153605.7930       -302.492          42.034  
J02  38931645.329   204587142.1640        977.440          45.262    38931645.329   204587142.1640        977.440          46.762    38931645.329   204587142.1640        977.440          45.262    38931648.073   152776102.7550        729.687          48.194    38931648.073   152776102.7550        729.687          48.194  
J03  39673244.478   208484276.7520       -532.661          46.440    39673244.478   208484276.7520       -532.661          47.940    39673244.478   208484276.7520       -532.661          46.440    39673246.642   155686301.2010       -397.949          49.836    39673246.642   155686301.2010       -397.949          49.836  
J04  38273251.682   201127234.9570        -92.300          41.332    38273251.682   201127234.9570        -92.300          42.832    38273251.682   201127234.9570        -92.300          41.332    38273255.224   150192393.9930        -69.363          44.239    38273255.224   150192393.9930        -69.363          44.239  
J07  37733121.730   198288857.4480         -3.834          45.507    37733121.730   198288857.4480         -3.834          47.007    37733121.730   198288857.4480         -3.834          45.507    37733123.087   148072832.3390         -3.087          48.287    37733123.087   148072832.3390         -3.087          48.287  
R12  20345742.729   108683274.9030      -1512.853          46.739  
R13  19719321.425   105300048.6010       1699.630          48.353  
R14  23443248.284   124965636.7540       3673.314          38.720  
R22  22239898.572   118718040.8590      -3846.168          42.412  
R23  19172679.174   102560880.3720       -377.918          49.009  
R24  20911487.079   111823081.8300       3092.524          45.586  
S22  38852197.621   204169632.0340         -0.512          41.330    38852197.621   152464335.6100         -0.382          42.378  
S23  40135587.015   210913865.5630         -1.726          39.071    40135587.015   157500613.8950         -1.289          40.078  
S26  37656424.271   197885808.0060          0.665          43.207    37656424.271   147771869.6150          0.497          44.422  
S27  38208807.971   200788598.6590        -12.734          42.333    38208807.971   149939537.9590         -9.509          43.516  
S28  36923698.382   194035313.6990         -8.505          44.743    36923698.382   144896500.4890         -6.351          46.408  
S30  38646744.201   203089968.8120          4.518          41.654    38646744.201   151658093.5940          3.374          42.857  
S32  36782700.259   193294364.6660         -2.540          45.264    36782700.259   144343194.3940         -1.897          46.726  
S34  36783439.873   193298251.2250         -0.264          45.208    36783439.873   144346096.6940         -0.197          46.694  
S37  37733999.927   198293472.3980         -4.486          43.106    37733999.927   148076294.3230         -3.350          44.286  
S43  36949370.855   194170223.8690         -9.389          44.621    36949370.855   144997245.0970         -7.012          46.326  
S44  36995500.440   194412635.4230         46.453          44.466    36995500.440   145178266.7120         34.689          46.211  
> 2023 01 08 11 35  0.0000000  0 63
C01  38978185.825   204831705.0500         36.640          38.969    38978185.902   202969598.2390         36.297          34.948    38978184.539   152958733.3630         27.333          42.604    38978187.178   156948950.5620         27.801          35.580  
C02  36941619.509   194129490.3350         11.104          42.313    36941619.563   192364676.5080         10.997          38.293    36941615.042   144966808.0230          8.275          46.748    36941616.870   148748543.4800          8.343          39.724  
C03  37044033.807   194667681.1620         40.162          42.061    37044033.860   192897974.6930         39.791          38.041    37044030.898   145368709.8910         29.974          46.526    37044032.723   149160929.7590         30.602          39.503  
C04  40257083.228   211552345.1600         24.289          36.633    40257083.325   209629141.5200         24.056          32.612    40257079.320   157977382.2980         18.101          40.467    40257082.625   162098518.0900         18.237          33.443  
C05  38075532.101   200088231.5800         12.921          40.306    38075532.171   198269247.2910         12.797          36.285    38075529.588   149416524.5470          9.629          44.164    38075531.995   153314337.2340          9.696          37.140  
C06  38842740.389   204119931.3470      -1710.760          38.877    38842740.472   202264295.1780      -1695.217          34.856    38842737.595   152427207.9550      -1277.542          42.402    38842740.423   156403558.5170      -1311.107          35.379  
C07  36331060.562   190920985.3480         -4.155          44.165    36331060.609   189185339.7840         -4.122          40.145    36331056.547   142570848.4960         -3.117          48.469    36331058.139   146290081.6120         -3.328          41.445  
C08  38930226.763   204579676.9060       2029.683          38.867    38930226.843   202719861.2450       2011.222          34.847    38930223.358   152770522.1320       1515.645          42.444    38930226.092   156755829.0940       1554.940          35.420  
C09  37590520.800   197539481.9450      -1602.393          40.537    37590520.867   195743668.1250      -1587.833          36.516    37590520.103   147513244.7110      -1196.613          44.353    37590522.392   151361407.0930      -1228.016          37.330  
C10  36466357.501   191631975.7440        101.038          44.224    36466357.547   189889866.6330        100.115          40.203    36466356.753   143101795.7110         75.436          48.691    36466358.334   146834879.6680         77.278          41.668  
C13  39310807.094   206579636.5740       1847.324          38.379    39310807.180   204701639.4300       1830.520          34.358    39310811.029   154264027.1200       1379.466          41.633    39310813.971   158288294.2420       1415.192          34.609  
C16  39159837.583   205786284.8040      -1693.143          38.323    39159837.672   203915499.9340      -1677.761          34.303    39159840.060   153671583.3010      -1264.389          41.525    39159843.100   157680394.9710      -1297.631          34.501  
C27  21532831.328   113155767.5010         37.540          49.712    21532831.371   112127078.4780         37.194          45.692    21532831.499    84499436.0990         28.020          54.286    21532832.991    86703763.2040         28.631          47.262  
C28  23390144.309   122916002.5190      -2425.806          46.230    23390144.371   121798583.9910      -2403.760          42.209    23390144.552    91787923.0030      -1811.498          49.279    23390146.680    94182381.9930      -1858.932          42.255  
C30  24019486.405   126223209.3670       2411.732          45.047    24019486.482   125075725.2470       2389.800          41.026    24019486.705    94257590.2330       1800.947          48.612    24019489.325    96716473.3440       1847.728          41.588  
C37  22528260.412   118386780.0340      -1485.090          48.843    22528260.460   117310536.3280      -1471.594          44.822    22528260.601    88405711.6220      -1109.011          51.645    22528262.250    90711940.9350      -1138.081          44.622  
C38  38287019.358   201199606.1260       1850.794          40.068    38287019.426   199370518.4450       1833.961          36.047    38287019.624   150246458.0790       1382.064          43.965    38287021.940   154165921.5700       1417.913          36.941  
C39  40142396.258   210949656.6630      -1644.666          36.624    40142396.362   209031931.9690      -1629.726          32.604    40142396.667   157527339.4100      -1228.195          40.479    40142400.237   161636733.8890      -1260.548          33.455  
C40  36951668.603   194182299.1610       -117.786          42.354    36951668.655   192417005.2590       -116.721          38.334    36951668.809   145006261.5520        -87.974          46.763    36951670.608   148789026.3480        -90.416          39.739  
C46  22280147.760   117082938.3590       1647.249          48.861    22280147.810   116018547.7510       1632.269          44.840    22280147.955    87432063.5930       1230.074          51.634    22280149.658    89712893.1780       1262.029          44.610  
C59  38643827.769   203074644.2040          5.460          39.457    38643827.841   201228510.6970          5.401          35.437    38643828.053   151646648.7770          4.052          43.361    38643830.536   155602638.3110          3.930          36.337  
C60  36992093.161   194394731.0000         46.041          42.274    36992093.214   192627505.8930         45.617          38.253    36992093.371   145164895.7000         34.365          46.717    36992095.209   148951798.6210         35.114          39.693  
E01  26418696.909   138831144.5210      -1503.394          45.374    26418700.413   103672595.1540      -1122.970          48.199    26418699.904   106377098.6760      -1152.229          48.176  
E09  27808180.229   146132904.2350      -2146.501          42.569    27808186.702   109125205.1150      -1603.254          45.925    27808184.858   111971946.9420      -1645.037          45.902  
E10  26015581.245   136712757.9940       2857.172          45.995    26015584.955   102090684.2920       2133.337          48.966    26015584.201   104753919.5460       2189.020          48.942  
E12  24323164.537   127819062.3980       2056.396          49.160    24323161.290    95449269.3580       1535.438          51.678    24323166.541    97939273.5080       1575.515          51.654  
E24  25758579.911   135362209.7010       1797.422          46.739    25758581.905   101082152.9140       1342.006          49.427    25758582.677   103719084.6040       1377.041          49.403  
E26  28049049.817   147398693.0260      -2615.202          42.809    28049051.864   110070425.8880      -1953.285          46.048    28049053.740   112941839.9010      -2004.197          46.024  
E31  23860278.786   125386584.4670        313.312          50.012    23860283.565    93632841.9060        233.805          53.330    23860280.582    96075427.6190        239.923          53.307  
E33  24144997.851   126882791.8780       -756.173          49.885    24144998.103    94750121.0670       -564.848          52.248    24144999.739    97221871.8890       -579.563          52.224  
G01  20854526.771   109591247.8300      -1070.798          49.205    20854526.771   109591247.8300      -1070.798          46.205    20854526.771   109591247.8300      -1070.798          50.705    20854529.523    85395773.6580       -834.547          45.752    20854529.523    85395773.6580       -834.547          47.252    20854530.145    81837615.5830       -799.808          50.221  
G07  21507688.075   113023628.2710      -2829.253          47.852    21507688.075   113023628.2710      -2829.253          44.852    21507688.075   113023628.2710      -2829.253          49.352    21507688.087    88070341.8900      -2204.799          44.527    21507688.087    88070341.8900      -2204.799          46.027    21507688.090    84400740.4530      -2112.973          48.996  
G13  23829436.761   125224472.7670       -671.302          43.002    23829436.761   125224472.7670       -671.302          40.002    23829436.761   125224472.7670       -671.302          44.502    23829438.358    97577486.2200       -523.347          40.358    23829438.358    97577486.2200       -523.347          41.858    23829438.719    93511752.2030       -501.596          44.828  
G14  20939632.834   110038484.4480       1159.014          50.130    20939632.834   110038484.4480       1159.014          47.130    20939632.834   110038484.4480       1159.014          51.630    20939633.071    85744260.0520        902.985          46.332    20939633.071    85744260.0520        902.985          47.832    20939633.124    82171579.6140        865.329          50.801  
G17  20914349.387   109905618.6260        455.565          50.001    20914349.387   109905618.6260        455.565          47.001    20914349.387   109905618.6260        455.565          51.501    20914349.017    85640725.5500        354.844          46.232    20914349.017    85640725.5500        354.844          47.732    20914348.934    82072358.4650        340.028          50.702  
G19  22972048.607   120718882.1060       2362.632          45.600    22972048.607   120718882.1060       2362.632          42.600    22972048.607   120718882.1060       2362.632          47.100    22972048.588    94066637.0510       1840.792          42.845    22972048.588    94066637.0510       1840.792          44.345    22972048.584    90147188.5660       1764.045          47.315  
G21  23167314.063   121745013.7670      -2993.763          45.661    23167314.063   121745013.7670      -2993.763          42.661    23167314.063   121745013.7670      -2993.763          47.161    23167314.745    94866225.4320      -2333.035          42.924    23167314.745    94866225.4320      -2333.035          44.424    23167314.899    90913461.9070      -2235.875          47.393  
G30  20522689.010   107847432.3650       -813.495          50.105    20522689.010   107847432.3650       -813.495          47.105    20522689.010   107847432.3650       -813.495          51.605    20522691.351    84036956.6150       -634.024          48.132    20522691.351    84036956.6150       -634.024          49.632    20522691.881    80535415.9610       -607.635          52.602  
I02  37199471.061   145978601.9570        188.212          47.654  
I03  37302014.275   146381009.3730        -14.884          48.000  
I06  39810102.965   156223175.4660        -33.529          42.293  
I09  40069519.654   157241177.6900       -285.308          42.010  
J02  38875831.789   204293840.4360        976.950          45.269    38875831.789   204293840.4360        976.950          46.769    38875831.789   204293840.4360        976.950          45.269    38875834.503   152557078.8570        729.318          48.191    38875834.503   152557078.8570        729.318          48.191  
J03  39703526.802   208643411.8170       -528.705          46.439    39703526.802   208643411.8170       -528.705          47.939    39703526.802   208643411.8170       -528.705          46.439    39703528.938   155805135.9390       -394.998          49.834    39703528.938   155805135.9390       -394.998          49.834  
J04  38278304.938   201153791.3600        -86.306          41.417    38278304.938   201153791.3600        -86.306          42.917    38278304.938   201153791.3600        -86.306          41.417    38278308.377   150212225.4780        -64.886          44.292    38278308.377   150212225.4780        -64.886          44.292  
J07  37733317.002   198289884.0640         -3.767          45.507    37733317.002   198289884.0640         -3.767          47.007    37733317.002   198289884.0640         -3.767          45.507    37733318.325   148073599.1030         -3.039          48.287    37733318.325   148073599.1030         -3.039          48.287  
R12  20435530.826   109162906.5750      -1685.434          46.561  
R13  19627858.683   104811643.5150       1554.123          48.294  
R14  23235897.053   123860341.8630       3693.009          39.345  
R22  22457853.733   119881498.6870      -3909.104          41.780  
R23  19200664.252   102710581.8880       -619.482          48.799  
R24  20742754.813   110920796.4780       2920.739          45.916  
S22  38852198.362   204169636.5270         -0.518          41.330    38852198.362   152464338.9650         -0.387          42.378  
S23  40135653.629   210914216.2710         -1.697          39.071    40135653.629   157500875.7870         -1.267          40.078  
S26  37656367.843   197885511.8930          0.610          43.207    37656367.843   147771648.4920          0.455          44.422  
S27  38209513.199   200792305.1260        -12.864          42.333    38209513.199   149942305.7760         -9.606          43.516  
S28  36924157.742   194037728.0190         -8.462          44.743    36924157.742   144898303.3910         -6.319          46.408  
S30  38646442.403   203088383.4260          5.102          41.655    38646442.403   151656909.7010          3.810          42.858  
S32  36782827.609   193295034.2510         -2.518          45.264    36782827.609   144343694.4080         -1.880          46.726  
S34  36783438.137   193298242.4610         -0.273          45.208    36783438.137   144346090.1500         -0.204          46.694  
S37  37734232.914   198294697.2110         -4.437          43.106    37734232.914   148077208.9560         -3.313          44.286  
S43  36949901.894   194173014.8740         -9.842          44.622    36949901.894   144999329.2890         -7.350          46.327  
S44  36992831.058   194398608.1140         46.444          44.474    36992831.058   145167791.7730         34.682          46.217  
> 2023 01 08 11 40  0.0000000  0 65
C01  38976055.718   204820511.8900         36.960          38.972    38976055.794   202958506.8410         36.615          34.951    38976054.427   152950374.8510         27.573          42.609    38976057.029   156940374.1540         28.044          35.585  
C02  36940955.682   194126002.2710         11.535          42.315    36940955.735   192361220.1570         11.425          38.295    36940951.212   144964203.3110          8.597          46.749    36940953.018   148745870.9080          8.672          39.725  
C03  37041713.169   194655486.5260         40.492          42.067    37041713.222   192885890.9210         40.118          38.046    37041710.257   145359603.5180         30.220          46.531    37041712.058   149151585.9240         30.852          39.508  
C04  40255659.761   211544865.6370         24.182          36.636    40255659.856   209621729.9990         23.949          32.615    40255655.847   157971796.9620         18.020          40.468    40255659.102   162092787.2540         18.152          33.445  
C05  38074748.658   200084115.0200         13.758          40.306    38074748.727   198265168.1570         13.626          36.285    38074746.142   149413450.5040         10.253          44.164    38074748.522   153311183.1100         10.334          37.141  
C06  38940555.656   204633953.6680      -1716.719          38.728    38940555.740   202773644.5650      -1701.122          34.707    38940552.865   152811055.7820      -1281.993          42.144    38940555.715   156797419.6740      -1315.682          35.120  
C07  36330861.965   190919942.0380         10.540          44.163    36330862.011   189184305.9620         10.439          40.143    36330857.948   142570069.4100          7.856          48.462    36330859.521   146289282.2800          7.930          41.439  
C08  38814537.530   203971727.5370       2021.903          39.044    38814537.606   202117438.7040       2003.513          35.023    38814534.114   152316534.0120       1509.836          42.757    38814536.748   156289998.2060       1548.983          35.734  
C09  37682677.510   198023768.3630      -1626.654          40.383    37682677.577   196223551.9350      -1611.874          36.363    37682676.815   147874887.1560      -1214.731          44.218    37682679.127   151732483.6000      -1246.613          37.194  
C10  36460093.456   191599058.2930        117.878          44.226    36460093.502   189857248.4350        116.801          40.205    36460092.706   143077214.5070         88.011          48.694    36460094.267   146809657.2940         90.179          41.670  
C13  39205315.673   206025277.1090       1846.958          38.555    39205315.756   204152319.6120       1830.158          34.534    39205319.595   153850057.4350       1379.193          41.900    39205322.436   157863525.7590       1414.915          34.876  
C16  39256558.104   206294554.1890      -1696.061          38.157    39256558.193   204419148.6850      -1680.652          34.136    39256560.583   154051135.1040      -1266.569          41.339    39256563.646   158069848.0340      -1299.877          34.315  
C27  21534430.740   113164172.7730        -93.520          49.703    21534430.783   112135407.3410        -92.675          45.682    21534430.909    84505712.7710        -69.850          54.278    21534432.384    86710203.6880        -71.794          47.254  
C28  23530186.868   123651930.4690      -2480.052          45.982    23530186.931   122527821.6800      -2457.513          41.961    23530187.116    92337479.5710      -1852.008          49.127    23530189.284    94746274.6580      -1900.506          42.103  
C30  23884311.988   125512864.8840       2322.688          45.303    23884312.061   124371838.4590       2301.565          41.282    23884312.275    93727138.2350       1734.453          48.777    23884314.782    96172183.9210       1779.503          41.753  
C36  26154599.792   137443281.4160       3017.370          40.735    26154599.912   136193796.4170       2989.929          36.714    26154600.261   102636214.8030       2253.201          44.988    26154604.353   105313664.8000       2311.717          37.965  
C37  22616516.605   118850569.3190      -1607.245          48.640    22616516.654   117770109.3450      -1592.639          44.619    22616516.795    88752047.7720      -1200.231          51.397    22616518.453    91067311.9070      -1231.685          44.374  
C38  38181921.059   200647312.1780       1829.971          40.237    38181921.124   198823245.3640       1813.327          36.216    38181921.315   149834030.8170       1366.514          44.110    38181923.551   153742735.6600       1401.961          37.087  
C39  40235947.326   211441270.6140      -1633.736          36.431    40235947.431   209519076.6990      -1618.896          32.410    40235947.736   157894453.7180      -1220.034          40.376    40235951.320   162013425.0360      -1252.184          33.353  
C40  36957725.994   194214131.2960        -95.065          42.328    36957726.046   192448548.0130        -94.206          38.308    36957726.198   145030032.3110        -71.007          46.743    36957727.977   148813417.2930        -73.009          39.719  
C46  22188968.423   116603788.5960       1545.519          48.924    22188968.471   115543753.9030       1531.463          44.904    22188968.611    87074256.9760       1154.106          51.925    22188970.261    89345752.6900       1184.080          44.902  
C59  38643472.658   203072778.6510          6.035          39.458    38643472.729   201226662.1090          5.972          35.437    38643472.938   151645255.6840          4.481          43.361    38643475.387   155601209.0150          4.369          36.338  
C60  36989448.029   194380831.1260         46.009          42.283    36989448.082   192613732.3860         45.585          38.262    36989448.237   145154515.9350         34.341          46.724    36989450.052   148941148.1730         35.087          39.700  
E01  26505907.959   139289441.5350      -1553.184          45.223    26505911.474   104014829.8930      -1160.161          47.970    26505910.964   106728261.2830      -1190.389          47.946  
E09  27930770.653   146777120.0930      -2148.353          42.281    27930777.214   109606275.0540      -1604.652          45.752    27930775.360   112465566.5720      -1646.470          45.728  
E10  25854130.998   135864333.3450       2797.200          46.277    25854134.548   101457121.0600       2088.559          49.169    25854133.812   104103828.5040       2143.073          49.145  
E12  24208856.836   127218372.4610       1946.906          49.557    24208853.508    95000702.5180       1453.679          51.963    24208858.768    97479004.8870       1491.622          51.939  
E24  25655923.553   134822748.4180       1797.839          46.916    25655925.433   100679308.8980       1342.319          49.514    25655926.218   103305731.5620       1377.362          49.490  
E26  28199816.250   148190975.2060      -2666.970          42.451    28199818.355   110662064.9500      -1991.958          45.856    28199820.224   113548913.0520      -2043.877          45.832  
E31  23843680.168   125299358.5750        267.088          50.010    23843684.915    93567705.8160        199.286          53.399    23843681.935    96008592.3120        204.504          53.375  
E33  24191996.177   127129769.8310       -890.381          49.768    24191996.423    94934552.6790       -665.072          52.120    24191998.060    97411114.7580       -682.401          52.097  
G01  20921709.897   109944297.4570      -1282.672          49.003    20921709.897   109944297.4570      -1282.672          46.003    20921709.897   109944297.4570      -1282.672          50.503    20921712.654    85670877.2430       -999.647          45.643    20921712.654    85670877.2430       -999.647          47.143    20921713.278    82101256.5140       -958.031          50.113  
G06  24347257.124   127945633.8520       3805.868          41.094    24347257.124   127945633.8520       3805.868          38.094    24347257.124   127945633.8520       3805.868          42.594    24347261.903    99697882.8560       2965.273          39.467    24347261.903    99697882.8560       2965.273          40.967    24347262.984    95543801.4450       2841.646          43.936  
G07  21672811.560   113891357.0200      -2955.001          47.520    21672811.560   113891357.0200      -2955.001          44.520    21672811.560   113891357.0200      -2955.001          49.020    21672811.636    88746493.9040      -2302.796          44.293    21672811.636    88746493.9040      -2302.796          45.793    21672811.653    85048719.4110      -2206.889          48.762  
G13  23872040.072   125448354.7070       -821.249          42.900    23872040.072   125448354.7070       -821.249          39.900    23872040.072   125448354.7070       -821.249          44.400    23872041.666    97751939.6880       -640.195          40.306    23872041.666    97751939.6880       -640.195          41.806    23872042.027    93678936.7780       -613.577          44.776  
G14  20875141.961   109699583.3750       1099.034          50.212    20875141.961   109699583.3750       1099.034          47.212    20875141.961   109699583.3750       1099.034          51.712    20875142.152    85480181.4820        856.247          46.515    20875142.152    85480181.4820        856.247          48.015    20875142.195    81918504.3590        820.539          50.984  
G17  20891158.848   109783752.1090        356.992          50.064    20891158.848   109783752.1090        356.992          47.064    20891158.848   109783752.1090        356.992          51.564    20891158.442    85545764.7750        278.033          46.334    20891158.442    85545764.7750        278.033          47.834    20891158.350    81981354.4220        266.417          50.804  
G19  22839413.986   120021884.4160       2283.034          45.871    22839413.986   120021884.4160       2283.034          42.871    22839413.986   120021884.4160       2283.034          47.371    22839413.847    93523522.4590       1778.770          43.137    22839413.847    93523522.4590       1778.770          44.637    22839413.815    89626703.8560       1704.608          47.606  
G21  23340848.269   122656941.3170      -3085.190          45.338    23340848.269   122656941.3170      -3085.190          42.338    23340848.269   122656941.3170      -3085.190          46.838    23340849.003    95576818.1130      -2404.287          42.533    23340849.003    95576818.1130      -2404.287          44.033    23340849.169    91594446.5130      -2304.161          47.003  
G30  20574550.564   108119966.7330      -1003.535          50.094    20574550.564   108119966.7330      -1003.535          47.094    20574550.564   108119966.7330      -1003.535          51.594    20574552.901    84249321.0750       -782.110          47.912    20574552.901    84249321.0750       -782.110          49.412    20574553.429    80738931.9050       -749.552          52.382  
I02  37185020.567   145921896.7300        187.669          47.690  
I03  37303008.933   146384913.8700        -13.298          47.994  
I06  39812556.247   156232804.7330        -34.319          42.290  
I09  40090510.812   157323553.1280       -267.939          41.988  
J02  38820081.983   204000873.6280        975.195          45.275    38820081.983   204000873.6280        975.195          46.775    38820081.983   204000873.6280        975.195          45.275    38820084.666   152338305.0620        728.004          48.187    38820084.666   152338305.0620        728.004          48.187  
J03  39733556.745   208801220.6100       -523.827          46.434    39733556.745   208801220.6100       -523.827          47.934    39733556.745   208801220.6100       -523.827          46.434    39733558.852   155922980.2800       -391.357          49.829    39733558.852   155922980.2800       -391.357          49.829  
J04  38283031.639   201178631.7110        -80.859          41.506    38283031.639   201178631.7110        -80.859          43.006    38283031.639   201178631.7110        -80.859          41.506    38283034.975   150230775.4950        -60.818          44.341    38283034.975   150230775.4950        -60.818          44.341  
J07  37733508.131   198290888.9160         -3.699          45.507    37733508.131   198290888.9160         -3.699          47.007    37733508.131   198290888.9160         -3.699          45.507    37733509.419   148074349.6160         -2.991          48.287    37733509.419   148074349.6160         -2.991          48.287  
R12  20535018.448   109694351.3050      -1858.168          46.377  
R13  19544863.298   104368453.5610       1398.232          48.210  
R14  23027655.501   122750300.9200       3704.872          39.997  
R22  22678992.218   121061949.3180      -3959.584          41.116  
R23  19242000.549   102931703.3720       -853.876          48.579  
R24  20583868.321   110071160.7380       2741.666          46.203  
S22  38852199.160   204169641.3330         -0.525          41.330    38852199.160   152464342.5540         -0.392          42.378  
S23  40135717.949   210914554.9420         -1.667          39.071    40135717.949   157501128.6900         -1.245          40.078  
S26  37656314.254   197885230.7060          0.555          43.208    37656314.254   147771438.5140          0.414          44.423  
S27  38210225.326   200796047.8540        -12.988          42.333    38210225.326   149945100.6700         -9.699          43.516  
S28  36924614.290   194040127.5620         -8.415          44.743    36924614.290   144900095.2570         -6.284          46.408  
S30  38646106.988   203086621.3890          5.685          41.655    38646106.988   151655593.8940          4.245          42.858  
S32  36782953.425   193295695.7790         -2.495          45.264    36782953.425   144344188.4060         -1.863          46.726  
S34  36783436.649   193298235.0030         -0.281          45.208    36783436.649   144346084.5800         -0.210          46.694  
S37  37734462.779   198295905.6180         -4.386          43.106    37734462.779   148078111.3380         -3.275          44.286  
S43  36950458.402   194175939.7280        -10.290          44.622    36950458.402   145001513.4330         -7.684          46.327  
S44  36990162.575   194384585.5350         46.413          44.483    36990162.575   145157320.3670         34.659          46.224  
