     3.04           O                   G                   RINEX VERSION / TYPE
PosApp V8.01.00     Spirent             20230219 100018 UTC PGM / RUN BY / DATE 
GNSS SIMULATOR OUTPUTS ALIGNED CARRIER PHASES.              COMMENT
NO FURTHER PHASE SHIFTS APPLIED IN THE RINEX ENCODER.       COMMENT
Pseudor. Noise Std 0.500m, Carrier Phase Noise Std 0.0050m  COMMENT
NONE                                                        MARKER NAME         
GROUND_CRAFT                                                MARKER TYPE         
ac124876            Spirent                                 OBSERVER / AGENCY   
rec_num             rec_type            rec_vers            REC # / TYPE / VERS 
ant_type            NONE                                    ANT # / TYPE        
  -481814.9557  5507170.1440  3170460.3379                  APPROX POSITION XYZ 
        0.0000        0.0000        0.0000                  ANTENNA: DELTA H/E/N
G   28 C1C L1C D1C S1C C1X L1X D1X S1X C1P L1P D1P S1P C2C  SYS / # / OBS TYPES
       L2C D2C S2C C2X L2X D2X S2X C2P L2P D2P S2P C5I L5I  SYS / # / OBS TYPES
       D5I S5I                                              SYS / # / OBS TYPES
     1.000                                                  INTERVAL            
  2023     2    19    10     0    0.0000000     GPS         TIME OF FIRST OBS   
G L1C                                                       SYS / PHASE SHIFT
G L1X  0.00000                                              SYS / PHASE SHIFT
G L1P  0.00000                                              SYS / PHASE SHIFT
G L2C  0.00000                                              SYS / PHASE SHIFT
G L2X  0.00000                                              SYS / PHASE SHIFT
G L2P                                                       SYS / PHASE SHIFT
G L5I                                                       SYS / PHASE SHIFT
                                                            END OF HEADER       
> 2023 02 19 10 00  0.0000000  0 11                    0
G01  23012942.742   120933833.1960      -3336.767          54.941                                                                    23012942.890   120933833.1480      -3336.536          51.941                                                                    23012944.116    94234159.4140      -2600.049          50.441    23012944.745    94234159.4070      -2600.159          48.941    23012943.479    90307732.5540      -2491.850          57.041  
G03  23317648.544   122535070.6690       1014.648          54.891                                                                    23317648.981   122535070.5820       1015.185          51.891                                                                    23317649.187    95481874.7090        790.880          50.391    23317648.350    95481874.7340        790.853          48.891    23317648.306    91503461.8300        757.956          56.991  
G06  21455946.110   112751755.7250       2580.602          55.503                                                                    21455945.875   112751755.7130       2580.541          52.503                                                                    21455946.341    87858513.8920       2011.081          51.003    21455946.105    87858513.8950       2011.069          49.503    21455945.956    84197739.6220       1927.380          57.603  
G07  24702364.593   129811804.5970      -3831.795          54.324                                                                    24702365.559   129811804.6570      -3832.538          51.324                                                                    24702362.392   101152046.6510      -2986.063          49.824    24702363.253   101152046.6660      -2986.341          48.324    24702364.819    96937386.5840      -2861.456          56.424  
G11  25120978.150   132011632.3370       3515.572          54.215                                                                    25120978.163   132011632.2640       3515.686          51.215                                                                    25120977.396   102866199.9550       2739.523          49.715    25120976.731   102866199.9890       2739.412          48.215    25120977.712    98580115.0150       2625.128          56.315  
G13  25174539.108   132293098.5990      -2152.253          54.135                                                                    25174539.518   132293098.6230      -2152.427          51.135                                                                    25174537.666   103085522.5260      -1677.517          49.635    25174537.439   103085522.5070      -1677.137          48.135    25174538.914    98790300.9000      -1607.297          56.235  
G14  20466863.405   107554094.4030       -276.663          55.986                                                                    20466863.312   107554094.2950       -276.710          52.986                                                                    20466861.707    83808378.8930       -215.705          51.486    20466862.380    83808378.8880       -215.856          49.986    20466863.595    80316369.1580       -206.788          58.086  
G17  21026478.757   110494889.7590       -502.040          55.662                                                                    21026477.568   110494889.8080       -501.968          52.662                                                                    21026475.755    86099905.2760       -391.483          51.162    21026475.823    86099905.2570       -391.397          49.662    21026477.844    82512417.7030       -374.665          57.762  
G19  21363995.401   112268554.4790       1128.741          55.576                                                                    21363996.457   112268554.4720       1128.440          52.576                                                                    21363991.906    87481978.2920        879.511          51.076    21363992.428    87481978.3210        879.553          49.576    21363995.811    83836907.5270        842.984          57.676  
G24  24849258.507   130583733.3560       2505.776          54.306                                                                    24849258.081   130583733.3100       2505.654          51.306                                                                    24849258.188   101753560.2590       1952.132          49.806    24849258.864   101753560.3000       1952.403          48.306    24849258.719    97513826.8350       1871.231          56.406  
G30  22398664.832   117705782.6820      -3207.194          55.261                                                                    22398666.183   117705782.6700      -3207.003          52.261                                                                    22398666.597    91718794.6330      -2499.360          50.761    22398666.647    91718794.6390      -2499.220          49.261    22398665.148    87897175.3520      -2394.926          57.361  
> 2023 02 19 10 00  1.0000000  0 11                    0
G01  23013579.432   120937179.0250      -3367.366          54.940                                                                    23013579.580   120937178.9770      -3367.135          51.940                                                                    23013580.806    94236766.5540      -2623.892          50.440    23013581.435    94236766.5470      -2624.002          48.940    23013580.169    90310231.0630      -2514.700          57.040  
G03  23317454.090   122534048.8050       1024.665          54.891                                                                    23317454.527   122534048.7180       1025.202          51.891                                                                    23317454.733    95481078.4520        798.685          50.391    23317453.896    95481078.4770        798.658          48.891    23317453.852    91502698.7500        765.437          56.991  
G06  21455453.301   112749165.9910       2609.103          55.504                                                                    21455453.066   112749165.9790       2609.042          52.504                                                                    21455453.531    87856495.9180       2033.290          51.004    21455453.295    87856495.9210       2033.278          49.504    21455453.147    84195805.7310       1948.663          57.604  
G07  24703089.759   129815615.3710      -3775.412          54.324                                                                    24703090.725   129815615.4310      -3776.155          51.324                                                                    24703087.558   101155016.0850      -2942.128          49.824    24703088.419   101155016.1000      -2942.406          48.324    24703089.985    96940232.2910      -2819.352          56.424  
G11  25120306.984   132008105.3350       3553.052          54.215                                                                    25120306.997   132008105.2620       3553.166          51.215                                                                    25120306.230   102863451.6420       2768.728          49.715    25120305.565   102863451.6760       2768.617          48.215    25120306.546    98577481.2150       2653.116          56.315  
G13  25174949.102   132295253.1360      -2148.341          54.135                                                                    25174949.512   132295253.1600      -2148.515          51.135                                                                    25174947.661   103087201.3860      -1674.469          49.635    25174947.434   103087201.3670      -1674.089          48.135    25174948.908    98791909.8070      -1604.376          56.235  
G14  20466915.908   107554370.3070       -277.425          55.986                                                                    20466915.815   107554370.1990       -277.472          52.986                                                                    20466914.209    83808593.8820       -216.299          51.486    20466914.882    83808593.8770       -216.450          49.986    20466916.098    80316575.1890       -207.358          58.086  
G17  21026576.359   110495402.6600       -531.094          55.662                                                                    21026575.170   110495402.7090       -531.022          52.662                                                                    21026573.356    86100304.9390       -414.123          51.162    21026573.424    86100304.9200       -414.037          49.662    21026575.446    82512800.7140       -396.361          57.762  
G19  21363782.646   112267436.4430       1105.290          55.576                                                                    21363783.702   112267436.4360       1104.989          52.576                                                                    21363779.151    87481107.0960        861.238          51.076    21363779.673    87481107.1250        861.280          49.576    21363783.056    83836072.6310        825.472          57.676  
G24  24848785.648   130581248.4610       2454.786          54.306                                                                    24848785.222   130581248.4150       2454.664          51.306                                                                    24848785.328   101751623.9770       1912.400          49.806    24848786.004   101751624.0180       1912.671          48.306    24848785.860    97511971.2310       1833.154          56.406  
G30  22399272.254   117708974.7020      -3164.169          55.261                                                                    22399273.605   117708974.6900      -3163.978          52.261                                                                    22399274.018    91721281.9210      -2465.834          50.761    22399274.068    91721281.9270      -2465.694          49.261    22399272.570    87899559.0030      -2362.797          57.361  
> 2023 02 19 10 00  2.0000000  0 11                    0
G01  23014228.519   120940586.4480      -3450.466          54.940                                                                    23014229.137   120940586.3910      -3450.505          51.940                                                                    23014229.010    94239421.6850      -2688.673          50.440    23014229.597    94239421.6980      -2689.000          48.940    23014227.692    90312775.5720      -2576.611          57.040  
G03  23317260.786   122533030.5600       1006.602          54.891                                                                    23317260.325   122533030.5580       1006.638          51.891                                                                    23317260.946    95480285.0650        784.228          50.391    23317260.446    95480285.0490        784.268          48.891    23317259.607    91501938.4010        751.461          56.991  
G06  21454948.753   112746522.7320       2678.827          55.504                                                                    21454950.040   112746522.6940       2679.322          52.504                                                                    21454950.844    87854436.2550       2088.026          51.004    21454950.277    87854436.2550       2087.756          49.504    21454950.319    84193831.9190       2000.744          57.604  
G07  24703798.735   129819341.9210      -3678.707          54.323                                                                    24703799.559   129819341.9170      -3678.970          51.323                                                                    24703796.757   101157919.9170      -2866.225          49.823    24703797.561   101157919.8750      -2866.360          48.323    24703799.283    96943015.0940      -2747.034          56.423  
G11  25119622.769   132004506.2860       3648.525          54.215                                                                    25119622.208   132004506.2520       3648.030          51.215                                                                    25119620.806   102860647.1830       2843.220          49.715    25119620.195   102860647.2180       2842.919          48.215    25119621.598    98574793.6120       2724.447          56.315  
G13  25175355.369   132297380.6340      -2101.454          54.135                                                                    25175354.478   132297380.6830      -2101.411          51.135                                                                    25175352.611   103088859.1610      -1637.161          49.635    25175352.798   103088859.2100      -1637.760          48.135    25175354.145    98793498.5110      -1569.084          56.235  
G14  20466970.862   107554654.6410       -293.027          55.986                                                                    20466970.123   107554654.6320       -293.205          52.986                                                                    20466968.751    83808815.5110       -228.893          51.486    20466968.880    83808815.5100       -228.192          49.986    20466970.494    80316787.5120       -218.951          58.086  
G17  21026682.230   110495960.2710       -584.080          55.662                                                                    21026681.684   110495960.2980       -583.870          52.662                                                                    21026681.078    86100739.3690       -455.237          51.162    21026680.395    86100739.4010       -455.211          49.662    21026682.488    82513217.0900       -435.891          57.762  
G19  21363574.004   112266342.3630       1086.244          55.576                                                                    21363573.805   112266342.3540       1086.284          52.576                                                                    21363571.856    87480254.5120        846.207          51.076    21363571.253    87480254.5080        846.140          49.576    21363575.028    83835255.6310        811.028          57.676  
G24  24848324.376   130578830.6870       2384.075          54.306                                                                    24848325.133   130578830.7010       2383.969          51.306                                                                    24848325.052   101749740.0780       1857.900          49.806    24848325.876   101749740.0900       1857.745          48.306    24848325.062    97510165.7730       1780.339          56.406  
G30  22399866.699   117712095.5230      -3077.103          55.261                                                                    22399867.016   117712095.5510      -3076.452          52.261                                                                    22399867.074    91723713.7790      -2397.219          50.761    22399868.078    91723713.7680      -2397.344          49.261    22399867.711    87901889.4770      -2297.652          57.361  
> 2023 02 19 10 00  3.0000000  0 11                    0
G01  23014891.716   120944072.9200      -3511.723          54.940                                                                    23014892.466   120944072.8970      -3511.317          51.940                                                                    23014893.110    94242138.4580      -2736.576          50.440    23014893.208    94242138.4730      -2736.273          48.940    23014892.059    90315379.1370      -2622.225          57.040  
G03  23317072.271   122532040.4520        974.992          54.891                                                                    23317071.922   122532040.4130        974.893          51.891                                                                    23317072.298    95479513.4890        759.742          50.391    23317072.481    95479513.5360        759.321          48.891    23317071.720    91501199.0380        727.999          56.991  
G06  21454434.171   112743814.9250       2726.950          55.504                                                                    21454433.955   112743814.9650       2726.878          52.504                                                                    21454435.519    87852326.3170       2124.899          51.004    21454435.575    87852326.3160       2124.983          49.504    21454434.426    84191809.8930       2036.397          57.604  
G07  24704493.080   129822988.8850      -3629.447          54.323                                                                    24704493.144   129822988.8900      -3629.349          51.323                                                                    24704491.057   101160761.6670      -2827.872          49.823    24704490.499   101160761.6930      -2828.170          48.323    24704493.445    96945738.4920      -2709.824          56.423  
G11  25118920.580   132000818.2970       3715.539          54.215                                                                    25118921.064   132000818.3390       3715.262          51.215                                                                    25118919.431   102857773.4590       2894.920          49.715    25118918.494   102857773.4350       2895.014          48.215    25118920.600    98572039.6630       2774.452          56.315  
G13  25175749.088   132299455.1490      -2052.677          54.135                                                                    25175748.995   132299455.2060      -2052.704          51.135                                                                    25175746.255   103090475.7180      -1599.625          49.635    25175746.673   103090475.7060      -1599.459          48.135    25175749.159    98795047.7530      -1532.788          56.235  
G14  20467027.845   107554956.8090       -310.047          55.986                                                                    20467027.904   107554956.8830       -309.893          52.986                                                                    20467026.408    83809051.0220       -241.572          51.486    20467027.549    83809050.9940       -241.421          49.986    20467026.751    80317013.2310       -231.808          58.086  
G17  21026797.371   110496561.7680       -612.133          55.662                                                                    21026796.045   110496561.6990       -611.672          52.662                                                                    21026794.187    86101208.0960       -476.489          51.162    21026794.829    86101208.0430       -476.955          49.662    21026796.314    82513666.2220       -457.036          57.762  
G19  21363367.632   112265256.5160       1089.532          55.576                                                                    21363368.292   112265256.5120       1089.189          52.576                                                                    21363365.252    87479408.5050        848.945          51.076    21363365.071    87479408.4720        848.845          49.576    21363367.942    83834444.8330        813.391          57.676  
G24  24847875.466   130576465.1690       2358.251          54.307                                                                    24847874.602   130576465.1700       2357.610          51.307                                                                    24847875.757   101747896.8020       1837.505          49.807    24847875.190   101747896.7740       1837.205          48.307    24847874.740    97508399.3200       1760.587          56.407  
G30  22400445.424   117715140.3000      -3024.507          55.260                                                                    22400445.446   117715140.3030      -3024.290          52.260                                                                    22400447.376    91726086.3070      -2356.865          50.760    22400446.798    91726086.2760      -2356.807          49.260    22400447.426    87904163.1990      -2258.463          57.360  
> 2023 02 19 10 00  4.0000000  0 11                    0
G01  23015559.657   120947581.8400      -3491.372          54.940                                                                    23015559.045   120947581.8780      -3491.364          51.940                                                                    23015560.066    94244872.6420      -2720.641          50.440    23015560.978    94244872.6640      -2720.711          48.940    23015558.961    90317999.4570      -2607.367          57.040  
G03  23316887.254   122531071.7750        969.714          54.891                                                                    23316888.098   122531071.8040        969.826          51.891                                                                    23316887.846    95478758.7020        755.693          50.391    23316887.870    95478758.7480        755.490          48.891    23316887.052    91500475.7050        724.425          56.991  
G06  21453916.370   112741091.8630       2707.938          55.504                                                                    21453916.778   112741091.8590       2707.209          52.504                                                                    21453916.413    87850204.3810       2109.777          51.004    21453917.218    87850204.4090       2109.816          49.504    21453916.474    84189776.3720       2021.789          57.604  
G07  24705186.205   129826629.4870      -3663.880          54.323                                                                    24705186.649   129826629.4200      -3664.073          51.323                                                                    24705183.266   101163598.4610      -2855.039          49.823    24705183.618   101163598.4710      -2855.371          48.323    24705186.597    96948457.0110      -2736.033          56.423  
G11  25118214.688   131997107.4670       3690.419          54.216                                                                    25118214.893   131997107.4570       3690.723          51.216                                                                    25118212.775   102854881.9770       2875.725          49.716    25118211.584   102854881.9570       2875.500          48.216    25118214.779    98569268.5360       2755.723          56.316  
G13  25176138.763   132301504.5950      -2058.037          54.135                                                                    25176139.619   132301504.6100      -2057.635          51.135                                                                    25176136.855   103092072.6230      -1603.467          49.635    25176136.707   103092072.6110      -1603.241          48.135    25176138.994    98796578.1070      -1536.539          56.235  
G14  20467087.370   107555268.3450       -309.404          55.986                                                                    20467087.492   107555268.3760       -309.328          52.986                                                                    20467085.559    83809293.7590       -240.706          51.486    20467085.898    83809293.7540       -241.572          49.986    20467087.553    80317245.8600       -231.025          58.086  
G17  21026912.323   110497168.1260       -594.050          55.662                                                                    21026911.688   110497168.1440       -593.593          52.662                                                                    21026909.883    86101680.5780       -462.525          51.162    21026909.179    86101680.6000       -462.638          49.662    21026911.483    82514119.0720       -443.640          57.762  
G19  21363159.477   112264160.7350       1102.013          55.576                                                                    21363160.461   112264160.7170       1102.471          52.576                                                                    21363156.402    87478554.5480        858.760          51.076    21363155.889    87478554.5790        858.396          49.576    21363158.742    83833626.5380        822.815          57.676  
G24  24847423.882   130574095.4670       2388.370          54.307                                                                    24847424.714   130574095.4030       2387.621          51.307                                                                    24847424.560   101746050.2230       1860.734          49.807    24847424.895   101746050.2900       1860.944          48.307    24847424.191    97506629.7230       1783.434          56.407  
G30  22401024.394   117718172.5080      -3052.943          55.260                                                                    22401022.698   117718172.5340      -3052.615          52.260                                                                    22401024.300    91728449.0630      -2378.626          50.760    22401024.842    91728449.0510      -2378.461          49.260    22401023.211    87906427.4820      -2279.698          57.360  
> 2023 02 19 10 00  5.0000000  0 11                    0
G01  23016217.161   120951034.1720      -3408.948          54.939                                                                    23016216.916   120951034.0980      -3408.794          51.939                                                                    23016217.208    94247562.7610      -2656.007          50.439    23016217.669    94247562.7840      -2655.921          48.939    23016216.434    90320577.4190      -2545.561          57.039  
G03  23316701.029   122530086.0690       1007.155          54.891                                                                    23316700.239   122530086.1240       1007.352          51.891                                                                    23316700.167    95477990.6730        784.860          50.391    23316700.442    95477990.6400        784.607          48.891    23316699.700    91499739.6170        752.060          56.991  
G06  21453408.084   112738416.5100       2640.816          55.504                                                                    21453407.353   112738416.4950       2640.232          52.504                                                                    21453408.275    87848119.7130       2057.804          51.004    21453409.270    87848119.7080       2057.570          49.504    21453407.028    84187778.5410       1971.922          57.604  
G07  24705890.921   129830330.2270      -3736.846          54.323                                                                    24705890.727   129830330.1180      -3736.989          51.323                                                                    24705889.068   101166482.2170      -2911.920          49.823    24705888.166   101166482.1800      -2912.048          48.323    24705890.394    96951220.6100      -2790.296          56.423  
G11  25117520.875   131993461.3320       3598.047          54.216                                                                    25117519.339   131993461.2860       3597.714          51.216                                                                    25117519.135   102852040.7750       2803.601          49.716    25117518.232   102852040.7740       2803.720          48.216    25117520.077    98566545.7790       2686.726          56.316  
G13  25176536.057   132303590.5490      -2120.831          54.135                                                                    25176535.692   132303590.5540      -2120.318          51.135                                                                    25176533.826   103093698.0470      -1651.949          49.635    25176534.710   103093698.0820      -1652.341          48.135    25176536.459    98798135.8180      -1583.009          56.235  
G14  20467143.965   107555568.4090       -288.439          55.986                                                                    20467144.310   107555568.4390       -288.327          52.986                                                                    20467142.559    83809527.5990       -225.032          51.486    20467142.639    83809527.5580       -225.211          49.986    20467144.599    80317469.9210       -215.761          58.086  
G17  21027022.244   110497741.6640       -553.362          55.662                                                                    21027020.786   110497741.7130       -553.320          52.662                                                                    21027018.334    86102127.5100       -430.759          51.162    21027019.149    86102127.5010       -430.949          49.662    21027020.788    82514547.3570       -413.271          57.762  
G19  21362949.681   112263057.0500       1101.874          55.576                                                                    21362950.166   112263057.0970       1101.998          52.576                                                                    21362945.368    87477694.6200        858.549          51.076    21362946.666    87477694.6140        858.502          49.576    21362949.217    83832802.3290        822.713          57.676  
G24  24846966.171   130571685.4170       2429.632          54.307                                                                    24846965.650   130571685.4560       2428.926          51.307                                                                    24846965.802   101744172.3380       1893.103          49.807    24846965.528   101744172.3380       1893.212          48.307    24846965.824    97504830.0550       1813.982          56.407  
G30  22401610.943   117721261.6700      -3127.297          55.260                                                                    22401610.059   117721261.7230      -3127.682          52.260                                                                    22401610.949    91730856.2210      -2436.679          50.760    22401612.297    91730856.2430      -2437.183          49.260    22401611.223    87908734.3610      -2335.467          57.360  
> 2023 02 19 10 00  6.0000000  0 10                    0
G01  23016858.368   120954406.6580      -3347.023          54.939                                                                    23016858.472   120954406.7060      -3347.364          51.939                                                                    23016858.619    94250190.7460      -2607.780          50.439    23016859.472    94250190.7360      -2608.178          48.939    23016858.710    90323095.9110      -2499.339          57.039  
G03  23316503.793   122529055.1710       1051.040          54.891                                                                    23316504.410   122529055.1650       1050.973          51.891                                                                    23316504.413    95477187.3090        819.256          50.391    23316503.100    95477187.3260        818.999          48.891    23316503.949    91498969.7530        784.646          56.991  
G06  21452910.772   112735804.2620       2593.072          55.505                                                                    21452910.216   112735804.2610       2593.187          52.505                                                                    21452911.414    87846084.1850       2020.454          51.005    21452912.007    87846084.1850       2020.974          49.505    21452910.367    84185827.8720       1936.375          57.605  
G11  25116843.690   131989902.8440       3531.520          54.216                                                                    25116842.940   131989902.8310       3531.376          51.216                                                                    25116841.639   102849267.8840       2751.792          49.716    25116841.954   102849267.8840       2751.912          48.216    25116842.488    98563888.4470       2636.927          56.316  
G13  25176945.604   132305744.2970      -2179.949          54.135                                                                    25176945.815   132305744.2730      -2179.786          51.135                                                                    25176942.954   103095376.3040      -1698.473          49.635    25176943.881   103095376.3280      -1698.915          48.135    25176946.301    98799744.1070      -1627.759          56.235  
G14  20467197.914   107555845.8560       -268.790          55.986                                                                    20467195.974   107555845.8460       -268.599          52.986                                                                    20467195.869    83809743.7330       -209.363          51.486    20467195.433    83809743.6860       -209.041          49.986    20467195.969    80317677.0960       -200.245          58.086  
G17  21027124.308   110498281.0690       -531.844          55.662                                                                    21027123.483   110498281.0720       -531.793          52.662                                                                    21027121.679    86102547.7960       -414.022          51.162    21027121.585    86102547.7610       -414.108          49.662    21027123.993    82514950.1420       -396.925          57.762  
G19  21362741.206   112261962.3980       1085.882          55.577                                                                    21362740.962   112261962.3290       1085.856          52.577                                                                    21362738.783    87476841.6130        846.585          51.077    21362738.681    87476841.5860        846.592          49.577    21362741.766    83831984.8930        810.809          57.677  
G24  24846501.815   130569249.2650       2436.083          54.307                                                                    24846502.450   130569249.3080       2435.920          51.307                                                                    24846502.933   101742273.9830       1898.438          49.807    24846503.423   101742273.9830       1898.200          48.307    24846502.270    97503010.8260       1819.604          56.407  
G30  22402211.896   117724416.8550      -3171.798          55.260                                                                    22402211.543   117724416.8310      -3172.673          52.260                                                                    22402211.979    91733314.7620      -2472.037          50.760    22402213.008    91733314.8010      -2472.467          49.260    22402211.554    87911090.4980      -2369.235          57.360  
> 2023 02 19 10 00  7.0000000  0 10                    0
G01  23017495.655   120957758.1480      -3371.925          54.939                                                                    23017496.385   120957758.0690      -3371.886          51.939                                                                    23017496.950    94252802.1930      -2626.862          50.439    23017496.824    94252802.2260      -2626.813          48.939    23017495.366    90325598.5950      -2517.686          57.039  
G03  23316302.932   122528000.3120       1047.714          54.891                                                                    23316303.473   122528000.3090       1047.511          51.891                                                                    23316304.230    95476365.3860        816.052          50.391    23316303.676    95476365.3480        816.562          48.891    23316303.591    91498182.0360        782.424          56.991  
G06  21452416.095   112733206.8390       2613.480          55.505                                                                    21452415.677   112733206.8530       2613.802          52.505                                                                    21452417.341    87844060.2920       2036.673          51.005    21452416.389    87844060.2910       2036.189          49.505    21452415.529    84183888.2590       1951.255          57.605  
G11  25116169.844   131986365.8640       3559.574          54.216                                                                    25116170.265   131986365.8760       3559.343          51.216                                                                    25116168.745   102846511.8010       2774.047          49.716    25116168.716   102846511.8430       2773.431          48.216    25116170.642    98561247.2450       2658.139          56.316  
G13  25177360.644   132307925.7130      -2167.482          54.134                                                                    25177362.315   132307925.7060      -2167.845          51.134                                                                    25177359.438   103097076.0870      -1689.246          49.634    25177358.463   103097076.0810      -1689.554          48.134    25177360.999    98801373.0760      -1618.637          56.234  
G14  20467247.406   107556113.7980       -272.155          55.986                                                                    20467248.220   107556113.7840       -272.237          52.986                                                                    20467246.282    83809952.4790       -212.475          51.486    20467246.615    83809952.4870       -212.535          49.986    20467246.952    80317877.2100       -203.170          58.086  
G17  21027226.233   110498818.3200       -548.339          55.662                                                                    21027225.892   110498818.2890       -548.751          52.662                                                                    21027223.074    86102966.4330       -427.404          51.162    21027223.362    86102966.4250       -427.109          49.662    21027226.513    82515351.3430       -409.465          57.762  
G19  21362534.821   112260881.8110       1078.659          55.577                                                                    21362535.453   112260881.8240       1078.674          52.577                                                                    21362533.360    87475999.6360        840.184          51.077    21362532.422    87475999.5820        840.298          49.577    21362535.617    83831177.9560        804.863          57.677  
G24  24846039.634   130566824.1000       2411.608          54.307                                                                    24846041.341   130566824.0750       2411.535          51.307                                                                    24846039.863   101740384.2560       1879.352          49.807    24846039.821   101740384.2320       1879.232          48.307    24846040.153    97501199.8040       1800.620          56.407  
G30  22402813.787   117727581.8310      -3145.702          55.260                                                                    22402813.435   117727581.8040      -3145.713          52.260                                                                    22402816.105    91735781.0230      -2451.155          50.760    22402814.716    91735781.0180      -2451.059          49.260    22402814.513    87913453.9620      -2349.232          57.360  
> 2023 02 19 10 00  8.0000000  0 10                    0
G01  23018146.621   120961173.1770      -3463.818          54.939                                                                    23018146.051   120961173.2090      -3464.278          51.939                                                                    23018145.821    94255463.3160      -2699.334          50.439    23018146.987    94255463.3190      -2699.451          48.939    23018146.261    90328148.8180      -2586.917          57.039  
G03  23316109.221   122526980.0510        985.800          54.891                                                                    23316108.754   122526980.0820        985.906          51.891                                                                    23316110.179    95475570.3610        768.204          50.391    23316109.184    95475570.3920        768.362          48.891    23316109.537    91497420.1590        736.029          56.991  
G06  21451911.524   112730559.9210       2683.425          55.505                                                                    21451912.009   112730559.9130       2683.878          52.505                                                                    21451912.876    87841997.6930       2091.323          51.005    21451913.668    87841997.6950       2090.933          49.505    21451911.677    84181911.6610       2004.240          57.605  
G11  25115484.132   131982759.2830       3659.529          54.216                                                                    25115483.780   131982759.2800       3659.070          51.216                                                                    25115481.492   102843701.4650       2850.978          49.716    25115481.469   102843701.4960       2851.304          48.216    25115483.554    98558553.9820       2731.972          56.316  
G13  25177766.419   132310055.2320      -2083.267          54.134                                                                    25177766.485   132310055.1830      -2083.129          51.134                                                                    25177764.229   103098735.4400      -1623.514          49.634    25177763.893   103098735.4260      -1623.504          48.134    25177766.917    98802963.2690      -1555.685          56.234  
G14  20467303.199   107556399.8100       -302.072          55.986                                                                    20467302.682   107556399.7870       -302.496          52.986                                                                    20467300.373    83810175.3830       -235.157          51.486    20467300.810    83810175.3840       -235.583          49.986    20467301.410    80318090.7730       -225.663          58.086  
G17  21027333.024   110499384.2140       -583.668          55.662                                                                    21027332.922   110499384.1260       -583.282          52.662                                                                    21027331.472    86103407.3720       -454.647          51.162    21027331.910    86103407.3250       -454.478          49.662    21027334.160    82515773.8750       -435.366          57.762  
G19  21362328.980   112259796.7240       1096.720          55.577                                                                    21362328.634   112259796.6820       1096.360          52.577                                                                    21362326.480    87475154.0310        854.385          51.077    21362325.796    87475154.0410        854.562          49.577    21362328.937    83830367.6370        818.733          57.677  
G24  24845582.644   130564423.6730       2392.998          54.307                                                                    24845583.205   130564423.6530       2393.219          51.307                                                                    24845583.948   101738513.8240       1864.878          49.807    24845585.298   101738513.7980       1864.973          48.307    24845583.580    97499407.2780       1786.924          56.407  
G30  22403405.635   117730693.4610      -3075.982          55.259                                                                    22403405.861   117730693.4430      -3075.838          52.259                                                                    22403407.325    91738205.6670      -2396.908          50.759    22403406.496    91738205.6500      -2396.687          49.259    22403406.358    87915777.5540      -2296.958          57.359  
> 2023 02 19 10 00  9.0000000  0 10                    0
G01  23018813.388   120964680.6500      -3540.131          54.938                                                                    23018812.712   120964680.6560      -3540.635          51.938                                                                    23018813.962    94258196.3920      -2759.012          50.438    23018814.550    94258196.4240      -2759.186          48.938    23018813.258    90330767.9970      -2643.733          57.038  
G03  23315928.643   122526031.3600        916.769          54.891                                                                    23315927.671   122526031.3680        917.042          51.891                                                                    23315929.046    95474831.1280        714.676          50.391    23315928.921    95474831.1340        714.348          48.891    23315927.980    91496711.7460        684.707          56.991  
G06  21451395.699   112727844.7500       2738.471          55.505                                                                    21451395.352   112727844.8020       2738.710          52.505                                                                    21451395.882    87839882.0430       2133.663          51.005    21451395.435    87839882.0220       2134.020          49.505    21451395.833    84179884.1100       2045.190          57.605  
G11  25114778.935   131979054.8440       3738.639          54.217                                                                    25114779.584   131979054.8680       3739.120          51.217                                                                    25114777.236   102840814.8880       2913.185          49.717    25114776.429   102840814.8640       2913.267          48.217    25114779.123    98555787.6690       2792.074          56.317  
G13  25178154.667   132312092.4830      -1999.709          54.134                                                                    25178153.557   132312092.4830      -1998.662          51.134                                                                    25178151.144   103100322.9390      -1557.982          49.634    25178151.685   103100322.9460      -1557.792          48.134    25178154.230    98804484.6330      -1493.213          56.234  
G14  20467362.678   107556718.2310       -332.035          55.986                                                                    20467363.341   107556718.3070       -332.424          52.986                                                                    20467361.606    83810423.5590       -258.647          51.486    20467362.197    83810423.5570       -258.913          49.986    20467362.523    80318328.6140       -247.927          58.086  
G17  21027447.272   110499979.1490       -602.297          55.662                                                                    21027446.718   110499979.1370       -601.873          52.662                                                                    21027444.534    86103870.9630       -469.071          51.162    21027445.772    86103871.0200       -469.066          49.662    21027447.217    82516218.2090       -450.015          57.762  
G19  21362117.846   112258684.3090       1127.832          55.577                                                                    21362117.253   112258684.2750       1127.592          52.577                                                                    21362113.380    87474287.2810        878.867          51.077    21362114.221    87474287.2730        878.664          49.577    21362116.910    83829536.9670        842.149          57.677  
G24  24845127.215   130562027.6830       2403.065          54.307                                                                    24845127.427   130562027.6690       2402.800          51.307                                                                    24845128.083   101736646.7990       1872.708          49.807    24845127.230   101736646.7820       1872.561          48.307    24845126.925    97497618.0810       1794.581          56.407  
G30  22403985.770   117733741.7630      -3029.626          55.259                                                                    22403986.801   117733741.7400      -3029.321          52.259                                                                    22403987.730    91740580.9770      -2360.548          50.759    22403987.184    91740580.9520      -2360.355          49.259    22403985.548    87918053.9610      -2261.992          57.359  
> 2023 02 19 10 00 10.0000000  0 10                    0
G01  23019487.334   120968225.8360      -3533.856          54.938                                                                    23019488.606   120968225.8760      -3534.412          51.938                                                                    23019488.859    94260958.9750      -2754.178          50.438    23019488.935    94260958.9170      -2754.205          48.938    23019487.801    90333415.4340      -2639.309          57.038  
G03  23315755.505   122525125.4070        908.871          54.892                                                                    23315756.149   122525125.4170        908.448          51.892                                                                    23315756.129    95474125.2220        708.234          50.392    23315756.404    95474125.1580        707.910          48.892    23315756.584    91496035.2390        678.518          56.992  
G06  21450874.412   112725104.5610       2730.254          55.505                                                                    21450874.450   112725104.6000       2730.871          52.505                                                                    21450874.918    87837746.7790       2127.870          51.005    21450875.131    87837746.7860       2127.727          49.505    21450874.263    84177837.8250       2039.383          57.605  
G11  25114066.754   131975312.5510       3729.587          54.217                                                                    25114067.094   131975312.5480       3729.906          51.217                                                                    25114065.509   102837898.8510       2906.175          49.717    25114065.169   102837898.8260       2905.644          48.217    25114066.487    98552993.1630       2785.023          56.317  
G13  25178532.702   132314081.9210      -1996.417          54.134                                                                    25178532.939   132314081.9710      -1996.563          51.134                                                                    25178531.154   103101873.1850      -1555.543          49.634    25178531.270   103101873.1790      -1555.553          48.134    25178532.947    98805970.2850      -1490.660          56.234  
G14  20467427.454   107557054.3390       -333.862          55.986                                                                    20467426.960   107557054.3760       -333.938          52.986                                                                    20467425.978    83810685.4280       -260.167          51.486    20467424.951    83810685.4210       -260.218          49.986    20467426.458    80318579.5650       -249.565          58.086  
G17  21027560.658   110500578.5880       -592.962          55.662                                                                    21027561.224   110500578.6030       -592.780          52.662                                                                    21027558.220    86104338.0810       -461.805          51.162    21027558.630    86104338.0780       -462.052          49.662    21027560.942    82516665.8120       -442.751          57.762  
G19  21361902.401   112257548.4240       1137.632          55.577                                                                    21361901.001   112257548.4300       1137.603          52.577                                                                    21361898.637    87473402.1220        886.776          51.077    21361897.727    87473402.1290        886.721          49.577    21361901.659    83828688.7130        849.423          57.677  
G24  24844669.094   130559614.6540       2421.473          54.308                                                                    24844667.373   130559614.6690       2421.273          51.308                                                                    24844668.527   101734766.4550       1886.733          49.808    24844669.069   101734766.4910       1887.101          48.308    24844668.920    97495816.0890       1807.977          56.408  
G30  22404563.112   117736773.1630      -3042.905          55.259                                                                    22404563.393   117736773.1160      -3042.685          52.259                                                                    22404564.256    91742943.0450      -2370.969          50.759    22404564.001    91742943.0450      -2370.751          49.259    22404562.425    87920317.5920      -2272.233          57.359  
> 2023 02 19 10 00 11.0000000  0 10                    0
G01  23020153.355   120971725.7230      -3460.125          54.938                                                                    23020154.517   120971725.7210      -3459.708          51.938                                                                    23020154.246    94263686.0500      -2696.266          50.438    23020154.370    94263686.0960      -2695.749          48.938    23020154.557    90336028.9530      -2583.627          57.038  
G03  23315578.434   122524189.0280        972.782          54.892                                                                    23315578.506   122524189.0270        972.241          51.892                                                                    23315579.306    95473395.5220        757.967          50.392    23315578.331    95473395.5490        757.775          48.892    23315577.787    91495335.9500        726.560          56.992  
G06  21450359.855   112722399.6420       2675.690          55.506                                                                    21450359.665   112722399.6800       2675.596          52.506                                                                    21450359.780    87835639.0850       2084.868          51.006    21450360.499    87835639.0320       2084.615          49.506    21450359.589    84175817.9460       1997.847          57.606  
G11  25113363.825   131971619.6430       3650.714          54.217                                                                    25113363.984   131971619.6560       3651.328          51.217                                                                    25113362.494   102835021.2970       2844.548          49.717    25113362.719   102835021.2610       2844.560          48.217    25113363.930    98550235.4500       2726.300          56.317  
G13  25178920.294   132316113.9200      -2076.392          54.134                                                                    25178919.562   132316113.9390      -2076.516          51.134                                                                    25178916.890   103103456.5150      -1618.316          49.634    25178917.742   103103456.5460      -1618.311          48.134    25178919.501    98807487.6770      -1550.754          56.234  
G14  20467488.415   107557376.2330       -306.624          55.986                                                                    20467488.204   107557376.1940       -306.076          52.986                                                                    20467486.685    83810936.2100       -238.578          51.486    20467486.201    83810936.2180       -238.921          49.986    20467488.569    80318819.8960       -228.883          58.086  
G17  21027671.833   110501161.2460       -573.313          55.662                                                                    21027672.385   110501161.2940       -573.224          52.662                                                                    21027669.247    86104792.1020       -446.428          51.162    21027669.739    86104792.1730       -446.271          49.662    21027672.892    82517100.9670       -427.975          57.762  
G19  21361686.736   112256422.2140       1108.539          55.577                                                                    21361687.507   112256422.1980       1108.906          52.577                                                                    21361683.551    87472524.5850        863.907          51.077    21361683.384    87472524.6070        864.347          49.577    21361686.528    83827847.7800        828.254          57.677  
G24  24844207.155   130557193.7200       2414.781          54.308                                                                    24844208.655   130557193.7550       2414.135          51.308                                                                    24844207.827   101732880.0820       1881.540          49.808    24844208.313   101732880.0610       1881.242          48.308    24844208.784    97494008.2970       1803.256          56.408  
G30  22405146.293   117739839.2040      -3090.022          55.259                                                                    22405146.990   117739839.1200      -3090.569          52.259                                                                    22405146.806    91745332.1460      -2408.162          50.759    22405147.352    91745332.1500      -2407.969          49.259    22405145.615    87922607.1770      -2307.910          57.359  
> 2023 02 19 10 00 12.0000000  0 10                    0
G01  23020806.498   120975148.5340      -3394.393          54.938                                                                    23020804.696   120975148.5430      -3394.732          51.938                                                                    23020806.828    94266353.2170      -2645.292          50.438    23020805.718    94266353.1610      -2645.282          48.938    23020804.901    90338584.9530      -2534.827          57.038  
G03  23315385.332   122523176.6030       1046.458          54.892                                                                    23315384.804   122523176.5980       1045.933          51.892                                                                    23315385.246    95472606.6350        815.333          50.392    23315385.368    95472606.6300        815.361          48.892    23315385.670    91494579.9320        781.047          56.992  
G06  21449854.778   112719749.6430       2631.324          55.506                                                                    21449855.127   112719749.6860       2630.560          52.506                                                                    21449856.668    87833574.1170       2050.191          51.006    21449856.754    87833574.1200       2050.707          49.506    21449854.465    84173839.0260       1964.693          57.606  
G11  25112676.347   131968006.3150       3585.441          54.217                                                                    25112676.217   131968006.3230       3585.299          51.217                                                                    25112674.706   102832205.7370       2793.821          49.717    25112675.163   102832205.7060       2793.572          48.217    25112676.898    98547537.2010       2677.065          56.317  
G13  25179323.562   132318236.5050      -2160.249          54.134                                                                    25179322.916   132318236.5170      -2160.868          51.134                                                                    25179321.394   103105110.5240      -1683.547          49.634    25179320.489   103105110.5440      -1683.403          48.134    25179323.175    98809072.7670      -1613.193          56.234  
G14  20467543.846   107557666.3830       -276.853          55.986                                                                    20467544.243   107557666.3670       -276.836          52.986                                                                    20467541.655    83811162.3210       -215.674          51.486    20467541.366    83811162.2940       -215.892          49.986    20467543.153    80319036.5600       -206.532          58.086  
G17  21027780.224   110501729.4500       -566.621          55.662                                                                    21027779.597   110501729.4230       -566.524          52.662                                                                    21027777.195    86105234.8540       -441.643          51.162    21027777.911    86105234.8430       -441.604          49.662    21027780.067    82517525.2340       -423.113          57.762  
G19  21361480.607   112255335.5590       1066.046          55.577                                                                    21361479.770   112255335.5660       1066.016          52.577                                                                    21361477.313    87471677.8730        830.841          51.077    21361476.957    87471677.7980        830.857          49.577    21361480.734    83827036.3010        796.091          57.677  
G24  24843751.511   130554794.5870       2381.831          54.308                                                                    24843751.593   130554794.5850       2381.652          51.308                                                                    24843752.424   101731010.6130       1856.296          49.808    24843751.720   101731010.5920       1855.847          48.308    24843750.637    97492216.7180       1778.854          56.408  
G30  22405737.928   117742947.5490      -3120.072          55.258                                                                    22405737.788   117742947.5340      -3119.629          52.258                                                                    22405739.449    91747754.2510      -2431.101          50.758    22405739.379    91747754.3220      -2430.960          49.258    22405738.813    87924928.3150      -2329.280          57.358  
> 2023 02 19 10 00 13.0000000  0 10                    0
G01  23021450.129   120978540.7900      -3403.324          54.937                                                                    23021450.750   120978540.7470      -3403.242          51.937                                                                    23021450.740    94268996.5360      -2651.915          50.437    23021451.854    94268996.4840      -2652.252          48.937    23021451.565    90341118.0900      -2541.419          57.037  
G03  23315183.953   122522119.7880       1051.999          54.892                                                                    23315183.846   122522119.8450       1052.180          51.892                                                                    23315184.021    95471783.1530        819.546          50.392    23315183.669    95471783.1780        819.905          48.892    23315183.837    91493790.7670        785.681          56.992  
G06  21449354.385   112717119.2770       2639.132          55.506                                                                    21449354.225   112717119.2190       2639.235          52.506                                                                    21449355.117    87831524.4460       2056.522          51.006    21449355.565    87831524.4400       2056.394          49.506    21449354.343    84171874.7240       1970.857          57.606  
G11  25111994.172   131964422.6630       3596.000          54.218                                                                    25111994.468   131964422.6430       3595.862          51.218                                                                    25111992.911   102829413.1940       2802.012          49.718    25111993.380   102829413.2190       2802.208          48.218    25111994.254    98544861.0690       2684.943          56.318  
G13  25179736.077   132320406.5270      -2161.690          54.134                                                                    25179736.417   132320406.5480      -2162.070          51.134                                                                    25179733.851   103106801.3890      -1684.393          49.634    25179733.835   103106801.3970      -1684.775          48.134    25179735.722    98810693.1920      -1614.500          56.234  
G14  20467594.762   107557939.6830       -276.068          55.986                                                                    20467594.670   107557939.6690       -276.469          52.986                                                                    20467593.765    83811375.2990       -215.416          51.486    20467594.165    83811375.2510       -215.343          49.986    20467595.929    80319240.6900       -206.548          58.086  
G17  21027890.150   110502300.0290       -576.651          55.662                                                                    21027888.372   110502300.0130       -575.923          52.662                                                                    21027886.282    86105679.4420       -449.031          51.162    21027885.767    86105679.4590       -449.106          49.662    21027888.633    82517951.2880       -430.256          57.762  
G19  21361278.815   112254278.4560       1056.645          55.577                                                                    21361279.254   112254278.4580       1056.921          52.577                                                                    21361275.913    87470854.1320        823.553          51.077    21361275.819    87470854.1360        823.525          49.577    21361279.674    83826246.8830        788.919          57.677  
G24  24843300.201   130552425.1130       2363.465          54.308                                                                    24843300.370   130552425.1990       2362.987          51.308                                                                    24843301.023   101729164.2850       1841.076          49.808    24843301.514   101729164.3010       1841.599          48.308    24843301.995    97490447.3540       1764.458          56.408  
G30  22406330.502   117746063.5950      -3106.244          55.258                                                                    22406330.287   117746063.6040      -3106.223          52.258                                                                    22406331.589    91750182.3440      -2420.198          50.758    22406331.304    91750182.3780      -2420.366          49.258    22406330.664    87927255.2740      -2319.209          57.358  
> 2023 02 19 10 00 14.0000000  0 10                    0
G01  23022104.948   120981976.3060      -3472.700          54.937                                                                    23022103.984   120981976.2870      -3472.876          51.937                                                                    23022105.524    94271673.5640      -2706.393          50.437    23022105.467    94271673.5160      -2706.338          48.937    23022104.626    90343683.5850      -2593.532          57.037  
G03  23314991.143   122521101.3760        974.669          54.892                                                                    23314990.374   122521101.3730        974.964          51.892                                                                    23314991.025    95470989.5880        759.887          50.392    23314990.982    95470989.5830        760.301          48.892    23314990.632    91493030.2440        727.943          56.992  
G06  21448848.170   112714458.0140       2686.396          55.506                                                                    21448848.653   112714458.0010       2686.025          52.506                                                                    21448848.478    87829450.7540       2092.648          51.006    21448848.233    87829450.7660       2093.118          49.506    21448847.944    84169887.4830       2005.889          57.606  
G11  25111303.004   131960794.0050       3666.024          54.218                                                                    25111304.161   131960793.9730       3665.725          51.218                                                                    25111302.159   102826585.7110       2856.369          49.718    25111302.934   102826585.6780       2856.786          48.218    25111304.492    98542151.3560       2737.592          56.318  
G13  25180139.330   132322529.8650      -2074.443          54.133                                                                    25180139.201   132322529.8280      -2074.877          51.133                                                                    25180138.363   103108455.9440      -1616.407          49.633    25180137.556   103108455.9090      -1616.765          48.133    25180140.900    98812278.7520      -1549.435          56.233  
G14  20467650.781   107558229.8530       -307.813          55.986                                                                    20467650.711   107558229.8310       -308.290          52.986                                                                    20467648.472    83811601.3920       -239.577          51.486    20467649.969    83811601.3880       -239.896          49.986    20467650.147    80319457.3510       -229.811          58.086  
G17  21027999.461   110502881.6690       -584.812          55.662                                                                    21027999.544   110502881.6070       -585.177          52.662                                                                    21027996.414    86106132.7000       -456.268          51.162    21027997.421    86106132.6740       -456.007          49.662    21027999.110    82518385.6310       -436.832          57.762  
G19  21361074.639   112253204.3500       1098.978          55.577                                                                    21361074.134   112253204.3150       1099.404          52.577                                                                    21361071.878    87470017.1200        856.297          51.077    21361071.607    87470017.0830        856.316          49.577    21361073.537    83825444.7800        820.406          57.677  
G24  24842849.203   130550051.2510       2393.110          54.308                                                                    24842848.442   130550051.2830       2393.286          51.308                                                                    24842848.987   101727314.5530       1864.518          49.808    24842848.764   101727314.5380       1864.567          48.308    24842848.127    97488674.6670       1786.813          56.408  
G30  22406918.399   117749153.2570      -3073.697          55.258                                                                    22406918.583   117749153.2160      -3073.650          52.258                                                                    22406920.113    91752589.8980      -2394.785          50.758    22406919.411    91752589.8630      -2394.921          49.258    22406918.232    87929562.4800      -2295.172          57.358  
> 2023 02 19 10 00 15.0000000  0 10                    0
G01  23022771.544   120985484.1110      -3535.339          54.937                                                                    23022771.528   120985484.0780      -3535.330          51.937                                                                    23022772.623    94274406.9140      -2754.740          50.437    23022773.685    94274406.9170      -2754.738          48.937    23022772.028    90346303.0560      -2640.025          57.037  
G03  23314814.084   122520175.2100        882.649          54.892                                                                    23314813.928   122520175.1720        882.461          51.892                                                                    23314815.244    95470267.8680        687.705          50.392    23314813.530    95470267.8860        687.701          48.892    23314814.464    91492338.6550        658.986          56.992  
G06  21448333.003   112711750.2590       2723.921          55.506                                                                    21448332.456   112711750.2600       2724.367          52.506                                                                    21448334.172    87827340.8270       2122.694          51.006    21448334.606    87827340.7890       2122.645          49.506    21448331.737    84167865.4650       2034.087          57.606  
G11  25110600.717   131957094.4030       3725.566          54.218                                                                    25110600.567   131957094.3920       3725.186          51.218                                                                    25110598.022   102823702.9400       2902.767          49.718    25110599.750   102823702.9100       2902.604          48.218    25110600.975    98539388.6890       2781.794          56.318  
G13  25180525.019   132324552.9510      -1978.569          54.133                                                                    25180524.314   132324552.9760      -1978.787          51.133                                                                    25180522.966   103110032.4170      -1541.779          49.633    25180522.403   103110032.4500      -1541.343          48.133    25180525.471    98813789.5440      -1477.519          56.233  
G14  20467712.396   107558556.6000       -343.203          55.985                                                                    20467712.242   107558556.6270       -343.053          52.985                                                                    20467710.975    83811856.0250       -267.256          51.485    20467712.511    83811856.0250       -267.361          49.985    20467712.808    80319701.3370       -256.027          58.085  
G17  21028110.302   110503465.4750       -580.262          55.662                                                                    21028111.272   110503465.4500       -580.050          52.662                                                                    21028108.433    86106587.6090       -452.069          51.162    21028108.181    86106587.6240       -452.247          49.662    21028110.043    82518821.6450       -432.957          57.762  
G19  21360858.624   112252074.4480       1158.905          55.577                                                                    21360858.890   112252074.4490       1159.074          52.577                                                                    21360856.293    87469136.7200        903.012          51.077    21360855.990    87469136.7130        903.150          49.577    21360859.184    83824601.0700        865.098          57.677  
G24  24842388.768   130547628.4500       2452.982          54.308                                                                    24842387.845   130547628.4960       2453.377          51.308                                                                    24842387.362   101725426.6070       1911.537          49.808    24842388.700   101725426.6190       1911.768          48.308    24842388.411    97486865.4060       1832.220          56.408  
G30  22407502.021   117752217.2570      -3059.092          55.258                                                                    22407501.766   117752217.3120      -3059.671          52.258                                                                    22407502.506    91754977.4700      -2384.264          50.758    22407502.880    91754977.4530      -2384.545          49.258    22407502.086    87931850.5830      -2284.782          57.358  
> 2023 02 19 10 00 16.0000000  0 10                    0
G01  23023446.723   120989026.5680      -3538.400          54.937                                                                    23023445.614   120989026.5170      -3538.377          51.937                                                                    23023447.708    94277167.2110      -2757.194          50.437    23023447.619    94277167.2620      -2757.345          48.937    23023445.851    90348948.3660      -2642.114          57.037  
G03  23314650.163   122519312.2380        858.529          54.892                                                                    23314649.903   122519312.2210        858.791          51.892                                                                    23314649.807    95469595.4100        669.366          50.392    23314650.360    95469595.3940        669.078          48.892    23314650.159    91491694.1790        641.281          56.992  
G06  21447814.435   112709024.0130       2721.137          55.507                                                                    21447814.493   112709023.9870       2721.854          52.507                                                                    21447814.796    87825216.5020       2120.530          51.007    21447814.463    87825216.4610       2120.792          49.507    21447814.342    84165829.6230       2032.336          57.607  
G11  25109890.726   131953364.0130       3724.976          54.218                                                                    25109890.629   131953364.0540       3724.677          51.218                                                                    25109889.195   102820796.1160       2902.496          49.718    25109888.918   102820796.0960       2902.207          48.218    25109890.998    98536602.9900       2781.551          56.318  
G13  25180898.060   132326513.5840      -1959.425          54.133                                                                    25180898.244   132326513.6070      -1959.676          51.133                                                                    25180896.470   103111560.1570      -1526.964          49.633    25180896.937   103111560.1650      -1526.369          48.133    25180898.935    98815253.6640      -1463.402          56.233  
G14  20467778.948   107558906.8410       -350.811          55.985                                                                    20467778.972   107558906.8210       -351.188          52.985                                                                    20467778.256    83812128.8880       -273.808          51.485    20467778.143    83812128.9690       -273.787          49.985    20467779.175    80319962.9070       -262.441          58.085  
G17  21028219.075   110504039.6900       -569.013          55.662                                                                    21028220.020   110504039.6450       -568.860          52.662                                                                    21028217.606    86107035.0300       -443.508          51.162    21028216.838    86107035.0270       -443.257          49.662    21028220.242    82519250.3600       -424.473          57.762  
G19  21360635.971   112250900.1040       1179.461          55.577                                                                    21360635.444   112250900.1180       1179.985          52.577                                                                    21360633.263    87468221.6310        919.155          51.077    21360633.374    87468221.6310        919.308          49.577    21360636.227    83823724.1100        880.840          57.677  
G24  24841916.719   130545155.0660       2484.000          54.309                                                                    24841917.013   130545155.0610       2483.818          51.309                                                                    24841917.769   101723499.2500       1935.410          49.809    24841916.907   101723499.2670       1935.155          48.309    24841917.337    97485018.3630       1854.714          56.409  
G30  22408084.486   117755281.7850      -3072.191          55.257                                                                    22408085.903   117755281.7260      -3072.338          52.257                                                                    22408085.685    91757365.3450      -2393.793          50.757    22408086.172    91757365.3540      -2393.779          49.257    22408085.127    87934138.9400      -2294.179          57.357  
> 2023 02 19 10 00 17.0000000  0 10                    0
G01  23024115.024   120992544.2590      -3493.208          54.936                                                                    23024115.974   120992544.2580      -3493.300          51.936                                                                    23024116.408    94279908.3110      -2721.956          50.436    23024115.996    94279908.2770      -2722.143          48.936    23024115.828    90351575.2490      -2608.309          57.036  
G03  23314480.922   122518427.9360        920.660          54.892                                                                    23314481.819   122518427.8680        920.477          51.892                                                                    23314482.048    95468906.3340        717.575          50.392    23314481.926    95468906.3520        717.369          48.892    23314480.919    91491033.7980        687.486          56.992  
G06  21447298.843   112706316.3620       2692.777          55.507                                                                    21447299.288   112706316.3620       2692.321          52.507                                                                    21447300.129    87823106.6370       2098.001          51.007    21447299.710    87823106.6170       2097.907          49.507    21447298.129    84163807.6970       2010.691          57.607  
G11  25109184.273   131949659.9340       3680.788          54.219                                                                    25109185.325   131949659.8560       3680.849          51.219                                                                    25109183.906   102817909.7880       2868.351          49.719    25109182.986   102817909.7550       2867.682          48.219    25109185.646    98533836.9520       2748.318          56.319  
G13  25181276.500   132328501.3180      -2026.246          54.133                                                                    25181275.746   132328501.3450      -2025.793          51.133                                                                    25181273.855   103113109.0740      -1578.984          49.633    25181274.564   103113109.0380      -1578.680          48.133    25181275.970    98816738.0200      -1512.922          56.233  
G14  20467844.351   107559247.9730       -327.271          55.985                                                                    20467844.632   107559247.9860       -327.338          52.985                                                                    20467842.676    83812394.7260       -255.193          51.485    20467842.288    83812394.7410       -254.852          49.985    20467843.874    80320217.6370       -244.182          58.085  
G17  21028326.736   110504607.5250       -570.181          55.662                                                                    21028328.023   110504607.5370       -570.194          52.662                                                                    21028324.713    86107477.5110       -444.168          51.162    21028325.182    86107477.5240       -444.086          49.662    21028328.071    82519674.4740       -425.983          57.762  
G19  21360413.997   112249735.8940       1140.214          55.578                                                                    21360414.137   112249735.9040       1140.301          52.578                                                                    21360411.539    87467314.5080        888.287          51.078    21360412.381    87467314.4930        888.387          49.578    21360414.162    83822854.7470        851.405          57.678  
G24  24841446.701   130542684.6420       2445.882          54.309                                                                    24841446.754   130542684.6610       2445.726          51.309                                                                    24841446.499   101721574.3010       1905.771          49.809    24841447.385   101721574.2810       1905.676          48.309    24841447.033    97483173.5830       1826.424          56.409  
G30  22408670.532   117758362.0340      -3086.005          55.257                                                                    22408671.271   117758362.0350      -3086.261          52.257                                                                    22408670.842    91759765.5850      -2404.601          50.757    22408672.074    91759765.5860      -2404.599          49.257    22408671.020    87936439.2010      -2304.449          57.357  
> 2023 02 19 10 00 18.0000000  0 10                    0
G01  23024775.206   120996015.3630      -3454.523          54.936                                                                    23024775.915   120996015.3860      -3454.791          51.936                                                                    23024777.507    94282613.1170      -2692.116          50.436    23024776.670    94282613.1170      -2692.299          48.936    23024776.608    90354167.3320      -2579.706          57.036  
G03  23314297.810   122517464.1130       1002.711          54.892                                                                    23314298.144   122517464.1540       1002.199          51.892                                                                    23314299.607    95468155.3590        781.484          50.392    23314299.099    95468155.3560        781.629          48.892    23314299.200    91490314.1670        748.614          56.992  
G06  21446788.982   112703636.0220       2672.510          55.507                                                                    21446788.182   112703636.0090       2673.260          52.507                                                                    21446790.230    87821018.0000       2082.368          51.007    21446789.319    87821018.0060       2082.222          49.507    21446788.759    84161806.1000       1995.843          57.607  
G11  25108488.935   131945998.7990       3647.301          54.219                                                                    25108488.648   131945998.7800       3648.168          51.219                                                                    25108486.970   102815056.9330       2842.206          49.719    25108487.540   102815056.9500       2841.908          48.219    25108489.115    98531102.9950       2723.750          56.319  
G13  25181670.652   132330570.0940      -2105.961          54.133                                                                    25181670.223   132330570.0910      -2105.632          51.133                                                                    25181667.598   103114721.1000      -1640.858          49.633    25181667.990   103114721.0980      -1641.189          48.133    25181669.528    98818282.8680      -1572.563          56.233  
G14  20467903.855   107559559.8240       -298.385          55.985                                                                    20467902.836   107559559.8410       -297.918          52.985                                                                    20467902.084    83812637.7340       -232.676          51.485    20467902.414    83812637.6880       -232.522          49.985    20467903.030    80320450.5420       -222.534          58.085  
G17  21028437.326   110505185.8320       -587.960          55.662                                                                    21028437.860   110505185.8150       -588.272          52.662                                                                    21028435.818    86107928.1850       -457.898          51.162    21028434.913    86107928.1390       -458.493          49.662    21028438.114    82520106.3290       -439.107          57.762  
G19  21360203.828   112248627.7580       1078.290          55.578                                                                    21360203.239   112248627.7310       1077.761          52.578                                                                    21360200.144    87466450.9960        840.194          51.078    21360200.806    87466450.9840        840.135          49.578    21360203.876    83822027.2770        805.064          57.678  
G24  24840989.428   130540276.3760       2370.247          54.309                                                                    24840988.673   130540276.4160       2371.281          51.309                                                                    24840989.632   101719697.7380       1847.175          49.809    24840988.884   101719697.7570       1847.497          48.309    24840988.292    97481375.2380       1770.338          56.409  
G30  22409258.065   117761445.9550      -3077.879          55.257                                                                    22409258.067   117761445.9710      -3078.160          52.257                                                                    22409258.293    91762168.6540      -2398.465          50.757    22409259.114    91762168.6210      -2398.534          49.257    22409258.361    87938742.1090      -2298.253          57.357  
> 2023 02 19 10 00 19.0000000  0 10                    0
G01  23025433.030   120999468.7630      -3459.383          54.936                                                                    23025433.653   120999468.7320      -3459.559          51.936                                                                    23025434.503    94285304.0330      -2695.582          50.436    23025434.080    94285304.0300      -2695.884          48.936    23025433.486    90356746.1760      -2583.490          57.036  
G03  23314104.627   122516444.5430       1021.918          54.892                                                                    23314104.464   122516444.4850       1022.428          51.892                                                                    23314104.882    95467360.8830        796.441          50.392    23314104.776    95467360.8260        796.408          48.892    23314103.866    91489552.7470        763.727          56.992  
G06  21446279.448   112700961.7310       2679.988          55.507                                                                    21446279.616   112700961.7630       2679.664          52.507                                                                    21446280.459    87818934.1950       2088.292          51.007    21446280.315    87818934.1920       2087.928          49.507    21446279.266    84159809.0920       2001.604          57.607  
G11  25107794.544   131942350.3980       3655.523          54.219                                                                    25107795.000   131942350.4020       3655.915          51.219                                                                    25107792.349   102812214.0770       2848.633          49.719    25107792.279   102812214.0400       2848.544          48.219    25107794.524    98528378.5390       2729.996          56.319  
G13  25182073.232   132332690.1110      -2119.706          54.133                                                                    25182073.794   132332690.1000      -2119.960          51.133                                                                    25182071.562   103116373.0280      -1651.920          49.633    25182072.374   103116373.0000      -1651.473          48.133    25182073.960    98819865.9560      -1582.690          56.233  
G14  20467958.078   107559852.6780       -293.113          55.985                                                                    20467958.995   107559852.7140       -293.260          52.985                                                                    20467957.136    83812865.9350       -228.299          51.485    20467958.266    83812865.9650       -228.388          49.985    20467960.001    80320669.1680       -218.669          58.085  
G17  21028551.296   110505782.8590       -602.673          55.662                                                                    21028550.621   110505782.8390       -603.272          52.662                                                                    21028549.366    86108393.4040       -469.547          51.162    21028549.877    86108393.3600       -469.971          49.662    21028551.246    82520552.1510       -450.042          57.762  
G19  21360001.121   112247565.7950       1056.817          55.578                                                                    21360001.965   112247565.7700       1056.342          52.578                                                                    21359997.875    87465623.5070        823.608          51.078    21359997.821    87465623.4590        823.574          49.578    21360001.108    83821234.1980        789.157          57.678  
G24  24840542.442   130537929.6410       2335.770          54.309                                                                    24840542.537   130537929.6250       2335.397          51.309                                                                    24840541.801   101717869.0990       1819.826          49.809    24840542.129   101717869.0920       1819.839          48.309    24840541.923    97479622.7670       1743.972          56.409  
G30  22409841.761   117764514.4130      -3059.160          55.257                                                                    22409841.395   117764514.3830      -3059.641          52.257                                                                    22409843.329    91764559.6820      -2384.138          50.757    22409842.829    91764559.6800      -2384.173          49.257    22409841.788    87941033.5180      -2284.736          57.357  
> 2023 02 19 10 00 20.0000000  0 10                    0
G01  23026094.612   121002943.7700      -3492.050          54.936                                                                    23026095.161   121002943.7840      -3491.944          51.936                                                                    23026095.492    94288011.8360      -2720.814          50.436    23026095.782    94288011.8480      -2721.023          48.936    23026095.190    90359341.1730      -2607.564          57.036  
G03  23313914.428   122515448.1260        960.409          54.892                                                                    23313914.670   122515448.0470        960.480          51.892                                                                    23313915.507    95466584.4050        747.979          50.392    23313913.745    95466584.4120        748.628          48.892    23313915.016    91488808.6620        716.986          56.992  
G06  21445768.180   112698273.1940       2696.507          55.507                                                                    21445767.915   112698273.1470       2696.588          52.507                                                                    21445769.563    87816839.1700       2101.135          51.007    21445769.716    87816839.1580       2101.597          49.507    21445768.360    84157801.3640       2013.567          57.607  
G11  25107096.766   131938680.3360       3684.002          54.219                                                                    25107096.179   131938680.3280       3684.072          51.219                                                                    25107094.892   102809354.2310       2870.707          49.719    25107094.660   102809354.2560       2870.593          48.219    25107096.490    98525637.8750       2751.239          56.319  
G13  25182471.985   132334783.8990      -2059.494          54.133                                                                    25182471.459   132334783.9130      -2059.785          51.133                                                                    25182470.793   103118004.5230      -1604.787          49.633    25182470.346   103118004.5020      -1604.794          48.133    25182470.763    98821429.5330      -1537.576          56.233  
G14  20468016.858   107560155.3370       -315.666          55.985                                                                    20468017.199   107560155.2810       -315.914          52.985                                                                    20468015.779    83813101.7820       -245.936          51.485    20468016.154    83813101.7540       -245.810          49.985    20468016.737    80320895.2150       -235.584          58.085  
G17  21028665.628   110506383.2020       -592.175          55.662                                                                    21028666.392   110506383.2100       -592.822          52.662                                                                    21028663.230    86108861.1910       -462.197          51.162    21028662.813    86108861.1680       -461.768          49.662    21028664.958    82521000.4660       -442.599          57.762  
G19  21359797.488   112246491.8580       1100.641          55.578                                                                    21359797.093   112246491.8560       1100.912          52.578                                                                    21359795.051    87464786.6300        857.469          51.078    21359794.482    87464786.5930        857.743          49.578    21359797.451    83820432.1950        822.004          57.678  
G24  24840094.105   130535575.1730       2387.321          54.309                                                                    24840093.910   130535575.1500       2387.035          51.309                                                                    24840093.815   101716034.4360       1860.093          49.809    24840094.022   101716034.4560       1859.903          48.309    24840094.360    97477864.5710       1782.262          56.409  
G30  22410424.227   117767572.5320      -3061.580          55.257                                                                    22410423.667   117767572.5590      -3062.170          52.257                                                                    22410425.162    91766942.6060      -2386.045          50.757    22410425.006    91766942.5530      -2385.922          49.257    22410424.556    87943317.1470      -2286.458          57.357  
> 2023 02 19 10 00 21.0000000  0 10                    0
G01  23026761.575   121006447.7140      -3511.048          54.935                                                                    23026761.617   121006447.7050      -3510.873          51.935                                                                    23026762.487    94290742.1580      -2735.815          50.435    23026762.491    94290742.1560      -2735.867          48.935    23026761.203    90361957.7230      -2621.930          57.035  
G03  23313740.438   122514531.3240        876.243          54.892                                                                    23313739.782   122514531.3140        876.791          51.892                                                                    23313740.105    95465869.9870        682.915          50.392    23313740.692    95465870.0060        683.185          48.892    23313740.102    91488124.0120        654.772          56.992  
G06  21445254.897   112695574.1270       2697.476          55.508                                                                    21445254.671   112695574.1190       2697.964          52.508                                                                    21445255.062    87814736.0830       2102.089          51.008    21445255.101    87814736.0600       2102.007          49.508    21445254.330    84155785.8760       2014.401          57.608  
G11  25106393.205   131934988.6710       3693.584          54.220                                                                    25106393.966   131934988.6370       3693.743          51.220                                                                    25106391.865   102806477.6530       2878.365          49.720    25106392.691   102806477.6770       2878.575          48.220    25106393.365    98522881.1780       2758.179          56.320  
G13  25182856.981   132336804.6990      -1987.158          54.133                                                                    25182857.088   132336804.7250      -1986.878          51.133                                                                    25182854.255   103119579.2040      -1548.425          49.633    25182854.926   103119579.2070      -1548.207          48.133    25182856.727    98822938.6280      -1483.889          56.233  
G14  20468079.586   107560485.8960       -343.985          55.985                                                                    20468079.464   107560485.8540       -343.439          52.985                                                                    20468077.740    83813359.2940       -267.963          51.485    20468077.847    83813359.3390       -267.923          49.985    20468080.001    80321142.0390       -257.043          58.085  
G17  21028775.154   110506960.2230       -559.402          55.661                                                                    21028775.718   110506960.1830       -560.258          52.661                                                                    21028772.901    86109310.7310       -435.973          51.161    21028773.162    86109310.7620       -436.116          49.661    21028775.683    82521431.3150       -418.191          57.761  
G19  21359580.830   112245355.1180       1171.558          55.578                                                                    21359579.858   112245355.0960       1171.512          52.578                                                                    21359576.952    87463900.8700        912.764          51.078    21359578.167    87463900.8430        912.917          49.578    21359581.131    83819583.3660        874.396          57.678  
G24  24839629.073   130533139.5140       2485.482          54.309                                                                    24839629.819   130533139.4720       2485.225          51.309                                                                    24839631.271   101714136.5440       1936.438          49.809    24839630.477   101714136.5030       1936.700          48.309    24839630.455    97476045.7590       1855.508          56.409  
G30  22411010.133   117770648.7870      -3094.242          55.256                                                                    22411009.692   117770648.8020      -3094.006          52.256                                                                    22411009.981    91769339.6670      -2411.277          50.756    22411010.223    91769339.6940      -2411.392          49.256    22411009.067    87945614.3300      -2310.562          57.356  
> 2023 02 19 10 00 22.0000000  0 10                    0
G01  23027429.161   121009955.8220      -3501.255          54.935                                                                    23027428.842   121009955.8470      -3501.250          51.935                                                                    23027431.023    94293475.7200      -2728.361          50.435    23027429.816    94293475.7520      -2728.313          48.935    23027429.601    90364577.3900      -2614.757          57.035  
G03  23313578.338   122513676.2260        846.426          54.892                                                                    23313577.027   122513676.2380        846.068          51.892                                                                    23313577.829    95465203.6870        659.460          50.392    23313577.771    95465203.7090        659.661          48.892    23313577.502    91487485.5180        632.032          56.992  
G06  21444742.230   112692883.3270       2682.966          55.508                                                                    21444742.882   112692883.3040       2682.911          52.508                                                                    21444743.401    87812639.2590       2090.644          51.008    21444742.974    87812639.2770       2090.421          49.508    21444743.040    84153776.4790       2003.721          57.608  
G11  25105691.615   131931301.8590       3677.472          54.220                                                                    25105692.295   131931301.8760       3676.868          51.220                                                                    25105690.075   102803604.8240       2865.294          49.720    25105689.933   102803604.8090       2865.134          48.220    25105692.233    98520128.0320       2746.082          56.320  
G13  25183231.896   132338776.3670      -1967.890          54.132                                                                    25183231.607   132338776.4590      -1967.401          51.132                                                                    25183229.382   103121115.6290      -1533.364          49.632    25183230.024   103121115.6220      -1533.572          48.132    25183232.691    98824410.9590      -1470.124          56.232  
G14  20468147.559   107560836.1310       -351.962          55.985                                                                    20468146.499   107560836.1490       -352.174          52.985                                                                    20468144.679    83813632.2830       -274.259          51.485    20468144.634    83813632.2850       -274.557          49.985    20468147.133    80321403.6100       -263.202          58.085  
G17  21028879.149   110507505.3120       -534.895          55.661                                                                    21028879.513   110507505.3480       -535.014          52.661                                                                    21028877.474    86109735.5490       -416.564          51.161    21028876.123    86109735.5500       -417.407          49.661    21028879.826    82521838.4120       -399.350          57.761  
G19  21359353.858   112244161.9350       1204.173          55.578                                                                    21359354.819   112244161.9220       1204.563          52.578                                                                    21359350.705    87462971.0920        938.044          51.078    21359351.335    87462971.0820        938.594          49.578    21359354.215    83818692.3230        899.182          57.678  
G24  24839151.097   130530619.8970       2539.825          54.310                                                                    24839151.040   130530619.8650       2540.239          51.310                                                                    24839151.262   101712173.2130       1979.053          49.810    24839151.667   101712173.1890       1979.362          48.310    24839151.230    97474164.2400       1896.935          56.410  
G30  22411600.892   117773761.1890      -3126.535          55.256                                                                    22411601.690   117773761.1490      -3126.663          52.256                                                                    22411602.053    91771764.8950      -2436.204          50.756    22411601.547    91771764.8670      -2436.524          49.256    22411602.378    87947938.5100      -2334.794          57.356  
> 2023 02 19 10 00 23.0000000  0 10                    0
G01  23028093.820   121013448.2450      -3485.547          54.935                                                                    23028093.710   121013448.2490      -3485.177          51.935                                                                    23028095.053    94296197.1650      -2716.191          50.435    23028095.148    94296197.1840      -2716.072          48.935    23028094.111    90367185.4300      -2602.990          57.035  
G03  23313412.864   122512814.6530        886.131          54.892                                                                    23313413.288   122512814.6480        886.262          51.892                                                                    23313414.048    95464532.3580        690.223          50.392    23313413.979    95464532.3650        690.515          48.892    23313413.114    91486842.0710        661.793          56.992  
G06  21444233.162   112690205.6930       2675.697          55.508                                                                    21444233.264   112690205.6980       2675.174          52.508                                                                    21444232.632    87810552.8280       2085.099          51.008    21444233.518    87810552.8320       2084.846          49.508    21444233.457    84151776.9930       1998.009          57.608  
G11  25104994.781   131927632.8470       3664.452          54.220                                                                    25104994.792   131927632.8280       3664.695          51.220                                                                    25104991.913   102800745.8490       2855.468          49.720    25104991.670   102800745.8500       2855.834          48.220    25104995.008    98517388.1970       2736.804          56.320  
G13  25183609.472   132340760.0110      -2005.664          54.132                                                                    25183608.076   132340760.0770      -2005.180          51.132                                                                    25183606.476   103122661.2720      -1563.020          49.632    25183607.215   103122661.2720      -1563.117          48.132    25183608.751    98825892.1810      -1497.609          56.232  
G14  20468212.984   107561182.9080       -338.380          55.985                                                                    20468211.725   107561182.9160       -339.047          52.985                                                                    20468211.488    83813902.4800       -264.042          51.485    20468211.806    83813902.5080       -263.709          49.985    20468212.178    80321662.6150       -252.995          58.085  
G17  21028982.152   110508042.5540       -546.475          55.661                                                                    21028981.170   110508042.5950       -546.174          52.661                                                                    21028978.584    86110154.2000       -425.504          51.161    21028979.077    86110154.1920       -425.254          49.661    21028980.997    82522239.5530       -407.887          57.761  
G19  21359126.162   112242968.6520       1172.713          55.578                                                                    21359126.449   112242968.6060       1172.684          52.578                                                                    21359124.653    87462041.2860        913.707          51.078    21359123.364    87462041.2850        913.600          49.578    21359126.468    83817801.2890        875.946          57.678  
G24  24838670.777   130528092.3810       2499.806          54.310                                                                    24838669.320   130528092.3610       2499.548          51.310                                                                    24838669.846   101710203.7150       1947.698          49.810    24838670.300   101710203.7080       1947.835          48.310    24838669.875    97472276.7740       1866.536          56.410  
G30  22412196.302   117776888.2040      -3118.827          55.256                                                                    22412196.887   117776888.1610      -3119.403          52.256                                                                    22412197.249    91774201.5630      -2430.465          50.756    22412197.631    91774201.5310      -2430.558          49.256    22412196.886    87950273.6530      -2329.300          57.356  
> 2023 02 19 10 00 24.0000000  0 10                    0
G01  23028757.719   121016935.2340      -3493.164          54.935                                                                    23028756.883   121016935.1400      -3493.122          51.935                                                                    23028758.480    94298914.2200      -2721.434          50.435    23028757.880    94298914.2350      -2721.697          48.935    23028757.528    90369789.2300      -2608.167          57.035  
G03  23313239.173   122511897.6660        945.446          54.893                                                                    23313239.430   122511897.6810        945.206          51.893                                                                    23313239.530    95463817.8100        736.552          50.393    23313238.956    95463817.8250        736.799          48.893    23313238.523    91486157.3480        706.422          56.993  
G06  21443722.915   112687523.5350       2691.944          55.508                                                                    21443722.763   112687523.4690       2692.098          52.508                                                                    21443723.898    87808462.8050       2097.491          51.008    21443723.707    87808462.8280       2097.716          49.508    21443723.393    84149774.0050       2010.442          57.608  
G11  25104296.426   131923962.2630       3681.763          54.220                                                                    25104295.333   131923962.2510       3681.854          51.220                                                                    25104293.072   102797885.6080       2868.866          49.720    25104294.353   102797885.6010       2868.635          48.220    25104295.834    98514647.1230       2749.197          56.320  
G13  25183995.734   132342789.5450      -2049.979          54.132                                                                    25183995.271   132342789.5540      -2050.107          51.132                                                                    25183993.254   103124242.7240      -1597.320          49.632    25183992.858   103124242.7360      -1597.107          48.132    25183995.154    98827407.8040      -1530.719          56.232  
G14  20468275.400   107561512.3150       -321.217          55.985                                                                    20468275.452   107561512.2600       -320.957          52.985                                                                    20468274.444    83814159.1480       -250.389          51.485    20468274.071    83814159.1170       -250.266          49.985    20468274.974    80321908.5250       -240.300          58.085  
G17  21029088.767   110508607.4780       -585.347          55.661                                                                    21029088.012   110508607.4770       -585.660          52.661                                                                    21029086.649    86110594.3690       -456.307          51.161    21029086.871    86110594.3610       -456.472          49.661    21029088.265    82522661.4470       -436.845          57.761  
G19  21358909.873   112241826.5510       1112.374          55.578                                                                    21358909.577   112241826.5240       1111.999          52.578                                                                    21358906.288    87461151.3330        866.854          51.078    21358906.481    87461151.3330        866.539          49.578    21358908.528    83816948.3540        830.490          57.678  
G24  24838202.812   130525639.8200       2403.956          54.310                                                                    24838203.982   130525639.7800       2403.732          51.310                                                                    24838203.784   101708292.6050       1873.348          49.810    24838203.761   101708292.6200       1873.242          48.310    24838202.315    97470445.3090       1795.376          56.410  
G30  22412786.354   117779985.5060      -3071.916          55.256                                                                    22412785.138   117779985.5590      -3071.983          52.256                                                                    22412786.633    91776615.0460      -2393.612          50.756    22412786.198    91776615.0620      -2393.082          49.256    22412786.135    87952586.5880      -2293.553          57.356  
> 2023 02 19 10 00 25.0000000  0 10                    0
G01  23029424.846   121020439.6350      -3516.341          54.934                                                                    23029423.312   121020439.5740      -3516.196          51.934                                                                    23029424.554    94301644.9880      -2739.663          50.434    23029424.660    94301644.9520      -2739.999          48.934    23029423.931    90372406.2140      -2626.033          57.034  
G03  23313055.982   122510938.4400        962.713          54.893                                                                    23313056.792   122510938.4520        962.940          51.893                                                                    23313057.028    95463070.3800        750.351          50.393    23313057.408    95463070.4270        750.727          48.893    23313055.421    91485441.0480        719.634          56.993  
G06  21443208.400   112684818.6420       2715.343          55.509                                                                    21443208.458   112684818.6100       2715.954          52.509                                                                    21443209.171    87806355.1290       2115.852          51.009    21443208.950    87806355.0940       2116.481          49.509    21443207.998    84147754.1810       2028.327          57.609  
G11  25103591.874   131920264.6720       3712.320          54.221                                                                    25103591.731   131920264.6110       3712.504          51.221                                                                    25103590.130   102795004.3920       2892.546          49.721    25103590.206   102795004.3310       2892.738          48.221    25103590.427    98511885.9440       2772.532          56.321  
G13  25184386.747   132344845.4810      -2054.766          54.132                                                                    25184386.541   132344845.4880      -2054.591          51.132                                                                    25184384.672   103125844.7820      -1600.873          49.632    25184385.299   103125844.7700      -1600.883          48.132    25184387.662    98828943.0480      -1534.035          56.232  
G14  20468336.352   107561830.6970       -318.215          55.985                                                                    20468335.909   107561830.7090       -318.650          52.985                                                                    20468333.738    83814407.2380       -248.624          51.485    20468333.890    83814407.2200       -248.307          49.985    20468334.991    80322146.2980       -238.071          58.085  
G17  21029203.562   110509210.1180       -613.987          55.661                                                                    21029203.200   110509210.0790       -614.023          52.661                                                                    21029201.093    86111063.9250       -478.378          51.161    21029201.376    86111063.8810       -478.653          49.661    21029203.326    82523111.4460       -458.860          57.761  
G19  21358701.327   112240733.1680       1083.569          55.578                                                                    21358701.471   112240733.1760       1083.602          52.578                                                                    21358698.957    87460299.3340        844.169          51.078    21358698.897    87460299.3520        844.675          49.578    21358702.484    83816131.9040        809.652          57.678  
G24  24837753.179   130523270.0330       2349.441          54.310                                                                    24837753.161   130523270.0110       2349.871          51.310                                                                    24837752.584   101706446.0280       1831.345          49.810    24837753.717   101706445.9950       1830.617          48.310    24837751.255    97468675.6690       1754.859          56.410  
G30  22413366.293   117783033.9790      -3031.132          55.255                                                                    22413366.258   117783033.9430      -3031.416          52.255                                                                    22413367.889    91778990.4240      -2361.970          50.755    22413366.263    91778990.4110      -2362.368          49.255    22413365.890    87954862.9850      -2264.000          57.355  
> 2023 02 19 10 00 26.0000000  0 10                    0
G01  23030093.830   121023961.5780      -3521.367          54.934                                                                    23030094.164   121023961.6440      -3521.385          51.934                                                                    23030095.943    94304389.3620      -2743.967          50.434    23030095.530    94304389.3780      -2743.993          48.934    23030093.774    90375036.2410      -2629.846          57.034  
G03  23312875.691   122509989.2240        929.009          54.893                                                                    23312876.837   122509989.1980        928.962          51.893                                                                    23312876.210    95462330.7520        723.962          50.393    23312875.430    95462330.7090        723.733          48.893    23312875.973    91484732.2260        693.486          56.993  
G06  21442690.946   112682100.6600       2713.768          55.509                                                                    21442691.386   112682100.6790       2713.410          52.509                                                                    21442691.847    87804237.2320       2114.858          51.009    21442691.426    87804237.2570       2114.435          49.509    21442691.033    84145724.5260       2026.569          57.609  
G11  25102884.609   131916548.2240       3712.329          54.221                                                                    25102884.439   131916548.1860       3712.435          51.221                                                                    25102882.919   102792108.4530       2893.033          49.721    25102882.120   102792108.4270       2893.245          48.221    25102884.564    98509110.6760       2772.133          56.321  
G13  25184774.813   132346887.2450      -2026.211          54.132                                                                    25184774.353   132346887.2090      -2026.318          51.132                                                                    25184773.150   103127435.7390      -1578.819          49.632    25184773.299   103127435.6900      -1578.963          48.132    25184776.087    98830467.7440      -1513.222          56.232  
G14  20468397.468   107562154.3670       -329.903          55.985                                                                    20468398.190   107562154.4120       -329.640          52.985                                                                    20468395.744    83814659.4420       -257.484          51.485    20468395.174    83814659.4420       -257.279          49.985    20468397.108    80322387.9750       -246.276          58.085  
G17  21029320.026   110509820.5550       -599.054          55.661                                                                    21029319.940   110509820.5510       -599.264          52.661                                                                    21029318.439    86111539.6110       -466.444          51.161    21029317.934    86111539.5950       -466.637          49.661    21029319.359    82523567.3000       -447.108          57.761  
G19  21358492.607   112239638.6800       1113.741          55.578                                                                    21358493.424   112239638.7940       1113.770          52.578                                                                    21358489.918    87459446.5400        867.966          51.078    21358490.432    87459446.4970        867.553          49.578    21358493.223    83815314.6160        831.775          57.678  
G24  24837303.316   130520907.1480       2392.509          54.310                                                                    24837302.550   130520907.0920       2392.450          51.310                                                                    24837303.511   101704604.8180       1863.797          49.810    24837302.746   101704604.8100       1864.263          48.310    24837303.428    97466911.1360       1786.549          56.410  
G30  22413943.478   117786068.0620      -3048.401          55.255                                                                    22413944.082   117786068.0870      -3048.179          52.255                                                                    22413943.597    91781354.7610      -2375.215          50.755    22413944.115    91781354.7540      -2375.244          49.255    22413943.623    87957128.7680      -2276.416          57.355  
> 2023 02 19 10 00 27.0000000  0 10                    0
G01  23030760.938   121027469.5320      -3488.583          54.934                                                                    23030761.446   121027469.5010      -3488.292          51.934                                                                    23030762.398    94307122.7900      -2718.788          50.434    23030762.527    94307122.7890      -2718.533          48.934    23030762.432    90377655.7920      -2605.018          57.034  
G03  23312703.390   122509083.7480        884.968          54.893                                                                    23312703.170   122509083.6930        884.566          51.893                                                                    23312704.007    95461625.1560        689.073          50.393    23312703.172    95461625.1530        689.651          48.893    23312704.158    91484056.0450        660.809          56.993  
G06  21442177.302   112679403.7760       2675.697          55.509                                                                    21442177.850   112679403.7480       2675.895          52.509                                                                    21442178.502    87802135.7830       2084.869          51.009    21442177.744    87802135.8160       2085.381          49.509    21442177.584    84143710.6230       1998.386          57.609  
G11  25102181.174   131912855.4310       3666.784          54.221                                                                    25102182.257   131912855.4110       3666.784          51.221                                                                    25102180.973   102789230.9510       2856.964          49.721    25102179.982   102789230.9200       2856.844          48.221    25102181.140    98506353.0770       2738.277          56.321  
G13  25185158.888   132348901.1070      -2005.624          54.132                                                                    25185158.336   132348901.1320      -2005.785          51.132                                                                    25185156.134   103129004.9580      -1562.921          49.632    25185155.683   103129004.9530      -1563.014          48.132    25185157.911    98831971.6070      -1497.588          56.232  
G14  20468461.015   107562490.1980       -339.806          55.985                                                                    20468460.745   107562490.2170       -340.191          52.985                                                                    20468459.539    83814921.0840       -265.169          51.485    20468459.605    83814921.1660       -265.513          49.985    20468461.101    80322638.8180       -254.074          58.085  
G17  21029429.214   110510395.5280       -548.741          55.661                                                                    21029429.321   110510395.5470       -548.460          52.661                                                                    21029426.582    86111987.6790       -427.558          51.161    21029426.763    86111987.6890       -427.596          49.661    21029428.270    82523996.6980       -409.734          57.761  
G19  21358276.427   112238496.7880       1169.718          55.578                                                                    21358275.427   112238496.8310       1170.161          52.578                                                                    21358271.791    87458556.7430        911.291          51.078    21358272.945    87458556.6960        911.268          49.578    21358275.992    83814461.9080        873.544          57.678  
G24  24836837.341   130518465.0360       2494.464          54.310                                                                    24836838.104   130518464.9790       2494.460          51.310                                                                    24836838.768   101702701.8070       1943.877          49.810    24836838.686   101702701.8480       1943.845          48.310    24836837.841    97465087.5080       1862.909          56.410  
G30  22414530.150   117789148.4520      -3117.322          55.255                                                                    22414530.022   117789148.4070      -3117.093          52.255                                                                    22414530.554    91783754.9790      -2429.303          50.755    22414529.629    91783755.0050      -2428.889          49.255    22414529.193    87959429.0350      -2327.883          57.355  
> 2023 02 19 10 00 28.0000000  0 10                    0
G01  23031420.433   121030935.0360      -3444.528          54.934                                                                    23031421.214   121030935.0740      -3445.264          51.934                                                                    23031422.436    94309823.2160      -2684.946          50.434    23031422.489    94309823.2140      -2684.222          48.934    23031420.876    90380243.7300      -2572.251          57.034  
G03  23312536.638   122508208.4300        873.102          54.893                                                                    23312537.365   122508208.3990        873.069          51.893                                                                    23312537.524    95460943.1370        679.789          50.393    23312537.700    95460943.1120        680.018          48.893    23312536.414    91483402.4340        651.690          56.993  
G06  21441672.783   112676750.3340       2634.297          55.509                                                                    21441673.354   112676750.3260       2635.087          52.509                                                                    21441673.317    87800068.1720       2052.708          51.009    21441672.556    87800068.2210       2052.481          49.509    21441672.506    84141729.1950       1967.400          57.609  
G11  25101489.005   131909217.6020       3613.058          54.221                                                                    25101489.754   131909217.5440       3613.009          51.221                                                                    25101487.074   102786396.2660       2815.135          49.721    25101488.294   102786396.2540       2815.193          48.221    25101489.074    98503636.5340       2698.232          56.321  
G13  25185540.422   132350909.0580      -2014.765          54.132                                                                    25185539.868   132350909.0550      -2014.824          51.132                                                                    25185537.936   103130569.5950      -1570.018          49.632    25185538.215   103130569.5980      -1570.059          48.132    25185541.352    98833470.9910      -1504.438          56.232  
G14  20468525.587   107562831.0510       -339.476          55.985                                                                    20468525.981   107562831.0700       -339.482          52.985                                                                    20468524.901    83815186.7600       -264.725          51.485    20468524.581    83815186.7060       -264.530          49.985    20468525.234    80322893.3430       -253.718          58.085  
G17  21029528.742   110510921.4400       -509.179          55.661                                                                    21029528.514   110510921.4720       -508.812          52.661                                                                    21029526.508    86112397.4580       -396.729          51.161    21029527.797    86112397.4320       -396.707          49.661    21029529.514    82524389.4030       -380.068          57.761  
G19  21358049.660   112237307.8740       1200.277          55.578                                                                    21358049.933   112237307.8580       1200.239          52.578                                                                    21358047.314    87457630.2910        934.969          51.078    21358045.986    87457630.2720        935.088          49.578    21358050.274    83813574.0720        896.043          57.678  
G24  24836356.481   130515930.5050       2562.079          54.311                                                                    24836355.185   130515930.5390       2562.223          51.311                                                                    24836355.979   101700726.8970       1996.072          49.811    24836356.115   101700726.9040       1996.003          48.311    24836355.159    97463194.8140       1913.023          56.411  
G30  22415129.751   117792299.8690      -3177.748          55.255                                                                    22415130.019   117792299.9270      -3178.281          52.255                                                                    22415129.578    91786210.6830      -2476.883          50.755    22415130.510    91786210.6960      -2476.745          49.255    22415129.146    87961782.4040      -2373.575          57.355  
> 2023 02 19 10 00 29.0000000  0 10                    0
G01  23032074.595   121034372.7020      -3439.534          54.933                                                                    23032075.793   121034372.6250      -3440.160          51.933                                                                    23032074.671    94312501.8960      -2680.212          50.433    23032076.492    94312501.8730      -2679.898          48.933    23032075.365    90382810.7330      -2568.625          57.033  
G03  23312369.661   122507326.9780        893.158          54.893                                                                    23312369.414   122507327.0100        892.855          51.893                                                                    23312368.883    95460256.2640        695.762          50.393    23312369.323    95460256.2630        695.660          48.893    23312369.049    91482744.1680        667.002          56.993  
G06  21441171.943   112674121.1470       2633.084          55.509                                                                    21441172.609   112674121.1670       2633.015          52.509                                                                    21441173.343    87798019.4210       2051.397          51.009    21441173.407    87798019.4460       2051.416          49.509    21441172.277    84139765.7880       1966.068          57.609  
G11  25100802.726   131905612.1450       3609.798          54.222                                                                    25100803.640   131905612.1320       3609.575          51.222                                                                    25100801.720   102783586.8360       2812.396          49.722    25100801.696   102783586.8570       2812.518          48.222    25100802.354    98500944.1400       2695.741          56.322  
G13  25185925.675   132352933.5390      -2032.573          54.131                                                                    25185927.065   132352933.5810      -2033.183          51.131                                                                    25185923.747   103132147.1230      -1584.029          49.631    25185923.964   103132147.1400      -1584.230          48.131    25185926.437    98834982.8430      -1517.584          56.231  
G14  20468589.895   107563167.2160       -332.814          55.985                                                                    20468589.626   107563167.2340       -333.048          52.985                                                                    20468589.129    83815448.7240       -259.845          51.485    20468588.051    83815448.7320       -259.582          49.985    20468589.930    80323144.3680       -248.565          58.085  
G17  21029626.370   110511429.8120       -516.732          55.661                                                                    21029625.129   110511429.8320       -516.174          52.661                                                                    21029623.251    86112793.5910       -402.529          51.161    21029623.156    86112793.5930       -402.460          49.661    21029625.853    82524769.0580       -385.885          57.761  
G19  21357822.402   112236113.0220       1183.262          55.579                                                                    21357822.285   112236113.0150       1182.402          52.579                                                                    21357819.573    87456699.2330        920.986          51.079    21357819.084    87456699.2550        921.277          49.579    21357822.386    83812681.8090        883.267          57.679  
G24  24835868.540   130513373.2180       2538.399          54.311                                                                    24835869.917   130513373.1210       2538.038          51.311                                                                    24835869.127   101698734.2040       1977.462          49.811    24835869.807   101698734.1340       1977.335          48.311    24835868.203    97461285.1420       1895.275          56.411  
G30  22415733.996   117795481.3050      -3171.388          55.255                                                                    22415734.951   117795481.2200      -3171.227          52.255                                                                    22415735.511    91788689.6560      -2471.455          50.755    22415735.071    91788689.6640      -2471.113          49.255    22415735.370    87964158.0700      -2368.277          57.355  
> 2023 02 19 10 00 30.0000000  0 10                    0
G01  23032734.584   121037833.2170      -3488.084          54.933                                                                    23032733.859   121037833.2310      -3488.133          51.933                                                                    23032734.869    94315198.4020      -2718.161          50.433    23032735.546    94315198.4090      -2718.317          48.933    23032734.120    90385394.9230      -2604.560          57.033  
G03  23312196.985   122506424.0990        909.059          54.893                                                                    23312197.546   122506424.0350        910.035          51.893                                                                    23312198.912    95459552.6600        708.554          50.393    23312197.263    95459552.6970        708.818          48.893    23312196.913    91482069.8950        679.195          56.993  
G06  21440667.448   112671468.2910       2677.747          55.510                                                                    21440666.609   112671468.3060       2678.120          52.510                                                                    21440669.250    87795952.2650       2086.952          51.010    21440668.288    87795952.2650       2086.647          49.510    21440666.725    84137784.7850       2000.079          57.610  
G11  25100112.471   131901976.5810       3669.091          54.222                                                                    25100111.656   131901976.5810       3668.810          51.222                                                                    25100110.235   102780753.9260       2858.979          49.722    25100110.148   102780753.9980       2858.726          48.222    25100111.563    98498229.2510       2739.455          56.322  
G13  25186313.289   132354966.1930      -2026.608          54.131                                                                    25186313.160   132354966.1180      -2027.030          51.131                                                                    25186310.186   103133730.9680      -1579.304          49.631    25186309.968   103133730.9860      -1579.515          48.131    25186312.313    98836500.7110      -1513.675          56.231  
G14  20468653.523   107563499.5120       -332.821          55.985                                                                    20468654.381   107563499.4970       -333.224          52.985                                                                    20468651.090    83815707.6560       -259.663          51.485    20468652.239    83815707.6380       -259.676          49.985    20468653.526    80323392.5190       -248.802          58.085  
G17  21029728.512   110511968.1730       -563.222          55.661                                                                    21029728.022   110511968.1310       -562.926          52.661                                                                    21029725.563    86113213.0710       -438.970          51.161    21029726.797    86113213.0950       -438.839          49.661    21029728.788    82525171.0730       -420.602          57.761  
G19  21357600.084   112234949.4100       1144.556          55.579                                                                    21357600.428   112234949.4600       1144.752          52.579                                                                    21357597.592    87455792.5830        892.126          51.079    21357597.443    87455792.5510        891.898          49.579    21357600.665    83811812.8860        854.846          57.679  
G24  24835394.297   130510874.6880       2455.853          54.311                                                                    24835393.865   130510874.7190       2455.970          51.311                                                                    24835393.546   101696787.3480       1913.795          49.811    24835394.537   101696787.2980       1913.742          48.311    24835394.049    97459419.4020       1833.930          56.411  
G30  22416332.578   117798620.9540      -3102.470          55.254                                                                    22416332.525   117798620.9920      -3101.703          52.254                                                                    22416332.622    91791136.2050      -2417.574          50.754    22416333.608    91791136.1730      -2417.241          49.254    22416332.351    87966502.6930      -2317.002          57.354  
> 2023 02 19 10 00 31.0000000  0 10                    0
G01  23033402.883   121041351.9370      -3545.453          54.933                                                                    23033403.931   121041351.9250      -3544.666          51.933                                                                    23033405.122    94317940.2650      -2762.587          50.433    23033404.189    94317940.3080      -2762.027          48.933    23033404.505    90388022.5720      -2646.870          57.033  
G03  23312025.164   122505516.7750        901.025          54.893                                                                    23312024.477   122505516.7790        901.018          51.893                                                                    23312024.185    95458845.7520        701.816          50.393    23312025.251    95458845.7170        702.128          48.893    23312025.059    91481392.4130        672.840          56.993  
G06  21440153.433   112668763.8910       2726.146          55.510                                                                    21440153.305   112668763.8430       2726.035          52.510                                                                    21440154.019    87793844.9480       2124.044          51.010    21440153.062    87793844.9010       2124.183          49.510    21440153.008    84135765.2460       2035.967          57.610  
G11  25099406.556   131898271.8970       3733.887          54.222                                                                    25099406.764   131898271.9370       3734.563          51.222                                                                    25099405.403   102777867.2130       2910.152          49.722    25099404.103   102777867.1950       2909.886          48.222    25099406.721    98495462.7800       2788.824          56.322  
G13  25186696.150   132356979.3410      -1998.283          54.131                                                                    25186695.998   132356979.3980      -1997.550          51.131                                                                    25186693.643   103135299.7220      -1556.894          49.631    25186694.448   103135299.6980      -1557.029          48.131    25186695.852    98838004.0630      -1491.924          56.231  
G14  20468717.817   107563836.9600       -342.630          55.985                                                                    20468717.516   107563837.0020       -342.008          52.985                                                                    20468715.563    83815970.6070       -267.015          51.485    20468716.240    83815970.5740       -267.258          49.985    20468718.181    80323644.4680       -255.387          58.085  
G17  21029839.578   110512553.3290       -601.710          55.661                                                                    21029839.094   110512553.3790       -601.793          52.661                                                                    21029837.633    86113669.0750       -469.031          51.161    21029837.846    86113669.0700       -468.912          49.661    21029839.408    82525608.0250       -449.428          57.761  
G19  21357384.370   112233816.5650       1126.950          55.579                                                                    21357385.663   112233816.5700       1127.358          52.579                                                                    21357382.034    87454909.8420        878.434          51.079    21357382.489    87454909.8270        877.834          49.579    21357385.854    83810966.9370        841.648          57.679  
G24  24834932.506   130508451.3620       2401.393          54.311                                                                    24834931.770   130508451.3690       2401.517          51.311                                                                    24834932.917   101694898.9950       1871.250          49.811    24834932.278   101694899.0090       1870.876          48.311    24834932.524    97457609.7670       1793.419          56.411  
G30  22416916.043   117801688.0030      -3039.914          55.254                                                                    22416915.713   117801687.9810      -3039.969          52.254                                                                    22416915.122    91793526.0510      -2368.583          50.754    22416916.146    91793526.0970      -2368.727          49.254    22416915.290    87968793.0070      -2269.822          57.354  
> 2023 02 19 10 00 32.0000000  0 10                    0
G01  23034079.530   121044904.0780      -3546.393          54.933                                                                    23034079.213   121044904.0710      -3546.640          51.933                                                                    23034080.058    94320708.1840      -2763.508          50.433    23034079.853    94320708.1730      -2763.271          48.933    23034079.051    90390675.1150      -2648.375          57.033  
G03  23311856.854   122504625.1890        883.979          54.893                                                                    23311855.177   122504625.2020        883.387          51.893                                                                    23311854.407    95458150.9430        688.726          50.393    23311854.928    95458150.9820        688.404          48.893    23311854.681    91480726.5640        660.068          56.993  
G06  21439632.613   112666033.3120       2723.329          55.510                                                                    21439633.596   112666033.3550       2723.631          52.510                                                                    21439635.032    87791717.2140       2122.377          51.010    21439635.221    87791717.2530       2122.523          49.510    21439633.260    84133726.1520       2033.993          57.610  
G11  25098693.573   131894530.6700       3733.279          54.222                                                                    25098694.934   131894530.5780       3733.522          51.222                                                                    25098692.932   102774951.9130       2908.957          49.722    25098692.751   102774951.8750       2908.956          48.222    25098694.798    98492668.9270       2787.891          56.322  
G13  25187074.226   132358967.6280      -1984.665          54.131                                                                    25187074.410   132358967.6700      -1984.892          51.131                                                                    25187071.727   103136849.0020      -1546.730          49.631    25187071.369   103136849.0260      -1546.572          48.131    25187074.934    98839488.8190      -1481.703          56.231  
G14  20468783.295   107564183.0630       -348.093          55.985                                                                    20468784.100   107564183.1120       -348.144          52.985                                                                    20468782.500    83816240.2580       -271.296          51.485    20468781.571    83816240.3050       -271.376          49.985    20468782.815    80323902.9590       -259.721          58.085  
G17  21029953.893   110513155.2660       -593.247          55.661                                                                    21029954.195   110513155.2940       -593.324          52.661                                                                    21029952.479    86114138.0910       -461.885          51.161    21029952.334    86114138.0530       -462.030          49.661    21029954.164    82526057.4910       -442.932          57.761  
G19  21357169.669   112232684.2360       1142.325          55.579                                                                    21357169.644   112232684.2190       1141.739          52.579                                                                    21357166.681    87454027.4650        889.880          51.079    21357166.615    87454027.4700        889.977          49.579    21357168.929    83810121.3440        853.064          57.679  
G24  24834473.583   130506045.0980       2423.557          54.311                                                                    24834473.903   130506045.1100       2423.688          51.311                                                                    24834475.568   101693024.0280       1888.929          49.811    24834474.762   101693023.9940       1889.046          48.311    24834475.176    97455812.9130       1810.531          56.411  
G30  22417494.044   117804725.4400      -3049.573          55.254                                                                    22417493.813   117804725.4820      -3049.402          52.254                                                                    22417495.361    91795892.9280      -2376.253          50.754    22417494.659    91795892.9260      -2376.784          49.254    22417493.930    87971061.2310      -2277.002          57.354  
> 2023 02 19 10 00 33.0000000  0 10                    0
G01  23034748.751   121048420.9010      -3478.749          54.932                                                                    23034748.533   121048420.8860      -3478.326          51.932                                                                    23034749.395    94323448.5180      -2710.425          50.432    23034750.222    94323448.5390      -2710.496          48.932    23034748.032    90393301.2890      -2597.507          57.032  
G03  23311687.033   122503741.4390        888.913          54.893                                                                    23311687.211   122503741.4150        889.180          51.893                                                                    23311687.767    95457462.3560        692.671          50.393    23311687.346    95457462.3540        692.937          48.893    23311687.742    91480066.6560        663.973          56.993  
G06  21439120.755   112663336.0790       2663.952          55.510                                                                    21439119.774   112663336.1110       2663.740          52.510                                                                    21439121.950    87789615.4900       2075.628          51.010    21439120.351    87789615.4950       2076.093          49.510    21439119.663    84131711.9800       1989.568          57.610  
G11  25097990.997   131890832.5240       3653.544          54.223                                                                    25097990.566   131890832.5030       3653.575          51.223                                                                    25097988.836   102772070.2790       2846.727          49.723    25097988.148   102772070.2300       2846.615          48.223    25097991.151    98489907.4100       2728.089          56.323  
G13  25187453.744   132360964.4660      -2016.140          54.131                                                                    25187453.635   132360964.4470      -2016.551          51.131                                                                    25187452.428   103138404.9820      -1571.517          49.631    25187451.670   103138404.9820      -1571.354          48.131    25187454.400    98840979.9790      -1506.111          56.231  
G14  20468849.128   107564528.1070       -338.999          55.985                                                                    20468848.784   107564528.1180       -339.361          52.985                                                                    20468846.687    83816509.1290       -264.401          51.485    20468848.124    83816509.1240       -264.135          49.985    20468848.886    80324160.5980       -253.647          58.085  
G17  21030062.669   110513726.0390       -544.752          55.661                                                                    21030062.400   110513726.0650       -545.108          52.661                                                                    21030060.522    86114582.8220       -424.548          51.161    21030060.264    86114582.8300       -424.750          49.661    21030062.077    82526483.7130       -406.842          57.761  
G19  21356949.640   112231529.2600       1166.526          55.579                                                                    21356949.462   112231529.2930       1166.549          52.579                                                                    21356946.025    87453127.4710        909.624          51.079    21356946.826    87453127.4300        909.001          49.579    21356950.362    83809258.8250        871.348          57.679  
G24  24834006.919   130503586.8990       2494.659          54.311                                                                    24834006.365   130503586.9420       2494.899          51.311                                                                    24834007.519   101691108.5710       1943.656          49.811    24834007.862   101691108.5390       1943.947          48.311    24834007.181    97453977.2770       1862.948          56.411  
G30  22418080.923   117807810.9800      -3128.340          55.254                                                                    22418081.670   117807810.9330      -3128.052          52.254                                                                    22418081.684    91798297.1770      -2437.597          50.754    22418081.913    91798297.2220      -2437.203          49.254    22418080.855    87973365.3260      -2335.546          57.354  
> 2023 02 19 10 00 34.0000000  0 10                    0
G01  23035401.696   121051856.8070      -3398.298          54.932                                                                    23035403.390   121051856.8110      -3398.300          51.932                                                                    23035403.446    94326125.8930      -2648.403          50.432    23035403.598    94326125.9200      -2648.598          48.932    23035402.550    90395867.0910      -2537.877          57.032  
G03  23311515.090   122502838.3910        918.934          54.893                                                                    23311514.678   122502838.4490        918.531          51.893                                                                    23311514.982    95456758.7080        716.018          50.393    23311514.847    95456758.7040        716.135          48.893    23311514.933    91479392.3420        685.661          56.993  
G06  21438619.896   112660707.2740       2598.073          55.510                                                                    21438619.954   112660707.2480       2598.618          52.510                                                                    21438621.281    87787567.0640       2024.872          51.010    21438620.202    87787567.0450       2024.998          49.510    21438619.445    84129748.9430       1940.255          57.610  
G11  25097304.693   131887227.1610       3563.201          54.223                                                                    25097304.992   131887227.2110       3563.549          51.223                                                                    25097303.572   102769260.8910       2776.973          49.723    25097303.085   102769260.8940       2776.387          48.223    25097304.800    98487215.0580       2661.055          56.323  
G13  25187843.083   132363009.2980      -2072.469          54.131                                                                    25187843.980   132363009.3660      -2072.380          51.131                                                                    25187841.277   103139998.3710      -1614.886          49.631    25187841.074   103139998.3870      -1614.932          48.131    25187843.367    98842506.9750      -1547.588          56.231  
G14  20468911.471   107564858.6550       -321.591          55.985                                                                    20468912.045   107564858.7150       -321.826          52.985                                                                    20468910.427    83816766.7130       -250.526          51.485    20468910.638    83816766.7480       -250.408          49.985    20468911.986    80324407.4600       -240.156          58.085  
G17  21030162.377   110514246.6960       -501.530          55.661                                                                    21030161.211   110514246.7210       -501.636          52.661                                                                    21030159.863    86114988.5810       -390.953          51.161    21030159.381    86114988.5630       -390.762          49.661    21030161.683    82526872.5560       -374.701          57.761  
G19  21356726.590   112230357.3230       1173.270          55.579                                                                    21356727.467   112230357.3540       1172.835          52.579                                                                    21356723.532    87452214.2810        913.996          51.079    21356725.225    87452214.2730        914.324          49.579    21356727.072    83808383.7170        876.136          57.679  
G24  24833527.412   130501063.5580       2543.710          54.312                                                                    24833526.518   130501063.4970       2543.569          51.312                                                                    24833526.989   101689142.2200       1982.027          49.812    24833527.019   101689142.2400       1982.229          48.312    24833526.413    97452092.8660       1899.406          56.412  
G30  22418684.403   117810981.1280      -3204.727          55.253                                                                    22418684.625   117810981.1370      -3204.890          52.253                                                                    22418684.601    91800767.4970      -2497.497          50.753    22418684.840    91800767.5170      -2497.012          49.253    22418683.894    87975732.6970      -2393.672          57.353  
> 2023 02 19 10 00 35.0000000  0 10                    0
G01  23036046.547   121055240.0540      -3382.569          54.932                                                                    23036046.183   121055240.0430      -3383.157          51.932                                                                    23036046.994    94328762.1730      -2635.594          50.432    23036046.970    94328762.1440      -2635.760          48.932    23036046.599    90398393.5400      -2526.051          57.032  
G03  23311338.498   122501906.9980        938.518          54.893                                                                    23311338.285   122501907.0530        938.401          51.893                                                                    23311337.995    95456032.9110        731.263          50.393    23311337.748    95456032.9420        731.383          48.893    23311337.621    91478696.7580        700.609          56.993  
G06  21438127.552   112658120.4280       2587.365          55.511                                                                    21438128.245   112658120.4110       2587.017          52.511                                                                    21438127.855    87785551.3200       2016.129          51.011    21438127.839    87785551.3470       2016.344          49.511    21438127.555    84127817.1990       1932.180          57.611  
G11  25096630.288   131883680.0470       3547.070          54.223                                                                    25096629.693   131883679.9920       3547.810          51.223                                                                    25096627.416   102766496.8530       2764.104          49.723    25096628.113   102766496.8830       2764.297          48.223    25096630.618    98484566.2690       2649.140          56.323  
G13  25188240.403   132365097.9110      -2094.484          54.131                                                                    25188240.205   132365097.9000      -2094.715          51.131                                                                    25188238.429   103141625.8570      -1631.868          49.631    25188239.059   103141625.8690      -1632.198          48.131    25188240.754    98844066.6150      -1564.443          56.231  
G14  20468972.649   107565175.0860       -314.442          55.985                                                                    20468972.098   107565175.1060       -314.382          52.985                                                                    20468970.182    83817013.2400       -244.687          51.485    20468970.719    83817013.3000       -245.172          49.985    20468972.804    80324643.7710       -234.901          58.085  
G17  21030257.306   110514743.7800       -501.027          55.661                                                                    21030256.659   110514743.7870       -501.276          52.661                                                                    21030255.518    86115375.8840       -390.299          51.161    21030253.716    86115375.8770       -390.255          49.661    21030256.271    82527243.6820       -374.000          57.761  
G19  21356504.804   112229189.7460       1160.824          55.579                                                                    21356504.566   112229189.6600       1161.200          52.579                                                                    21356501.750    87451304.4600        904.326          51.079    21356501.504    87451304.4800        904.681          49.579    21356504.441    83807511.7790        866.692          57.679  
G24  24833043.643   130498520.7220       2533.187          54.312                                                                    24833043.820   130498520.6850       2532.264          51.312                                                                    24833042.422   101687160.8450       1973.576          49.812    24833043.267   101687160.8420       1973.200          48.312    24833042.748    97450194.0280       1890.838          56.412  
G30  22419296.438   117814196.2300      -3210.913          55.253                                                                    22419296.613   117814196.2260      -3211.258          52.253                                                                    22419297.155    91803272.7590      -2502.366          50.753    22419296.679    91803272.7380      -2502.241          49.253    22419296.110    87978133.5510      -2397.971          57.353  
> 2023 02 19 10 00 36.0000000  0 10                    0
G01  23036694.500   121058650.2720      -3448.029          54.932                                                                    23036695.190   121058650.2520      -3448.118          51.932                                                                    23036696.092    94331419.5120      -2686.441          50.432    23036695.560    94331419.4680      -2686.688          48.932    23036695.732    90400940.1310      -2574.592          57.032  
G03  23311160.640   122500976.1360        915.954          54.893                                                                    23311160.099   122500976.1000        915.699          51.893                                                                    23311160.657    95455307.5780        713.768          50.393    23311160.812    95455307.5490        713.826          48.893    23311159.822    91478001.6330        683.738          56.993  
G06  21437630.407   112655510.3370       2640.255          55.511                                                                    21437630.916   112655510.3460       2640.057          52.511                                                                    21437631.269    87783517.5290       2057.465          51.011    21437631.310    87783517.5350       2057.445          49.511    21437630.620    84125868.1250       1971.582          57.611  
G11  25095948.951   131880101.3230       3620.520          54.223                                                                    25095949.419   131880101.3310       3621.314          51.223                                                                    25095947.809   102763708.2800       2821.505          49.723    25095947.407   102763708.3030       2821.342          48.223    25095948.423    98481893.8420       2703.839          56.323  
G13  25188635.542   132367175.8550      -2051.498          54.131                                                                    25188636.579   132367175.8840      -2051.586          51.131                                                                    25188633.011   103143245.0500      -1598.784          49.631    25188634.338   103143245.0910      -1598.281          48.131    25188636.183    98845618.3440      -1532.245          56.231  
G14  20469032.889   107565494.8490       -328.319          55.985                                                                    20469032.427   107565494.7650       -328.520          52.985                                                                    20469031.757    83817262.3770       -255.931          51.485    20469030.973    83817262.3710       -255.987          49.985    20469033.259    80324882.4870       -245.308          58.085  
G17  21030354.441   110515261.2830       -537.335          55.661                                                                    21030354.588   110515261.2940       -537.664          52.661                                                                    21030352.871    86115779.1380       -418.935          51.161    21030352.631    86115779.1350       -419.023          49.661    21030355.767    82527630.1780       -401.612          57.761  
G19  21356284.974   112228034.2520       1153.008          55.579                                                                    21356285.159   112228034.2060       1152.818          52.579                                                                    21356281.511    87450404.1100        898.395          51.079    21356281.430    87450404.0900        898.671          49.579    21356285.123    83806648.9480        860.474          57.679  
G24  24832565.191   130496009.6340       2488.619          54.312                                                                    24832565.540   130496009.6610       2488.427          51.312                                                                    24832565.046   101685204.1360       1938.815          49.812    24832565.663   101685204.1470       1938.855          48.312    24832565.746    97448318.9030       1858.496          56.412  
G30  22419902.494   117817379.3640      -3147.871          55.253                                                                    22419901.683   117817379.3640      -3147.707          52.253                                                                    22419902.199    91805753.0700      -2453.205          50.753    22419902.018    91805753.0840      -2452.694          49.253    22419902.067    87980510.5390      -2350.648          57.353  
> 2023 02 19 10 00 37.0000000  0 10                    0
G01  23037360.200   121062141.6290      -3529.495          54.931                                                                    23037358.995   121062141.6650      -3529.734          51.931                                                                    23037360.755    94334140.0900      -2750.498          50.431    23037359.905    94334140.0900      -2750.786          48.931    23037360.228    90403547.3550      -2636.061          57.031  
G03  23310991.565   122500084.6030        866.465          54.893                                                                    23310991.147   122500084.5870        866.802          51.893                                                                    23310991.689    95454612.8730        675.454          50.393    23310991.699    95454612.8600        675.519          48.893    23310990.896    91477335.9290        646.706          56.993  
G06  21437121.211   112652836.4200       2702.929          55.511                                                                    21437121.781   112652836.3950       2703.288          52.511                                                                    21437123.021    87781433.9140       2106.778          51.011    21437122.616    87781433.8870       2106.285          49.511    21437121.446    84123871.3490       2018.339          57.611  
G11  25095250.150   131876433.1690       3709.642          54.223                                                                    25095251.551   131876433.1590       3709.906          51.223                                                                    25095249.469   102760849.9960       2890.466          49.723    25095250.054   102760849.9970       2890.772          48.223    25095249.869    98479154.6330       2770.558          56.323  
G13  25189019.723   132369191.2010      -1980.953          54.130                                                                    25189019.602   132369191.2220      -1981.229          51.130                                                                    25189016.919   103144815.4270      -1543.515          49.630    25189017.315   103144815.4390      -1543.676          48.130    25189019.872    98847123.3190      -1479.008          56.230  
G14  20469098.057   107565835.6440       -353.089          55.985                                                                    20469097.875   107565835.6610       -352.799          52.985                                                                    20469096.855    83817528.0210       -274.907          51.485    20469096.266    83817527.9690       -274.714          49.985    20469098.372    80325137.0600       -263.193          58.085  
G17  21030460.699   110515818.1140       -571.692          55.661                                                                    21030461.308   110515818.1160       -571.649          52.661                                                                    21030458.487    86116213.1090       -445.386          51.161    21030458.854    86116213.0680       -446.331          49.661    21030460.511    82528046.0090       -427.022          57.761  
G19  21356065.792   112226877.8280       1162.912          55.579                                                                    21356064.740   112226877.8870       1162.782          52.579                                                                    21356061.330    87449503.0410        905.998          51.079    21356062.115    87449503.0060        905.986          49.579    21356064.124    83805785.4460        868.100          57.679  
G24  24832095.318   130493536.7410       2463.715          54.312                                                                    24832093.661   130493536.6960       2463.515          51.312                                                                    24832095.105   101683277.2460       1920.079          49.812    24832094.632   101683277.2650       1920.047          48.312    24832094.335    97446472.2190       1839.953          56.412  
G30  22420494.122   117820491.1490      -3081.882          55.253                                                                    22420493.986   117820491.0990      -3082.428          52.253                                                                    22420495.037    91808177.8540      -2401.582          50.753    22420494.555    91808177.8560      -2401.545          49.253    22420494.355    87982834.2950      -2301.703          57.353  
> 2023 02 19 10 00 38.0000000  0 10                    0
G01  23038034.743   121065687.0740      -3545.039          54.931                                                                    23038035.093   121065687.1220      -3545.372          51.931                                                                    23038035.143    94336902.7280      -2762.670          50.431    23038035.334    94336902.7520      -2762.496          48.931    23038034.291    90406194.9080      -2647.481          57.031  
G03  23310828.578   122499233.7910        843.746          54.893                                                                    23310829.182   122499233.8000        844.123          51.893                                                                    23310829.230    95453949.8820        657.760          50.393    23310830.416    95453949.8930        658.167          48.893    23310830.550    91476700.5630        630.289          56.993  
G06  21436605.666   112650122.7550       2711.699          55.511                                                                    21436606.265   112650122.7520       2711.762          52.511                                                                    21436606.327    87779319.3940       2113.139          51.011    21436605.863    87779319.3670       2113.039          49.511    21436606.174    84121844.9010       2025.256          57.611  
G11  25094541.346   131872707.8530       3724.171          54.224                                                                    25094542.448   131872707.8150       3723.906          51.224                                                                    25094540.986   102757947.1200       2901.529          49.724    25094539.908   102757947.1000       2901.326          48.224    25094542.776    98476372.6990       2780.923          56.324  
G13  25189392.939   132371153.9350      -1957.767          54.130                                                                    25189392.467   132371153.8800      -1958.356          51.130                                                                    25189391.162   103146344.8260      -1525.575          49.630    25189390.936   103146344.8010      -1525.330          48.130    25189392.389    98848588.9340      -1462.002          56.230  
G14  20469166.949   107566195.2390       -361.584          55.985                                                                    20469166.054   107566195.2420       -362.006          52.985                                                                    20469165.755    83817808.1830       -282.130          51.485    20469163.771    83817808.1990       -281.840          49.985    20469166.144    80325405.5660       -269.985          58.085  
G17  21030570.572   110516393.1260       -571.529          55.661                                                                    21030570.929   110516393.1280       -570.796          52.661                                                                    21030567.531    86116661.0910       -445.133          51.161    21030568.136    86116661.0870       -444.595          49.661    21030570.870    82528475.3620       -426.369          57.761  
G19  21355840.985   112225707.2540       1177.181          55.579                                                                    21355841.844   112225707.2490       1176.505          52.579                                                                    21355839.124    87448590.8520        917.051          51.079    21355838.800    87448590.8500        916.728          49.579    21355842.724    83804911.3010        878.788          57.679  
G24  24831624.111   130491068.5600       2477.471          54.312                                                                    24831625.032   130491068.5390       2477.835          51.312                                                                    24831625.182   101681353.9770       1930.818          49.812    24831624.149   101681353.9470       1930.745          48.312    24831624.761    97444629.0830       1850.487          56.412  
G30  22421079.801   117823565.1560      -3078.211          55.252                                                                    22421079.680   117823565.1350      -3079.113          52.252                                                                    22421079.277    91810573.1930      -2399.167          50.752    22421079.935    91810573.1970      -2399.027          49.252    22421078.461    87985129.8370      -2298.961          57.352  
> 2023 02 19 10 00 39.0000000  0 10                    0
G01  23038703.045   121069202.0430      -3473.618          54.931                                                                    23038702.466   121069202.0320      -3473.204          51.931                                                                    23038704.823    94339641.6680      -2706.484          50.431    23038703.576    94339641.6340      -2706.398          48.931    23038702.977    90408819.6920      -2593.722          57.031  
G03  23310665.479   122498374.8430        883.946          54.893                                                                    23310666.099   122498374.8410        884.121          51.893                                                                    23310665.979    95453280.5920        688.856          50.393    23310665.322    95453280.5390        688.245          48.893    23310665.844    91476059.1290        660.387          56.993  
G06  21436094.026   112647435.1240       2654.845          55.511                                                                    21436093.525   112647435.0440       2655.279          52.511                                                                    21436095.096    87777225.1570       2068.876          51.011    21436095.077    87777225.1370       2069.170          49.511    21436093.972    84119837.8930       1982.909          57.611  
G11  25093839.497   131869017.4890       3645.077          54.224                                                                    25093840.489   131869017.4630       3644.813          51.224                                                                    25093838.168   102755071.5380       2840.256          49.724    25093838.127   102755071.5360       2840.379          48.224    25093839.467    98473616.9610       2722.084          56.324  
G13  25189770.091   132373135.7200      -2018.017          54.130                                                                    25189769.435   132373135.6770      -2018.424          51.130                                                                    25189768.250   103147889.0440      -1572.507          49.630    25189767.661   103147889.0250      -1572.276          48.130    25189769.755    98850068.8320      -1507.174          56.230  
G14  20469233.738   107566549.2680       -341.586          55.985                                                                    20469234.180   107566549.2550       -341.781          52.985                                                                    20469232.781    83818084.0570       -266.457          51.485    20469232.359    83818084.0630       -266.218          49.985    20469233.833    80325669.9430       -255.029          58.085  
G17  21030675.968   110516949.8240       -539.141          55.661                                                                    21030675.737   110516949.8510       -539.165          52.661                                                                    21030673.626    86117094.8440       -419.941          51.161    21030674.211    86117094.8570       -420.512          49.661    21030676.418    82528891.0650       -402.868          57.761  
G19  21355618.253   112224531.4100       1170.253          55.579                                                                    21355618.683   112224531.3880       1170.354          52.579                                                                    21355615.823    87447674.6590        911.882          51.079    21355615.045    87447674.6390        911.601          49.579    21355618.569    83804033.2260        873.744          57.679  
G24  24831150.164   130488577.4660       2502.410          54.312                                                                    24831149.852   130488577.4530       2502.568          51.312                                                                    24831151.083   101679412.8660       1950.158          49.812    24831151.202   101679412.8950       1949.767          48.312    24831151.060    97442768.8580       1868.919          56.412  
G30  22421669.397   117826670.7420      -3138.975          55.252                                                                    22421669.994   117826670.6910      -3139.187          52.252                                                                    22421670.581    91812993.1070      -2445.628          50.752    22421671.132    91812993.0880      -2445.692          49.252    22421669.055    87987448.8530      -2344.135          57.352  
> 2023 02 19 10 00 40.0000000  0 10                    0
G01  23039354.445   121072626.3300      -3379.252          54.931                                                                    23039355.018   121072626.3380      -3379.687          51.931                                                                    23039356.312    94342309.9830      -2633.335          50.431    23039355.126    94342309.9480      -2633.082          48.931    23039354.263    90411376.8230      -2523.439          57.031  
G03  23310489.592   122497453.8370        957.974          54.894                                                                    23310490.177   122497453.8800        957.956          51.894                                                                    23310490.771    95452562.9370        746.560          50.394    23310490.633    95452562.9380        746.537          48.894    23310490.195    91475371.3500        715.414          56.994  
G06  21435595.678   112644816.7110       2584.917          55.512                                                                    21435595.559   112644816.7300       2584.983          52.512                                                                    21435596.161    87775184.7900       2014.089          51.012    21435596.624    87775184.8260       2014.019          49.512    21435596.461    84117882.5910       1930.513          57.612  
G11  25093155.843   131865424.9320       3545.326          54.224                                                                    25093157.031   131865424.8950       3545.333          51.224                                                                    25093153.894   102752272.1050       2762.518          49.724    25093152.737   102752272.0840       2762.361          48.224    25093156.293    98470934.1810       2647.336          56.324  
G13  25190162.419   132375202.5640      -2113.643          54.130                                                                    25190163.872   132375202.5410      -2114.253          51.130                                                                    25190161.734   103149499.6280      -1647.155          49.630    25190161.702   103149499.5860      -1647.217          48.130    25190163.292    98851612.3060      -1578.660          56.230  
G14  20469295.049   107566874.5910       -309.195          55.985                                                                    20469295.339   107566874.6150       -308.830          52.985                                                                    20469294.087    83818337.5440       -240.753          51.485    20469293.549    83818337.5300       -241.320          49.985    20469295.870    80325912.8700       -230.562          58.085  
G17  21030775.797   110517473.3110       -510.830          55.661                                                                    21030776.622   110517473.3030       -510.967          52.661                                                                    21030772.887    86117502.7730       -397.989          51.161    21030773.936    86117502.7930       -397.788          49.661    21030776.132    82529282.0110       -381.119          57.761  
G19  21355398.544   112223375.1950       1140.492          55.580                                                                    21355398.247   112223375.1960       1140.643          52.580                                                                    21355395.543    87446773.6900        888.622          51.080    21355395.309    87446773.6840        888.381          49.580    21355399.143    83803169.8340        851.865          57.680  
G24  24830673.997   130486071.9140       2503.289          54.313                                                                    24830674.138   130486071.9310       2503.300          51.313                                                                    24830674.130   101677460.4620       1950.611          49.813    24830674.471   101677460.4480       1950.904          48.313    24830673.752    97440897.8250       1869.371          56.413  
G30  22422274.146   117829844.4300      -3203.760          55.252                                                                    22422273.988   117829844.4820      -3203.539          52.252                                                                    22422274.897    91815466.1570      -2496.640          50.752    22422274.703    91815466.1080      -2495.890          49.252    22422272.300    87989818.8870      -2391.914          57.352  
> 2023 02 19 10 00 41.0000000  0 10                    0
G01  23039992.780   121075982.4860      -3347.911          54.930                                                                    23039993.149   121075982.4960      -3348.060          51.930                                                                    23039994.204    94344925.0950      -2608.968          50.430    23039993.733    94344925.1360      -2608.650          48.930    23039992.883    90413883.0400      -2500.081          57.030  
G03  23310303.829   122496470.7800        996.320          54.894                                                                    23310303.143   122496470.7470        996.323          51.894                                                                    23310303.129    95451796.9030        776.411          50.394    23310303.074    95451796.8660        776.870          48.894    23310303.428    91474637.2550        744.434          56.994  
G06  21435107.075   112642247.7320       2564.140          55.512                                                                    21435107.449   112642247.7030       2564.553          52.512                                                                    21435107.643    87773183.0030       1998.147          51.012    21435107.806    87773183.0580       1998.118          49.512    21435106.964    84115964.1980       1914.740          57.612  
G11  25092485.956   131861903.5480       3513.894          54.224                                                                    25092486.313   131861903.5350       3513.766          51.224                                                                    25092484.526   102749528.1740       2738.111          49.724    25092484.027   102749528.2130       2737.700          48.224    25092486.397    98468304.6030       2624.104          56.324  
G13  25190570.799   132377345.6580      -2156.986          54.130                                                                    25190572.181   132377345.6070      -2157.650          51.130                                                                    25190569.278   103151169.5740      -1680.805          49.630    25190568.700   103151169.5290      -1681.104          48.130    25190571.565    98853212.6990      -1610.525          56.230  
G14  20469352.602   107567173.5470       -294.126          55.985                                                                    20469352.651   107567173.5580       -294.331          52.985                                                                    20469351.083    83818570.5120       -229.193          51.485    20469351.045    83818570.5240       -229.417          49.985    20469352.375    80326136.1020       -219.318          58.085  
G17  21030872.471   110517980.5980       -508.678          55.661                                                                    21030873.012   110517980.5490       -509.504          52.661                                                                    21030869.741    86117898.0670       -396.430          51.161    21030870.504    86117898.0760       -396.740          49.661    21030872.127    82529660.8580       -379.909          57.761  
G19  21355184.025   112222248.5470       1117.209          55.580                                                                    21355183.013   112222248.5650       1116.956          52.580                                                                    21355181.051    87445895.7570        870.740          51.080    21355181.567    87445895.7220        870.580          49.580    21355184.172    83802328.4420        833.891          57.680  
G24  24830199.234   130483578.0930       2483.344          54.313                                                                    24830199.175   130483578.0840       2483.409          51.313                                                                    24830200.587   101675517.2530       1934.774          49.813    24830199.402   101675517.2160       1934.969          48.313    24830199.565    97439035.6240       1854.527          56.413  
G30  22422885.031   117833059.2530      -3215.909          55.252                                                                    22422885.751   117833059.2560      -3215.693          52.252                                                                    22422885.297    91817971.1880      -2506.010          50.752    22422885.905    91817971.1840      -2505.567          49.252    22422885.636    87992219.5500      -2401.299          57.352  
> 2023 02 19 10 00 42.0000000  0 10                    0
G01  23040634.728   121079352.0560      -3402.596          54.930                                                                    23040634.387   121079352.0460      -3402.428          51.930                                                                    23040635.474    94347550.7860      -2651.210          50.430    23040635.762    94347550.7840      -2651.124          48.930    23040634.204    90416399.2880      -2540.535          57.030  
G03  23310115.931   122495487.5880        957.250          54.894                                                                    23310117.299   122495487.6330        957.420          51.894                                                                    23310117.208    95451030.7980        745.722          50.394    23310115.995    95451030.8140        745.783          48.894    23310116.362    91473903.1180        714.650          56.994  
G06  21434616.141   112639667.5080       2604.405          55.512                                                                    21434615.749   112639667.4570       2604.356          52.512                                                                    21434615.736    87771172.4290       2029.518          51.012    21434616.702    87771172.3790       2028.901          49.512    21434616.113    84114037.4280       1944.737          57.612  
G11  25091814.429   131858366.5360       3571.361          54.225                                                                    25091812.565   131858366.5380       3571.278          51.225                                                                    25091811.043   102746772.0870       2782.954          49.725    25091810.679   102746772.0810       2783.080          48.225    25091813.399    98465663.3350       2667.147          56.325  
G13  25190977.951   132379483.9200      -2105.391          54.130                                                                    25190978.703   132379484.0010      -2105.642          51.130                                                                    25190976.554   103152835.8270      -1640.642          49.630    25190977.140   103152835.7660      -1640.670          48.130    25190978.777    98854809.4260      -1572.111          56.230  
G14  20469410.342   107567474.2050       -312.297          55.985                                                                    20469409.658   107567474.1870       -312.882          52.985                                                                    20469408.457    83818804.7820       -243.240          51.485    20469408.107    83818804.7820       -243.185          49.985    20469409.724    80326360.5990       -233.221          58.085  
G17  21030970.565   110518498.3350       -527.917          55.661                                                                    21030971.259   110518498.4300       -527.904          52.661                                                                    21030968.719    86118301.5940       -411.741          51.161    21030969.355    86118301.5590       -411.780          49.661    21030970.527    82530047.4830       -394.603          57.761  
G19  21354970.338   112221128.5520       1129.847          55.580                                                                    21354970.290   112221128.5330       1129.530          52.580                                                                    21354967.880    87445022.9710        880.252          51.080    21354968.937    87445023.0000        880.442          49.580    21354969.658    83801492.0710        844.021          57.680  
G24  24829728.396   130481101.0210       2475.464          54.313                                                                    24829728.250   130481101.0130       2475.318          51.313                                                                    24829728.606   101673587.0620       1929.481          49.813    24829729.047   101673587.0520       1929.439          48.313    24829728.142    97437185.7790       1848.806          56.413  
G30  22423494.449   117836257.9860      -3176.732          55.251                                                                    22423493.620   117836257.9660      -3176.184          52.251                                                                    22423494.744    91820463.6660      -2475.085          50.751    22423494.846    91820463.7300      -2475.295          49.251    22423494.846    87994608.2630      -2372.104          57.351  
> 2023 02 19 10 00 43.0000000  0 10                    0
G01  23041290.069   121082796.0270      -3482.575          54.930                                                                    23041290.852   121082796.0800      -3482.432          51.930                                                                    23041291.442    94350234.3910      -2713.795          50.430    23041290.950    94350234.3810      -2713.744          48.930    23041289.898    90418971.0500      -2600.544          57.030  
G03  23309942.361   122494570.6880        876.053          54.894                                                                    23309942.466   122494570.7050        875.880          51.894                                                                    23309942.016    95450316.3390        682.428          50.394    23309941.415    95450316.3350        682.458          48.894    23309941.198    91473218.4010        654.553          56.994  
G06  21434114.406   112637034.2100       2659.813          55.512                                                                    21434115.336   112637034.2060       2659.701          52.512                                                                    21434114.956    87769120.5300       2072.412          51.012    21434115.371    87769120.5080       2072.352          49.512    21434114.076    84112070.9910       1986.055          57.612  
G11  25091124.902   131854752.3090       3652.506          54.225                                                                    25091125.260   131854752.3230       3653.777          51.225                                                                    25091123.396   102743955.7710       2846.832          49.725    25091122.787   102743955.8010       2846.860          48.225    25091124.420    98462964.3600       2728.002          56.325  
G13  25191369.066   132381541.5050      -2010.890          54.130                                                                    25191369.600   132381541.4750      -2010.514          51.130                                                                    25191367.243   103154439.0220      -1566.754          49.630    25191367.280   103154439.0600      -1566.640          48.130    25191369.682    98856345.9290      -1501.515          56.230  
G14  20469472.099   107567803.6770       -346.140          55.985                                                                    20469472.020   107567803.6980       -346.952          52.985                                                                    20469471.417    83819061.5180       -269.856          51.485    20469470.324    83819061.4940       -269.902          49.985    20469472.269    80326606.6320       -258.811          58.085  
G17  21031073.238   110519035.1380       -542.159          55.661                                                                    21031073.151   110519035.1250       -542.654          52.661                                                                    21031071.283    86118719.8050       -423.036          51.161    21031070.220    86118719.7670       -422.730          49.661    21031073.008    82530448.3210       -405.154          57.761  
G19  21354752.502   112219978.9400       1171.329          55.580                                                                    21354751.532   112219978.9290       1171.377          52.580                                                                    21354749.793    87444127.2590        912.587          51.080    21354748.925    87444127.1930        913.202          49.580    21354752.028    83800633.6530        874.311          57.680  
G24  24829255.363   130478615.0420       2499.968          54.313                                                                    24829255.396   130478615.0380       2500.378          51.313                                                                    24829255.307   101671649.9690       1948.549          49.813    24829255.024   101671649.9470       1948.214          48.313    24829255.445    97435329.4060       1867.019          56.413  
G30  22424093.659   117839411.4620      -3134.313          55.251                                                                    22424094.042   117839411.4390      -3135.006          52.251                                                                    22424094.754    91822920.9820      -2441.787          50.751    22424095.141    91822920.9240      -2442.531          49.251    22424094.102    87996963.1320      -2340.667          57.351  
> 2023 02 19 10 00 44.0000000  0 10                    0
G01  23041956.651   121086298.0330      -3508.810          54.930                                                                    23041956.237   121086298.0590      -3508.268          51.930                                                                    23041957.032    94352963.2410      -2733.870          50.430    23041956.781    94352963.2450      -2733.731          48.930    23041956.877    90421586.2320      -2619.844          57.030  
G03  23309779.927   122493722.0950        834.482          54.894                                                                    23309779.645   122493722.0330        834.045          51.894                                                                    23309780.872    95449655.0560        649.986          50.394    23309780.892    95449655.0360        650.135          48.894    23309780.129    91472584.6430        622.875          56.994  
G06  21433607.603   112634362.6330       2674.444          55.512                                                                    21433607.178   112634362.6410       2673.626          52.512                                                                    21433606.691    87767038.8170       2084.004          51.012    21433607.769    87767038.8140       2083.855          49.512    21433607.119    84110075.9630       1997.348          57.612  
G11  25090426.682   131851080.1940       3677.175          54.225                                                                    25090425.736   131851080.2110       3677.131          51.225                                                                    25090424.978   102741094.4230       2865.204          49.725    25090424.871   102741094.4070       2865.058          48.225    25090426.441    98460222.2480       2746.032          56.325  
G13  25191746.786   132383523.3100      -1967.923          54.129                                                                    25191746.774   132383523.3740      -1968.468          51.129                                                                    25191744.355   103155983.3000      -1533.885          49.629    25191743.331   103155983.3100      -1534.146          48.129    25191747.153    98857825.8450      -1470.140          56.229  
G14  20469539.398   107568160.8840       -362.856          55.985                                                                    20469540.601   107568160.7980       -362.556          52.985                                                                    20469538.712    83819339.8560       -283.013          51.485    20469539.737    83819339.8130       -282.467          49.985    20469540.431    80326873.3500       -270.611          58.085  
G17  21031176.546   110519577.3340       -538.452          55.661                                                                    21031176.470   110519577.3200       -539.031          52.661                                                                    21031174.935    86119142.2740       -419.923          51.161    21031174.550    86119142.2950       -420.213          49.661    21031176.123    82530853.2160       -402.501          57.761  
G19  21354526.321   112218790.5660       1198.899          55.580                                                                    21354525.465   112218790.5600       1198.864          52.580                                                                    21354523.480    87443201.1710        934.362          51.080    21354524.315    87443201.2090        934.395          49.580    21354526.673    83799746.1550        895.165          57.680  
G24  24828776.151   130476098.3550       2529.511          54.313                                                                    24828776.073   130476098.3570       2529.756          51.313                                                                    24828775.998   101669688.8720       1971.373          49.813    24828776.004   101669688.8760       1971.489          48.313    24828775.978    97433450.0980       1889.522          56.413  
G30  22424689.042   117842540.5670      -3131.058          55.251                                                                    22424690.143   117842540.5430      -3131.658          52.251                                                                    22424690.256    91825359.2600      -2440.208          50.751    22424690.128    91825359.2040      -2440.299          49.251    22424689.627    87999299.7480      -2338.051          57.351  
> 2023 02 19 10 00 45.0000000  0 10                    0
G01  23042620.148   121089786.2670      -3458.569          54.929                                                                    23042620.122   121089786.2440      -3458.421          51.929                                                                    23042620.694    94355681.2900      -2694.742          50.429    23042620.853    94355681.3120      -2694.304          48.929    23042619.507    90424191.0820      -2582.320          57.029  
G03  23309618.333   122492871.8640        880.281          54.894                                                                    23309618.428   122492871.8510        879.934          51.894                                                                    23309619.349    95448992.5560        686.027          50.394    23309619.899    95448992.5660        685.942          48.894    23309617.921    91471949.7220        657.413          56.994  
G06  21433099.814   112631703.6320       2637.197          55.513                                                                    21433100.530   112631703.6340       2637.826          52.513                                                                    21433102.184    87764966.7610       2055.509          51.013    21433101.190    87764966.7950       2055.275          49.513    21433101.412    84108090.3260       1969.846          57.613  
G11  25089730.595   131847424.5570       3624.714          54.225                                                                    25089730.817   131847424.5920       3624.663          51.225                                                                    25089728.785   102738245.8830       2824.192          49.725    25089730.160   102738245.8730       2824.290          48.225    25089730.816    98457492.3520       2706.522          56.325  
G13  25192124.746   132385512.4150      -2025.024          54.129                                                                    25192125.586   132385512.4470      -2024.945          51.129                                                                    25192123.864   103157533.2700      -1577.604          49.629    25192123.418   103157533.2900      -1577.598          48.129    25192125.219    98859311.1970      -1511.913          56.229  
G14  20469609.069   107568516.3910       -342.921          55.985                                                                    20469607.300   107568516.4020       -343.122          52.985                                                                    20469606.217    83819616.8850       -267.180          51.485    20469606.189    83819616.8490       -267.461          49.985    20469607.804    80327138.8640       -255.959          58.085  
G17  21031276.746   110520110.0950       -526.991          55.660                                                                    21031277.799   110520110.1310       -526.926          52.660                                                                    21031275.598    86119557.4160       -410.466          51.160    21031274.812    86119557.4710       -411.038          49.660    21031277.782    82531251.0500       -393.464          57.760  
G19  21354298.727   112217598.0440       1176.528          55.580                                                                    21354299.157   112217598.0600       1176.851          52.580                                                                    21354296.442    87442272.0300        917.220          51.080    21354295.742    87442272.0090        916.790          49.580    21354299.541    83798855.6620        878.735          57.680  
G24  24828294.942   130473568.5810       2521.263          54.313                                                                    24828293.793   130473568.5670       2519.763          51.313                                                                    24828294.528   101667717.6120       1964.215          49.813    24828295.127   101667717.6290       1964.018          48.313    24828293.287    97431560.9480       1882.080          56.413  
G30  22425288.510   117845685.6810      -3161.262          55.251                                                                    22425288.523   117845685.6290      -3160.853          52.251                                                                    22425289.660    91827809.9440      -2463.777          50.751    22425289.004    91827809.9770      -2463.747          49.251    22425288.435    88001648.3680      -2360.754          57.351  
> 2023 02 19 10 00 46.0000000  0 10                    0
G01  23043271.174   121093206.1080      -3384.055          54.929                                                                    23043271.287   121093206.0380      -3383.842          51.929                                                                    23043272.038    94358346.0820      -2636.801          50.429    23043271.852    94358346.0880      -2636.798          48.929    23043272.630    90426744.7980      -2527.003          57.029  
G03  23309442.160   122491944.2930        976.299          54.894                                                                    23309441.275   122491944.2750        976.326          51.894                                                                    23309442.157    95448269.7300        760.560          50.394    23309442.666    95448269.7510        760.658          48.894    23309441.712    91471257.0930        728.909          56.994  
G06  21432602.857   112629091.3560       2589.158          55.513                                                                    21432603.630   112629091.3820       2589.257          52.513                                                                    21432603.996    87762931.3000       2017.727          51.013    21432604.458    87762931.3110       2017.387          49.513    21432603.085    84106139.6640       1933.153          57.613  
G11  25089047.778   131843837.9990       3551.873          54.226                                                                    25089048.414   131843838.0110       3551.447          51.226                                                                    25089046.608   102735451.1430       2767.415          49.726    25089045.799   102735451.1830       2767.677          48.226    25089048.677    98454814.0990       2652.166          56.326  
G13  25192520.112   132387589.6620      -2129.952          54.129                                                                    25192521.360   132387589.6810      -2130.607          51.129                                                                    25192518.601   103159151.8880      -1659.790          49.629    25192518.858   103159151.9100      -1659.521          48.129    25192520.949    98860862.4180      -1590.349          56.229  
G14  20469669.991   107568840.7280       -305.616          55.985                                                                    20469670.508   107568840.7410       -305.692          52.985                                                                    20469668.724    83819869.6090       -238.252          51.485    20469667.842    83819869.6060       -238.074          49.985    20469670.168    80327381.0630       -228.278          58.085  
G17  21031377.889   110520635.2590       -525.780          55.660                                                                    21031377.249   110520635.2420       -525.383          52.660                                                                    21031375.174    86119966.6530       -409.695          51.160    21031375.277    86119966.6440       -410.102          49.660    21031377.562    82531643.1920       -392.963          57.760  
G19  21354080.187   112216449.6780       1117.731          55.580                                                                    21354080.229   112216449.7050       1117.497          52.580                                                                    21354077.075    87441377.1320        870.636          51.080    21354078.131    87441377.1150        870.607          49.580    21354079.767    83797998.1800        834.766          57.680  
G24  24827819.538   130471072.6570       2466.236          54.314                                                                    24827819.939   130471072.5680       2466.046          51.314                                                                    24827820.467   101665772.7460       1921.824          49.814    24827820.423   101665772.7410       1922.161          48.314    24827819.597    97429697.0830       1841.747          56.414  
G30  22425892.343   117848861.8760      -3187.123          55.251                                                                    22425893.323   117848861.8520      -3187.352          52.251                                                                    22425894.135    91830284.9370      -2483.174          50.751    22425893.892    91830284.9390      -2483.405          49.251    22425892.805    88004020.1830      -2379.838          57.351  
> 2023 02 19 10 00 47.0000000  0 10                    0
G01  23043910.965   121096569.7480      -3354.207          54.929                                                                    23043911.393   121096569.7080      -3353.597          51.929                                                                    23043911.846    94360967.1260      -2613.678          50.429    23043912.496    94360967.1080      -2613.873          48.929    23043911.709    90429256.5990      -2504.681          57.029  
G03  23309249.416   122490932.2330       1034.403          54.894                                                                    23309248.749   122490932.2670       1034.713          51.894                                                                    23309249.957    95447481.1320        806.154          50.394    23309249.687    95447481.1330        806.322          48.894    23309249.147    91470501.3210        772.670          56.994  
G06  21432113.390   112626513.9720       2572.979          55.513                                                                    21432113.065   112626513.9590       2572.565          52.513                                                                    21432114.451    87760922.9140       2004.674          51.013    21432112.805    87760922.9390       2004.802          49.513    21432112.971    84104214.9790       1921.548          57.613  
G11  25088376.209   131840305.1670       3525.068          54.226                                                                    25088376.025   131840305.1500       3524.933          51.226                                                                    25088373.408   102732698.2390       2746.820          49.726    25088374.458   102732698.2190       2746.761          48.226    25088375.995    98452175.8910       2632.381          56.326  
G13  25192932.846   132389755.6720      -2187.757          54.129                                                                    25192932.503   132389755.6670      -2187.478          51.129                                                                    25192929.885   103160839.7540      -1704.646          49.629    25192930.788   103160839.7240      -1704.486          48.129    25192932.915    98862479.9030      -1633.599          56.229  
G14  20469724.941   107569133.0160       -283.678          55.985                                                                    20469725.562   107569132.9360       -283.822          52.985                                                                    20469724.688    83820097.3490       -221.474          51.485    20469724.372    83820097.3200       -221.198          49.985    20469724.973    80327599.2930       -212.240          58.085  
G17  21031478.474   110521166.1530       -536.884          55.660                                                                    21031478.015   110521166.1350       -536.691          52.660                                                                    21031476.927    86120380.2650       -418.037          51.160    21031476.775    86120380.2700       -418.521          49.660    21031478.770    82532039.6180       -400.795          57.760  
G19  21353872.555   112215357.6200       1073.700          55.580                                                                    21353871.574   112215357.6670       1074.108          52.580                                                                    21353871.136    87440526.2300        837.037          51.080    21353869.206    87440526.2310        837.187          49.580    21353872.828    83797182.6590        801.962          57.680  
G24  24827355.453   130468635.1970       2415.021          54.314                                                                    24827356.452   130468635.1450       2414.906          51.314                                                                    24827356.678   101663873.4280       1881.917          49.814    24827356.141   101663873.4070       1881.582          48.314    24827356.020    97427876.9080       1803.423          56.414  
G30  22426498.892   117852049.7360      -3184.077          55.250                                                                    22426499.861   117852049.7120      -3183.917          52.250                                                                    22426500.042    91832768.9190      -2481.269          50.750    22426499.843    91832768.9570      -2480.977          49.250    22426498.939    88006400.7740      -2377.573          57.350  
> 2023 02 19 10 00 48.0000000  0 10                    0
G01  23044551.586   121099935.6450      -3385.384          54.929                                                                    23044551.409   121099935.6460      -3385.623          51.929                                                                    23044553.399    94363589.8810      -2638.227          50.429    23044552.869    94363589.9360      -2637.825          48.929    23044550.986    90431770.1160      -2528.245          57.029  
G03  23309054.367   122489905.6510       1003.227          54.894                                                                    23309053.183   122489905.6540       1004.011          51.894                                                                    23309054.330    95446681.2150        782.078          50.394    23309054.294    95446681.2210        782.033          48.894    23309054.710    91469734.7530        749.443          56.994  
G06  21431622.097   112623932.4300       2593.980          55.513                                                                    21431621.086   112623932.4640       2594.447          52.513                                                                    21431622.553    87758911.3540       2021.344          51.013    21431621.959    87758911.3310       2021.225          49.513    21431621.210    84102287.2270       1937.399          57.613  
G11  25087702.435   131836767.5730       3557.337          54.226                                                                    25087702.997   131836767.5410       3556.832          51.226                                                                    25087700.740   102729941.7410       2771.554          49.726    25087700.616   102729941.7280       2771.430          48.226    25087702.255    98449534.2590       2656.041          56.326  
G13  25193347.385   132391932.6830      -2151.411          54.129                                                                    25193347.022   132391932.6660      -2151.778          51.129                                                                    25193345.130   103162536.0550      -1676.225          49.629    25193345.600   103162536.0580      -1676.149          48.129    25193346.318    98864105.5140      -1606.715          56.229  
G14  20469779.864   107569421.1070       -297.478          55.985                                                                    20469781.080   107569421.1130       -298.261          52.985                                                                    20469778.827    83820321.8670       -231.907          51.485    20469778.978    83820321.8610       -231.900          49.985    20469780.475    80327814.4870       -222.076          58.085  
G17  21031581.248   110521707.1710       -542.947          55.660                                                                    21031581.481   110521707.1620       -543.311          52.660                                                                    21031580.214    86120801.9320       -423.186          51.160    21031578.672    86120801.9300       -423.415          49.660    21031581.408    82532443.6550       -405.431          57.760  
G19  21353667.991   112214281.1680       1089.645          55.580                                                                    21353667.716   112214281.1920       1089.792          52.580                                                                    21353663.996    87439687.4280        849.002          51.080    21353665.310    87439687.4090        848.874          49.580    21353668.238    83796378.8020        813.759          57.680  
G24  24826896.623   130466222.4610       2423.314          54.314                                                                    24826896.094   130466222.4960       2422.667          51.314                                                                    24826896.198   101661993.3970       1887.959          49.814    24826897.292   101661993.4180       1888.088          48.314    24826896.426    97426075.2420       1809.202          56.414  
G30  22427103.457   117855225.3980      -3167.170          55.250                                                                    22427103.189   117855225.3890      -3167.552          52.250                                                                    22427104.084    91835243.5370      -2468.351          50.750    22427104.380    91835243.4880      -2468.369          49.250    22427104.159    88008772.1800      -2365.689          57.350  
> 2023 02 19 10 00 49.0000000  0 10                    0
G01  23045201.487   121103346.4680      -3433.356          54.928                                                                    23045200.727   121103346.4560      -3433.913          51.928                                                                    23045201.288    94366247.6790      -2676.145          50.428    23045201.675    94366247.7080      -2675.811          48.928    23045199.645    90434317.1410      -2564.157          57.028  
G03  23308872.289   122488943.7770        918.001          54.894                                                                    23308871.329   122488943.7480        917.871          51.894                                                                    23308870.460    95445931.6910        715.071          50.394    23308872.226    95445931.6680        715.239          48.894    23308870.929    91469016.4600        685.336          56.994  
G06  21431125.751   112621323.7160       2621.702          55.513                                                                    21431125.010   112621323.6970       2621.187          52.513                                                                    21431126.274    87756878.5260       2042.399          51.013    21431126.153    87756878.4920       2042.259          49.513    21431125.273    84100339.1010       1957.078          57.613  
G11  25087021.796   131833187.2700       3600.884          54.226                                                                    25087021.161   131833187.2780       3600.826          51.226                                                                    25087020.006   102727151.8950       2806.246          49.726    25087019.634   102727151.9130       2805.633          48.226    25087020.311    98446860.6350       2689.002          56.326  
G13  25193748.335   132394041.9600      -2066.586          54.129                                                                    25193747.553   132394041.9390      -2065.976          51.129                                                                    25193745.335   103164179.6860      -1610.134          49.629    25193746.675   103164179.6370      -1610.416          48.129    25193749.553    98865680.6590      -1542.962          56.229  
G14  20469839.531   107569734.4720       -329.892          55.985                                                                    20469840.702   107569734.4220       -329.659          52.985                                                                    20469837.692    83820566.0790       -256.914          51.485    20469838.162    83820566.0230       -256.829          49.985    20469839.514    80328048.4600       -245.894          58.085  
G17  21031684.185   110522245.7440       -531.836          55.660                                                                    21031683.585   110522245.7450       -531.466          52.660                                                                    21031681.286    86121221.5600       -413.855          51.160    21031682.624    86121221.5880       -414.016          49.660    21031683.739    82532845.8400       -396.800          57.760  
G19  21353455.191   112213163.4990       1149.029          55.580                                                                    21353454.992   112213163.5170       1149.169          52.580                                                                    21353452.003    87438816.4590        895.426          51.080    21353452.552    87438816.5150        895.321          49.580    21353454.864    83795544.1170        858.193          57.680  
G24  24826430.154   130463768.8500       2490.004          54.314                                                                    24826429.371   130463768.8580       2490.310          51.314                                                                    24826429.567   101660081.4920       1939.920          49.814    24826430.490   101660081.4310       1940.121          48.314    24826429.838    97424242.9880       1859.354          56.414  
G30  22427705.965   117858390.2130      -3166.667          55.250                                                                    22427706.124   117858390.1650      -3166.516          52.250                                                                    22427706.049    91837709.5850      -2467.465          50.750    22427706.846    91837709.5840      -2467.416          49.250    22427705.383    88011135.5250      -2364.294          57.350  
> 2023 02 19 10 00 50.0000000  0 10                    0
G01  23045856.230   121106791.8790      -3448.908          54.928                                                                    23045856.410   121106791.9150      -3448.769          51.928                                                                    23045856.554    94368932.4560      -2687.388          50.428    23045856.883    94368932.4330      -2687.096          48.928    23045857.227    90436890.0550      -2575.715          57.028  
G03  23308702.187   122488058.6180        863.745          54.894                                                                    23308703.095   122488058.6510        864.204          51.894                                                                    23308703.420    95445241.9880        673.214          50.394    23308702.895    95445241.9430        673.755          48.894    23308703.138    91468355.4520        645.479          56.994  
G06  21430627.185   112618698.8060       2623.893          55.514                                                                    21430625.808   112618698.8060       2623.997          52.514                                                                    21430627.229    87754833.1670       2044.737          51.014    21430626.328    87754833.1810       2044.820          49.514    21430626.146    84098378.9870       1959.514          57.614  
G11  25086335.289   131829578.1750       3609.851          54.227                                                                    25086334.981   131829578.1840       3609.907          51.227                                                                    25086333.231   102724339.6380       2812.719          49.727    25086333.196   102724339.6230       2813.070          48.227    25086334.939    98444165.5240       2695.888          56.327  
G13  25194136.934   132396078.2720      -2018.926          54.129                                                                    25194136.180   132396078.2300      -2019.182          51.129                                                                    25194133.679   103165766.3200      -1573.312          49.629    25194134.141   103165766.3470      -1572.826          48.129    25194136.009    98867201.2680      -1507.643          56.229  
G14  20469903.287   107570075.9310       -348.537          55.985                                                                    20469904.497   107570075.8800       -348.995          52.985                                                                    20469903.105    83820832.0830       -271.558          51.485    20469902.326    83820832.0440       -271.539          49.985    20469904.579    80328303.4050       -260.661          58.085  
G17  21031783.181   110522767.0500       -512.629          55.660                                                                    21031783.805   110522767.0870       -511.985          52.660                                                                    21031780.971    86121627.7970       -398.979          51.160    21031780.581    86121627.8330       -398.986          49.660    21031782.247    82533235.1580       -382.496          57.760  
G19  21353231.317   112211988.2890       1193.466          55.580                                                                    21353231.336   112211988.2750       1193.197          52.580                                                                    21353228.815    87437900.6830        929.612          51.080    21353228.372    87437900.7920        930.115          49.580    21353231.025    83794666.5680        891.193          57.680  
G24  24825949.235   130461244.5690       2549.984          54.314                                                                    24825949.469   130461244.5190       2550.416          51.314                                                                    24825949.998   101658114.4910       1987.475          49.814    24825950.102   101658114.4810       1986.896          48.314    24825949.301    97422357.8960       1904.439          56.414  
G30  22428310.639   117861564.6800      -3184.111          55.250                                                                    22428310.455   117861564.7080      -3184.224          52.250                                                                    22428310.510    91840183.2190      -2481.108          50.750    22428310.815    91840183.2660      -2480.979          49.250    22428310.548    88013506.1200      -2377.951          57.350  
> 2023 02 19 10 00 51.0000000  0 10                    0
G01  23046510.428   121110230.4450      -3424.672          54.928                                                                    23046510.977   121110230.4290      -3424.450          51.928                                                                    23046510.792    94371611.8510      -2667.836          50.428    23046511.853    94371611.8520      -2667.949          48.928    23046510.433    90439457.8130      -2556.508          57.028  
G03  23308536.663   122487186.0720        894.882          54.894                                                                    23308535.960   122487186.0920        894.857          51.894                                                                    23308537.765    95444562.0760        697.240          50.394    23308537.914    95444562.0730        696.868          48.894    23308536.342    91467703.8700        668.387          56.994  
G06  21430128.287   112616082.8040       2606.919          55.514                                                                    21430128.185   112616082.7720       2606.600          52.514                                                                    21430129.018    87752794.7530       2031.238          51.014    21430128.857    87752794.7470       2031.501          49.514    21430128.011    84096425.4310       1946.435          57.614  
G11  25085649.505   131825979.3740       3585.211          54.227                                                                    25085649.742   131825979.3870       3584.969          51.227                                                                    25085648.375   102721535.3410       2793.298          49.727    25085647.750   102721535.3290       2793.082          48.227    25085649.882    98441478.1050       2677.230          56.327  
G13  25194521.907   132398107.9960      -2052.739          54.129                                                                    25194522.859   132398107.9570      -2053.158          51.129                                                                    25194520.399   103167347.9760      -1599.867          49.629    25194519.780   103167347.9640      -1599.570          48.129    25194522.973    98868716.9680      -1533.055          56.229  
G14  20469970.513   107570420.8460       -336.315          55.985                                                                    20469970.911   107570420.8440       -337.035          52.985                                                                    20469968.799    83821100.8570       -262.260          51.485    20469969.598    83821100.8920       -262.573          49.985    20469970.246    80328561.0130       -251.442          58.085  
G17  21031879.883   110523276.1930       -510.531          55.660                                                                    21031879.592   110523276.1880       -510.810          52.660                                                                    21031878.081    86122024.5260       -398.106          51.160    21031878.380    86122024.4930       -397.698          49.660    21031880.796    82533615.3380       -381.059          57.760  
G19  21353004.262   112210798.4940       1175.030          55.581                                                                    21353004.689   112210798.3990       1174.688          52.581                                                                    21353001.882    87436973.6270        915.548          51.081    21353001.477    87436973.6010        915.751          49.581    21353004.728    83793778.1120        877.213          57.681  
G24  24825464.035   130458694.5690       2533.915          54.314                                                                    24825465.023   130458694.5340       2534.316          51.314                                                                    24825464.641   101656127.4970       1974.561          49.814    24825465.191   101656127.5050       1975.215          48.314    24825464.347    97420453.7560       1892.670          56.414  
G30  22428917.146   117864756.1770      -3194.771          55.249                                                                    22428917.652   117864756.1880      -3194.575          52.249                                                                    22428916.763    91842670.1170      -2489.204          50.749    22428918.328    91842670.1180      -2489.288          49.249    22428917.307    88015889.3720      -2385.387          57.349  
> 2023 02 19 10 00 52.0000000  0 10                    0
G01  23047158.401   121113638.5140      -3395.353          54.928                                                                    23047158.978   121113638.5590      -3396.158          51.928                                                                    23047159.114    94374267.4750      -2645.929          50.428    23047159.234    94374267.4840      -2646.006          48.928    23047158.573    90442002.8200      -2535.370          57.028  
G03  23308357.984   122486250.9990        977.966          54.894                                                                    23308358.595   122486250.9580        978.412          51.894                                                                    23308358.131    95443833.3900        762.041          50.394    23308358.986    95443833.4220        762.382          48.894    23308359.107    91467005.6030        730.359          56.994  
G06  21429633.114   112613482.9030       2596.164          55.514                                                                    21429633.437   112613482.9270       2595.943          52.514                                                                    21429633.819    87750768.8240       2023.173          51.014    21429635.005    87750768.8800       2022.721          49.514    21429633.517    84094484.0050       1938.594          57.614  
G11  25084969.996   131822407.2650       3563.647          54.227                                                                    25084971.666   131822407.2300       3563.081          51.227                                                                    25084968.955   102718751.8610       2776.733          49.727    25084967.772   102718751.8580       2776.945          48.227    25084970.239    98438810.5920       2661.144          56.327  
G13  25194920.069   132400199.1820      -2129.995          54.128                                                                    25194920.379   132400199.1760      -2130.431          51.128                                                                    25194918.444   103168977.4930      -1659.983          49.628    25194918.285   103168977.4800      -1659.324          48.128    25194920.681    98870278.6280      -1590.411          56.228  
G14  20470030.857   107570743.2080       -307.414          55.985                                                                    20470032.079   107570743.2000       -307.068          52.985                                                                    20470029.478    83821352.0400       -239.444          51.485    20470030.585    83821352.0380       -239.482          49.985    20470031.187    80328801.7620       -229.116          58.085  
G17  21031980.258   110523798.0670       -536.763          55.660                                                                    21031979.143   110523798.0410       -536.390          52.660                                                                    21031976.651    86122431.1930       -417.950          51.160    21031977.476    86122431.1870       -418.050          49.660    21031979.729    82534004.9980       -400.739          57.760  
G19  21352787.268   112209655.5860       1107.748          55.581                                                                    21352787.737   112209655.6600       1106.714          52.581                                                                    21352784.879    87436083.0570        862.668          51.081    21352784.977    87436083.0530        862.714          49.581    21352787.257    83792924.6110        826.672          57.681  
G24  24824990.362   130456201.3000       2445.658          54.315                                                                    24824989.877   130456201.2650       2444.853          51.315                                                                    24824989.768   101654184.6610       1905.674          49.815    24824989.999   101654184.6660       1905.270          48.315    24824989.797    97418591.8750       1826.018          56.415  
G30  22429523.131   117867942.9410      -3173.583          55.249                                                                    22429523.336   117867942.8640      -3173.685          52.249                                                                    22429524.591    91845153.2260      -2473.204          50.749    22429525.070    91845153.2910      -2472.623          49.249    22429523.991    88018269.0540      -2369.674          57.349  
> 2023 02 19 10 00 53.0000000  0 10                    0
G01  23047805.008   121117030.7840      -3394.556          54.927                                                                    23047804.376   121117030.8370      -3394.566          51.927                                                                    23047805.308    94376910.8810      -2645.125          50.427    23047805.480    94376910.8500      -2645.003          48.927    23047804.280    90444536.0480      -2534.877          57.027  
G03  23308164.846   122485238.8550       1035.988          54.894                                                                    23308166.077   122485238.8460       1036.339          51.894                                                                    23308167.171    95443044.7400        807.475          50.394    23308165.831    95443044.7050        807.220          48.894    23308165.862    91466249.7590        773.539          56.994  
G06  21429138.296   112610883.6370       2605.103          55.514                                                                    21429139.248   112610883.6820       2605.498          52.514                                                                    21429139.359    87748743.4580       2030.114          51.014    21429139.536    87748743.4450       2029.735          49.514    21429138.131    84092542.9500       1945.472          57.614  
G11  25084291.514   131818842.2950       3571.153          54.227                                                                    25084291.164   131818842.3170       3571.591          51.227                                                                    25084290.329   102715974.0350       2782.247          49.727    25084290.227   102715973.9690       2782.812          48.227    25084292.336    98436148.5010       2666.507          56.327  
G13  25195331.014   132402357.1920      -2176.199          54.128                                                                    25195331.096   132402357.1990      -2176.013          51.128                                                                    25195328.382   103170659.0850      -1695.341          49.628    25195328.454   103170659.1290      -1695.458          48.128    25195331.059    98871890.1220      -1624.756          56.228  
G14  20470088.626   107571039.8110       -289.656          55.984                                                                    20470088.238   107571039.8450       -288.891          52.984                                                                    20470086.608    83821583.1910       -225.439          51.484    20470087.424    83821583.2130       -225.279          49.984    20470088.434    80329023.2830       -216.483          58.084  
G17  21032085.352   110524352.0380       -569.510          55.660                                                                    21032085.341   110524352.0340       -569.254          52.660                                                                    21032082.134    86122862.8250       -444.195          51.160    21032082.617    86122862.8650       -443.788          49.660    21032084.379    82534418.7680       -425.420          57.760  
G19  21352583.436   112208580.1400       1051.101          55.581                                                                    21352582.779   112208580.1700       1050.977          52.581                                                                    21352580.513    87435245.0680        819.518          51.081    21352579.819    87435245.0450        819.276          49.581    21352582.847    83792121.5580        784.933          57.681  
G24  24824533.781   130453802.9000       2360.535          54.315                                                                    24824532.699   130453802.9110       2360.494          51.315                                                                    24824533.661   101652315.8220       1839.005          49.815    24824533.104   101652315.8480       1839.513          48.315    24824534.228    97416800.8830       1762.370          56.415  
G30  22430124.131   117871097.4870      -3136.199          55.249                                                                    22430124.765   117871097.4280      -3136.107          52.249                                                                    22430124.280    91847611.3750      -2443.652          50.749    22430125.211    91847611.3750      -2443.498          49.249    22430124.379    88020624.7060      -2342.108          57.349  
> 2023 02 19 10 00 54.0000000  0 10                    0
G01  23048452.620   121120434.0850      -3413.305          54.927                                                                    23048452.612   121120434.1570      -3412.352          51.927                                                                    23048452.884    94379562.7730      -2659.240          50.427    23048453.966    94379562.7340      -2659.223          48.927    23048453.027    90447077.4080      -2548.208          57.027  
G03  23307968.875   122484204.2140       1021.551          54.894                                                                    23307969.350   122484204.1470       1021.189          51.894                                                                    23307969.681    95442238.4900        795.556          50.394    23307968.351    95442238.4410        795.571          48.894    23307969.057    91465477.1410        763.037          56.994  
G06  21428641.762   112608271.2680       2617.927          55.514                                                                    21428641.642   112608271.2020       2617.293          52.514                                                                    21428642.435    87746707.7940       2039.627          51.014    21428642.422    87746707.8370       2040.025          49.514    21428641.005    84090592.1520       1955.019          57.614  
G11  25083610.257   131815261.3410       3589.893          54.228                                                                    25083610.300   131815261.2910       3589.398          51.228                                                                    25083608.705   102713183.5810       2797.326          49.728    25083608.516   102713183.6030       2797.174          48.228    25083610.188    98433474.3250       2680.987          56.328  
G13  25195744.358   132404528.9680      -2157.701          54.128                                                                    25195744.845   132404528.9520      -2157.936          51.128                                                                    25195741.538   103172351.3180      -1681.317          49.628    25195741.309   103172351.3250      -1681.567          48.128    25195744.437    98873511.8330      -1611.470          56.228  
G14  20470143.733   107571330.7420       -296.274          55.984                                                                    20470144.087   107571330.6520       -295.836          52.984                                                                    20470141.887    83821809.8580       -230.511          51.484    20470142.609    83821809.8230       -230.889          49.984    20470143.892    80329240.4620       -221.461          58.084  
G17  21032194.781   110524927.4730       -574.860          55.660                                                                    21032194.014   110524927.4240       -575.048          52.660                                                                    21032192.895    86123311.2600       -447.757          51.160    21032192.071    86123311.2110       -448.051          49.660    21032194.101    82534848.4280       -429.200          57.760  
G19  21352383.320   112207531.7910       1056.800          55.581                                                                    21352383.929   112207531.8760       1056.208          52.581                                                                    21352379.643    87434428.1730        823.382          51.081    21352379.582    87434428.1860        823.111          49.581    21352383.221    83791338.7030        789.061          57.681  
G24  24824085.402   130451451.1360       2359.288          54.315                                                                    24824086.498   130451451.1600       2360.413          51.315                                                                    24824086.937   101650483.2680       1839.098          49.815    24824086.724   101650483.2630       1838.924          48.315    24824086.594    97415044.6950       1762.355          56.415  
G30  22430720.448   117874223.9760      -3123.913          55.249                                                                    22430718.925   117874223.9610      -3123.795          52.249                                                                    22430720.103    91850047.5920      -2434.553          50.749    22430719.225    91850047.5800      -2434.562          49.249    22430719.097    88022959.4260      -2332.808          57.349  
> 2023 02 19 10 00 55.0000000  0 10                    0
G01  23049101.452   121123851.1690      -3417.302          54.927                                                                    23049102.901   121123851.1690      -3416.990          51.927                                                                    23049103.220    94382225.4090      -2662.551          50.427    23049103.553    94382225.4390      -2662.881          48.927    23049102.690    90449629.1180      -2551.570          57.027  
G03  23307780.216   122483212.0430        960.724          54.895                                                                    23307779.925   122483212.0180        960.688          51.895                                                                    23307780.530    95441465.4120        748.936          50.395    23307779.880    95441465.4240        748.781          48.895    23307779.936    91464736.2550        717.528          56.995  
G06  21428143.725   112605654.9410       2610.278          55.515                                                                    21428143.883   112605654.9310       2610.485          52.515                                                                    21428144.511    87744669.1510       2033.828          51.015    21428144.294    87744669.1400       2033.959          49.515    21428143.595    84088638.4070       1949.371          57.615  
G11  25082927.444   131811670.8230       3585.550          54.228                                                                    25082926.804   131811670.8270       3585.752          51.228                                                                    25082925.089   102710385.8180       2793.939          49.728    25082925.049   102710385.7860       2794.292          48.228    25082926.391    98430793.1340       2677.560          56.328  
G13  25196150.525   132406662.6360      -2109.057          54.128                                                                    25196150.341   132406662.6230      -2109.601          51.128                                                                    25196147.568   103174013.9820      -1643.759          49.628    25196148.104   103174013.9440      -1643.817          48.128    25196150.201    98875105.1930      -1575.147          56.228  
G14  20470200.962   107571636.6680       -315.764          55.984                                                                    20470201.243   107571636.6630       -316.066          52.984                                                                    20470200.176    83822048.2150       -246.090          51.484    20470200.328    83822048.2230       -246.201          49.984    20470201.848    80329468.8740       -236.158          58.084  
G17  21032300.607   110525489.3760       -544.373          55.660                                                                    21032301.044   110525489.3790       -544.189          52.660                                                                    21032299.133    86123749.0540       -423.853          51.160    21032299.388    86123749.0640       -423.924          49.660    21032300.665    82535268.0650       -406.542          57.760  
G19  21352177.692   112206449.6130       1112.002          55.581                                                                    21352176.859   112206449.5750       1112.489          52.581                                                                    21352174.535    87433584.9120        866.860          51.081    21352175.211    87433584.8820        866.674          49.581    21352178.056    83790530.5300        830.149          57.681  
G24  24823629.690   130449054.3750       2442.386          54.315                                                                    24823629.781   130449054.3740       2442.669          51.315                                                                    24823629.927   101648615.6230       1902.841          49.815    24823629.717   101648615.6510       1903.190          48.315    24823629.072    97413254.8890       1823.839          56.415  
G30  22431316.719   117877362.3950      -3159.252          55.248                                                                    22431316.103   117877362.4050      -3159.652          52.248                                                                    22431317.910    91852493.1250      -2461.763          50.748    22431316.714    91852493.1620      -2461.994          49.248    22431315.390    88025303.1480      -2359.445          57.348  
> 2023 02 19 10 00 56.0000000  0 10                    0
G01  23049751.173   121127259.9160      -3397.544          54.927                                                                    23049751.181   121127259.8500      -3397.770          51.927                                                                    23049752.391    94384881.5100      -2647.657          50.427    23049751.652    94384881.4810      -2647.422          48.927    23049751.746    90452174.6060      -2537.034          57.027  
G03  23307601.711   122482275.7980        920.002          54.895                                                                    23307601.408   122482275.7970        920.148          51.895                                                                    23307603.105    95440735.9070        716.583          50.395    23307601.962    95440735.8790        716.507          48.895    23307601.477    91464037.1350        686.795          56.995  
G06  21427648.972   112603056.6090       2585.514          55.515                                                                    21427648.572   112603056.5840       2585.156          52.515                                                                    21427650.069    87742644.5030       2014.634          51.015    21427650.083    87742644.4670       2014.597          49.515    21427649.471    84086698.1110       1930.610          57.615  
G11  25082247.814   131808098.9810       3555.725          54.228                                                                    25082248.236   131808099.0030       3555.943          51.228                                                                    25082245.357   102707602.5520       2770.953          49.728    25082245.618   102707602.5640       2770.936          48.228    25082246.983    98428125.8860       2655.674          56.328  
G13  25196548.766   132408756.7440      -2086.381          54.128                                                                    25196549.768   132408756.7710      -2086.164          51.128                                                                    25196546.928   103175645.7160      -1625.331          49.628    25196546.903   103175645.7500      -1625.744          48.128    25196548.253    98876669.0430      -1558.001          56.228  
G14  20470262.655   107571959.7470       -327.297          55.984                                                                    20470262.545   107571959.7150       -326.943          52.984                                                                    20470262.621    83822299.9500       -255.212          51.484    20470262.407    83822299.9590       -254.524          49.984    20470263.188    80329710.1110       -244.453          58.084  
G17  21032400.696   110526013.1620       -506.122          55.660                                                                    21032400.810   110526013.1930       -505.798          52.660                                                                    21032399.395    86124157.2210       -394.117          51.160    21032398.974    86124157.2170       -394.371          49.660    21032401.141    82535659.2320       -378.001          57.760  
G19  21351959.701   112205310.4390       1159.784          55.581                                                                    21351960.752   112205310.4530       1159.393          52.581                                                                    21351958.548    87432697.2300        903.621          51.081    21351957.697    87432697.2080        904.052          49.581    21351960.465    83789679.8800        865.933          57.681  
G24  24823156.295   130446566.9880       2523.513          54.315                                                                    24823156.736   130446566.9800       2524.307          51.315                                                                    24823157.276   101646677.4160       1966.521          49.815    24823156.725   101646677.3930       1966.834          48.315    24823156.302    97411397.4590       1884.683          56.415  
G30  22431922.968   117880548.5750      -3211.028          55.248                                                                    22431923.419   117880548.5830      -3210.427          52.248                                                                    22431923.611    91854975.8720      -2501.699          50.748    22431923.063    91854975.8840      -2501.738          49.248    22431922.102    88027682.3690      -2397.457          57.348  
> 2023 02 19 10 00 57.0000000  0 10                    0
G01  23050394.850   121130647.0370      -3380.744          54.927                                                                    23050395.440   121130647.0510      -3380.536          51.927                                                                    23050396.575    94387520.8720      -2633.823          50.427    23050396.112    94387520.8680      -2634.006          48.927    23050395.912    90454703.9210      -2524.629          57.027  
G03  23307427.244   122481353.2710        934.385          54.895                                                                    23307425.811   122481353.2270        934.472          51.895                                                                    23307426.837    95440017.0120        727.718          50.395    23307426.533    95440017.0160        728.033          48.895    23307426.215    91463348.2230        697.777          56.995  
G06  21427159.084   112600480.2150       2572.450          55.515                                                                    21427157.741   112600480.2130       2572.410          52.515                                                                    21427159.349    87740636.8730       2004.786          51.015    21427159.367    87740636.8660       2004.034          49.515    21427159.066    84084774.1650       1920.755          57.615  
G11  25081573.306   131804554.9420       3538.188          54.228                                                                    25081573.138   131804554.8890       3537.701          51.228                                                                    25081570.988   102704840.9690       2756.853          49.728    25081570.889   102704840.9390       2756.748          48.228    25081573.223    98425479.3210       2641.732          56.328  
G13  25196946.960   132410849.3880      -2104.833          54.128                                                                    25196947.508   132410849.4280      -2104.197          51.128                                                                    25196944.685   103177276.4200      -1639.693          49.628    25196944.352   103177276.3850      -1640.213          48.128    25196947.516    98878231.7030      -1571.641          56.228  
G14  20470324.557   107572285.1460       -321.482          55.984                                                                    20470325.268   107572285.1400       -321.223          52.984                                                                    20470323.250    83822553.5960       -250.446          51.484    20470323.262    83822553.5980       -250.341          49.984    20470325.041    80329953.1690       -239.953          58.084  
G17  21032496.584   110526512.9940       -501.884          55.660                                                                    21032496.851   110526512.9730       -501.801          52.660                                                                    21032494.274    86124546.7010       -390.763          51.160    21032494.501    86124546.6770       -390.855          49.660    21032496.039    82536032.3940       -374.427          57.760  
G19  21351738.811   112204148.9830       1153.586          55.581                                                                    21351739.500   112204148.9820       1153.293          52.581                                                                    21351736.819    87431792.1680        898.100          51.081    21351736.275    87431792.1910        898.303          49.581    21351739.936    83788812.5380        861.180          57.681  
G24  24822674.300   130444035.3460       2521.413          54.315                                                                    24822674.863   130444035.3290       2521.838          51.315                                                                    24822675.362   101644704.7250       1965.596          49.815    24822674.697   101644704.6910       1965.138          48.315    24822675.187    97409506.8860       1883.141          56.415  
G30  22432535.955   117883770.1140      -3222.265          55.248                                                                    22432535.485   117883770.1140      -3221.568          52.248                                                                    22432536.015    91857486.2190      -2510.568          50.748    22432535.940    91857486.1750      -2510.561          49.248    22432535.690    88030088.1040      -2405.520          57.348  
> 2023 02 19 10 00 58.0000000  0 10                    0
G01  23051039.955   121134033.3230      -3398.586          54.926                                                                    23051040.147   121134033.2830      -3398.349          51.926                                                                    23051041.090    94390159.5640      -2648.425          50.426    23051041.748    94390159.5410      -2648.466          48.926    23051040.201    90457232.6810      -2538.293          57.026  
G03  23307245.165   122480396.8570        979.526          54.895                                                                    23307243.397   122480396.8390        980.158          51.895                                                                    23307244.708    95439271.7760        763.230          50.395    23307244.929    95439271.7900        763.121          48.895    23307244.407    91462634.0550        731.621          56.995  
G06  21426668.009   112597899.0470       2596.359          55.515                                                                    21426667.570   112597899.0530       2595.772          52.515                                                                    21426669.100    87738625.5380       2023.030          51.015    21426668.707    87738625.5840       2022.929          49.515    21426667.600    84082846.6610       1938.544          57.615  
G11  25080897.476   131801006.9400       3565.866          54.228                                                                    25080897.885   131801006.9810       3566.054          51.228                                                                    25080896.266   102702076.3270       2779.023          49.728    25080896.170   102702076.3010       2778.594          48.228    25080898.051    98422829.8660       2662.994          56.328  
G13  25197349.795   132412969.2880      -2133.111          54.128                                                                    25197350.249   132412969.3060      -2133.109          51.128                                                                    25197348.178   103178928.2360      -1661.884          49.628    25197347.235   103178928.2380      -1662.439          48.128    25197351.106    98879814.7400      -1592.774          56.228  
G14  20470385.479   107572600.1120       -308.199          55.984                                                                    20470385.066   107572600.0620       -308.429          52.984                                                                    20470383.806    83822798.9770       -240.569          51.484    20470384.352    83822798.9690       -240.846          49.984    20470385.159    80330188.3350       -230.981          58.084  
G17  21032595.102   110527031.6440       -542.109          55.660                                                                    21032594.958   110527031.6490       -541.726          52.660                                                                    21032593.120    86124950.8730       -421.773          51.160    21032592.532    86124950.8070       -421.883          49.660    21032595.541    82536419.7500       -404.409          57.760  
G19  21351524.775   112203020.2300       1100.527          55.581                                                                    21351525.151   112203020.2180       1101.157          52.581                                                                    21351521.793    87430912.6060        857.671          51.081    21351521.537    87430912.6370        857.694          49.581    21351525.001    83787969.6010        821.741          57.681  
G24  24822203.359   130441552.9910       2433.206          54.316                                                                    24822202.413   130441553.0090       2433.727          51.316                                                                    24822202.812   101642770.4320       1896.556          49.816    24822203.020   101642770.3860       1896.752          48.316    24822202.644    97407653.1690       1816.955          56.416  
G30  22433144.549   117886970.3640      -3169.826          55.248                                                                    22433145.255   117886970.3220      -3169.751          52.248                                                                    22433145.347    91859979.8380      -2469.851          50.748    22433145.782    91859979.8270      -2470.115          49.248    22433144.981    88032477.8660      -2367.124          57.348  
> 2023 02 19 10 00 59.0000000  0 10                    0
G01  23051691.400   121137454.3030      -3444.348          54.926                                                                    23051690.987   121137454.3570      -3444.402          51.926                                                                    23051692.193    94392825.2410      -2684.053          50.426    23051692.013    94392825.2700      -2684.277          48.926    23051691.857    90459787.3610      -2572.123          57.026  
G03  23307054.378   122479400.9380       1005.975          54.895                                                                    23307055.626   122479400.9150       1005.550          51.895                                                                    23307056.031    95438495.7080        784.497          50.395    23307054.953    95438495.6630        783.773          48.895    23307055.927    91461890.2800        751.378          56.995  
G06  21426169.028   112595280.8660       2640.458          55.515                                                                    21426169.474   112595280.8780       2639.989          52.515                                                                    21426170.169    87736585.4660       2057.121          51.015    21426169.709    87736585.4240       2057.664          49.515    21426169.769    84080891.5210       1971.810          57.615  
G11  25080214.477   131797412.4200       3623.251          54.229                                                                    25080213.854   131797412.4670       3623.410          51.229                                                                    25080212.180   102699275.3450       2823.454          49.729    25080211.877   102699275.4000       2824.054          48.229    25080214.255    98420145.6410       2705.950          56.329  
G13  25197756.447   132415106.6750      -2136.429          54.127                                                                    25197757.239   132415106.7170      -2136.138          51.127                                                                    25197753.395   103180593.7660      -1664.652          49.627    25197754.954   103180593.7230      -1664.549          48.127    25197757.726    98881410.8280      -1595.232          56.227  
G14  20470443.324   107572906.1980       -305.090          55.984                                                                    20470443.912   107572906.1840       -305.902          52.984                                                                    20470442.613    83823037.5030       -238.118          51.484    20470441.906    83823037.5030       -238.073          49.984    20470442.969    80330416.9430       -227.613          58.084  
G17  21032703.453   110527599.6140       -592.242          55.660                                                                    21032702.991   110527599.5700       -592.191          52.660                                                                    21032700.714    86125393.3960       -461.518          51.160    21032700.335    86125393.4020       -461.225          49.660    21032703.040    82536843.8610       -442.289          57.760  
G19  21351320.052   112201945.8040       1052.807          55.581                                                                    21351320.197   112201945.8020       1053.539          52.581                                                                    21351317.504    87430075.3860        820.620          51.081    21351317.385    87430075.4400        820.620          49.581    21351320.328    83787167.3120        786.686          57.681  
G24  24821749.599   130439170.0080       2340.112          54.316                                                                    24821748.715   130439170.0070       2339.715          51.316                                                                    24821749.895   101640913.5640       1823.304          49.816    24821749.368   101640913.5750       1823.264          48.316    24821749.173    97405873.6840       1747.291          56.416  
G30  22433740.844   117890102.4100      -3096.496          55.247                                                                    22433740.774   117890102.4070      -3096.585          52.247                                                                    22433741.404    91862420.3600      -2413.021          50.747    22433741.582    91862420.3650      -2413.096          49.247    22433740.887    88034816.7070      -2312.479          57.347  
> 2023 02 19 10 01  0.0000000  0 10                    0
G01  23052351.057   121140916.0440      -3471.322          54.926                                                                    23052350.187   121140916.0420      -3471.203          51.926                                                                    23052350.197    94395522.6830      -2705.189          50.426    23052350.579    94395522.7010      -2705.011          48.926    23052350.316    90462372.3810      -2592.520          57.026  
G03  23306864.579   122478397.6290        994.998          54.895                                                                    23306864.154   122478397.6000        994.922          51.895                                                                    23306864.665    95437713.9230        775.020          50.395    23306865.010    95437713.9330        776.010          48.895    23306864.083    91461141.0640        743.220          56.995  
G06  21425664.084   112592626.2570       2661.487          55.516                                                                    21425664.499   112592626.2630       2660.997          52.516                                                                    21425664.626    87734516.9060       2074.090          51.016    21425664.626    87734516.8930       2074.046          49.516    21425663.860    84078909.2180       1987.617          57.616  
G11  25079521.109   131793769.1400       3653.303          54.229                                                                    25079520.111   131793769.1740       3653.306          51.229                                                                    25079519.008   102696436.4420       2846.691          49.729    25079518.448   102696436.4860       2846.647          48.229    25079521.062    98417425.0120       2727.882          56.329  
G13  25198162.239   132417234.0310      -2117.577          54.127                                                                    25198161.879   132417234.0730      -2117.305          51.127                                                                    25198159.152   103182251.4060      -1650.027          49.627    25198160.100   103182251.4260      -1649.894          48.127    25198161.614    98882999.4740      -1581.437          56.227  
G14  20470502.420   107573214.3000       -312.107          55.984                                                                    20470502.504   107573214.2210       -312.008          52.984                                                                    20470501.023    83823277.5480       -242.928          51.484    20470499.833    83823277.5580       -243.000          49.984    20470501.902    80330647.0060       -232.932          58.084  
G17  21032817.565   110528202.9770       -606.313          55.660                                                                    21032817.268   110528202.9760       -606.438          52.660                                                                    21032816.398    86125863.5640       -472.740          51.160    21032815.164    86125863.5960       -472.428          49.660    21032817.159    82537294.4490       -452.556          57.760  
G19  21351120.553   112200897.4320       1051.335          55.581                                                                    21351120.816   112200897.5090       1051.732          52.581                                                                    21351117.173    87429258.5400        819.334          51.081    21351118.519    87429258.5640        819.156          49.581    21351120.487    83786384.4870        785.136          57.681  
G24  24821306.522   130436846.3000       2323.532          54.316                                                                    24821306.117   130436846.3190       2323.641          51.316                                                                    24821306.706   101639102.8770       1810.632          49.816    24821307.989   101639102.8410       1810.766          48.316    24821306.338    97404138.4440       1734.902          56.416  
G30  22434326.857   117893180.5040      -3071.773          55.247                                                                    22434325.110   117893180.5200      -3072.370          52.247                                                                    22434327.247    91864818.9310      -2394.043          50.747    22434326.886    91864818.9270      -2393.411          49.247    22434326.780    88037115.3090      -2294.192          57.347  
> 2023 02 19 10 01  1.0000000  0 10                    0
G01  23053008.449   121144378.1300      -3443.640          54.926                                                                    23053008.938   121144378.1410      -3443.563          51.926                                                                    23053009.951    94398220.4810      -2683.379          50.426    23053009.119    94398220.4430      -2683.401          48.926    23053008.754    90464957.7180      -2571.414          57.026  
G03  23306677.593   122477414.7990        971.291          54.895                                                                    23306677.293   122477414.8600        971.870          51.895                                                                    23306677.555    95436948.1300        757.292          50.395    23306676.989    95436948.0940        757.268          48.895    23306676.656    91460407.2200        725.811          56.995  
G06  21425159.984   112589975.5150       2632.237          55.516                                                                    21425160.370   112589975.5320       2631.986          52.516                                                                    21425160.616    87732451.4400       2051.029          51.016    21425160.771    87732451.3880       2050.868          49.516    21425159.990    84076929.7490       1965.358          57.616  
G11  25078827.566   131790128.8020       3616.899          54.229                                                                    25078827.637   131790128.7600       3616.592          51.229                                                                    25078825.376   102693599.8300       2818.038          49.729    25078825.599   102693599.8210       2818.193          48.229    25078828.105    98414706.5330       2700.881          56.329  
G13  25198564.491   132419345.8560      -2111.122          54.127                                                                    25198564.021   132419345.8770      -2110.846          51.127                                                                    25198562.387   103183896.9400      -1644.871          49.627    25198561.535   103183896.9880      -1644.919          48.127    25198563.350    98884576.4160      -1576.408          56.227  
G14  20470563.129   107573529.1120       -316.609          55.984                                                                    20470562.884   107573529.1340       -316.266          52.984                                                                    20470559.877    83823522.8790       -246.398          51.484    20470560.103    83823522.9020       -246.835          49.984    20470560.839    80330882.1070       -236.441          58.084  
G17  21032930.577   110528795.2470       -571.506          55.660                                                                    21032930.477   110528795.1860       -571.997          52.660                                                                    21032928.229    86126325.0640       -445.622          51.160    21032928.968    86126325.0490       -445.242          49.660    21032929.730    82537736.6840       -427.310          57.760  
G19  21350917.505   112199830.3410       1085.753          55.581                                                                    21350917.602   112199830.3180       1085.934          52.581                                                                    21350915.482    87428427.0030        846.198          51.081    21350914.475    87428427.0170        845.936          49.581    21350917.267    83785587.5560        811.052          57.681  
G24  24820859.442   130434494.0750       2389.340          54.316                                                                    24820858.820   130434494.0110       2389.856          51.316                                                                    24820858.169   101637269.9410       1861.863          49.816    24820858.219   101637269.9630       1862.179          48.316    24820858.704    97402381.9000       1784.728          56.416  
G30  22434914.022   117896272.0410      -3121.709          55.247                                                                    22434913.344   117896272.0530      -3120.862          52.247                                                                    22434915.147    91867227.9330      -2432.534          50.747    22434915.208    91867227.9170      -2432.180          49.247    22434914.606    88039423.8970      -2330.996          57.347  
> 2023 02 19 10 01  2.0000000  0 10                    0
G01  23053657.331   121147791.3310      -3382.884          54.925                                                                    23053658.789   121147791.3260      -3382.022          51.925                                                                    23053658.602    94400880.0710      -2635.668          50.425    23053659.030    94400880.0920      -2635.531          48.925    23053658.211    90467506.5430      -2525.681          57.025  
G03  23306492.971   122476446.8620        969.295          54.895                                                                    23306493.766   122476446.8360        969.562          51.895                                                                    23306494.024    95436193.8380        755.233          50.395    23306493.780    95436193.8220        755.203          48.895    23306492.678    91459684.2970        723.738          56.995  
G06  21424664.750   112587370.8900       2577.584          55.516                                                                    21424663.668   112587370.8590       2577.140          52.516                                                                    21424665.046    87730421.8480       2007.995          51.016    21424664.755    87730421.8290       2008.182          49.516    21424665.032    84074984.7670       1924.698          57.616  
G11  25078145.908   131786548.5880       3543.513          54.229                                                                    25078146.062   131786548.5120       3543.234          51.229                                                                    25078144.853   102690810.0310       2761.115          49.729    25078143.896   102690810.0210       2761.260          48.229    25078146.846    98412032.9980       2646.245          56.329  
G13  25198966.469   132421466.3070      -2134.074          54.127                                                                    25198966.973   132421466.3060      -2133.845          51.127                                                                    25198965.044   103185549.2450      -1662.872          49.627    25198965.273   103185549.2580      -1662.692          48.127    25198967.033    98886159.8940      -1593.652          56.227  
G14  20470622.046   107573843.9890       -311.933          55.984                                                                    20470622.438   107573843.9510       -311.826          52.984                                                                    20470620.531    83823768.2590       -243.017          51.484    20470620.452    83823768.2600       -242.951          49.984    20470621.614    80331117.2580       -232.613          58.084  
G17  21033035.014   110529341.9370       -523.792          55.660                                                                    21033033.994   110529341.9240       -524.074          52.660                                                                    21033032.806    86126751.0980       -408.139          51.160    21033031.119    86126751.0890       -407.785          49.660    21033034.749    82538144.9450       -390.669          57.760  
G19  21350708.211   112198727.3580       1115.554          55.581                                                                    21350707.623   112198727.3300       1115.611          52.581                                                                    21350704.915    87427567.5620        869.483          51.081    21350705.239    87427567.5680        869.371          49.581    21350708.386    83784763.9330        833.161          57.681  
G24  24820395.950   130432063.8400       2464.396          54.316                                                                    24820396.325   130432063.8040       2464.646          51.316                                                                    24820396.973   101635376.3000       1920.410          49.816    24820397.664   101635376.2590       1920.379          48.316    24820396.224    97400567.2090       1840.673          56.416  
G30  22435515.614   117899432.8000      -3197.763          55.247                                                                    22435516.192   117899432.8300      -3197.271          52.247                                                                    22435516.676    91869690.8600      -2491.691          50.747    22435516.888    91869690.8670      -2491.440          49.247    22435515.564    88041784.1960      -2387.441          57.347  
> 2023 02 19 10 01  3.0000000  0 10                    0