     3.04           OBSERVATION DATA    M: Mixed            RINEX VERSION / TYPE
RTKCONV demo5 b34i  Thomas Topp         20240208 125355 UTC PGM / RUN BY / DATE 
format: u-blox UBX                                          COMMENT             
log: Z:\Git\Work\INSTINCT\test\data\Converter\GNSS\Ublox\SpiCOMMENT             
                                                            MARKER NAME         
                                                            MARKER NUMBER       
                                                            MARKER TYPE         
INS                                                         OBSERVER / AGENCY   
                                                            REC # / TYPE / VERS 
                                                            ANT # / TYPE        
  -481819.2190  5507220.7915  3170374.0738                  APPROX POSITION XYZ 
        0.0000        0.0000        0.0000                  ANTENNA: DELTA H/E/N
G    8 C1C L1C D1C S1C C5X L5X D5X S5X                      SYS / # / OBS TYPES 
E    8 C1X L1X D1X S1X C5X L5X D5X S5X                      SYS / # / OBS TYPES 
  2023    01    08    09    45   28.0000000     GPS         TIME OF FIRST OBS   
  2023    01    08    10    01   03.0040000     GPS         TIME OF LAST OBS    
G L1C                                                       SYS / PHASE SHIFT   
G L5X  0.00000                                              SYS / PHASE SHIFT   
E L1X  0.00000                                              SYS / PHASE SHIFT   
E L5X  0.00000                                              SYS / PHASE SHIFT   
  0                                                         GLONASS SLOT / FRQ #
 C1C    0.000 C1P    0.000 C2C    0.000 C2P    0.000        GLONASS COD/PHS/BIS 
                                                            END OF HEADER       
> 2023 01 08 09 45 28.0000000  0 16                     
G07  21485793.442   112908605.8011        651.783          44.000                                                                  
G01  23615626.303   124100953.2761       2795.106          44.000                                                                  
G21  22751391.118   119559365.9491        477.289          44.000                                                                  
G09  24169207.370   127010040.9821      -3183.807          43.000                                                                  
G27  25874864.621   135973330.7411      -3825.288          43.000                                                                  
G04  25989157.859   136573946.0851      -3692.087          43.000                                                                  
G14  24155423.350   126937605.6341       1652.161          43.000                                                                  
G17  24337670.365   127895320.5531       2789.291          43.000                                                                  
E12  29078098.874   152806440.9211       2842.269          44.000                                                                  
E21  29676912.775   155953228.9901      -1760.605          44.000                                                                  
E24  29141068.348   153137347.4261       1398.949          44.000                                                                  
E31  25861421.981   135902688.8241        534.640          45.000                                                                  
E33  26379755.464   138626549.9401       1950.827          45.000                                                                  
E14  21675368.930   113904831.6371       -912.449          46.000                                                                  
E01  26296407.971   138188555.9531      -1057.233          45.000                                                                  
E04  27004907.009   141911743.3371      -2634.686          45.000                                                                  
> 2023 01 08 09 45 29.0000000  0 16                     
G07  21485669.378   112907954.307         651.370          44.000                                                                  
G01  23615094.411   124098158.525        2794.616          44.000                                                                  
G21  22751300.307   119558889.081         476.606          44.000                                                                  
G09  24169813.194   127013224.909       -3184.103          43.000                                                                  
G27  25875592.511   135977156.303       -3825.615          43.000                                                                  
G04  25989860.403   136577638.485       -3692.499          43.000                                                                  
G14  24155108.760   126935953.439        1652.109          43.000                                                                  
G17  24337139.544   127892531.461        2788.777          43.000                                                                  
E12  29077558.048   152803598.906        2841.869          44.000                                                                  
E21  29677247.732   155954989.875       -1760.907          44.000                                                                  
E24  29140802.143   153135948.800        1398.738          44.000                                                                  
E31  25861320.420   135902154.335         534.536          45.000                                                                  
E33  26379384.419   138624599.501        1950.298          45.000                                                                  
E14  21675542.641   113905744.743        -913.624          46.000                                                                  
E01  26296609.125   138189613.379       -1057.414          45.000                                                                  
E04  27005408.423   141914378.308       -2635.040          45.000                                                                  
> 2023 01 08 09 45 30.0000000  0 16                     
G07  21485545.415   112907302.902         651.378          45.000                                                                  
G01  23614562.539   124095363.655        2794.879          44.000                                                                  
G21  22751209.539   119558412.418         476.645          44.000                                                                  
G09  24170419.018   127016408.604       -3183.510          43.000                                                                  
G27  25876320.308   135980981.429       -3824.990          43.000                                                                  
G04  25990562.911   136581330.331       -3691.500          43.000                                                                  
G14  24154794.360   126934300.915        1652.636          43.000                                                                  
G17  24336608.691   127889742.261        2789.084          43.000                                                                  
E12  29077016.940   152800756.375        2842.709          44.000                                                                  
E21  29677582.550   155956750.346       -1760.406          44.000                                                                  
E24  29140535.840   153134549.726        1399.338          44.000                                                                  
E31  25861218.709   135901619.457         534.934          45.000                                                                  
E33  26379013.252   138622648.939        1950.595          45.000                                                                  
E14  21675716.534   113906658.349        -913.892          46.000                                                                  
E01  26296810.466   138190670.409       -1056.813          45.000                                                                  
E04  27005909.653   141917013.012       -2634.647          45.000                                                                  
> 2023 01 08 09 45 31.0000000  0 16                     
G07  21485421.562   112906651.749         650.723          44.000                                                                  
G01  23614030.592   124092568.843        2794.505          44.000                                                                  
G21  22751118.855   119557936.127         475.800          44.000                                                                  
G09  24171024.687   127019592.240       -3183.816          43.000                                                                  
G27  25877048.120   135984806.313       -3825.197          43.000                                                                  
G04  25991265.265   136585021.835       -3691.449          43.000                                                                  
G14  24154479.857   126932648.211        1652.496          43.000                                                                  
G17  24336077.779   127886953.122        2788.672          43.000                                                                  
E12  29076475.688   152797913.514        2842.687          44.000                                                                  
E21  29677917.661   155958510.561       -1760.383          44.000                                                                  
E24  29140269.696   153133150.410        1399.067          44.000                                                                  
E31  25861116.942   135901084.332         534.947          45.000                                                                  
E33  26378641.823   138620698.431        1950.339          45.000                                                                  
E14  21675890.641   113907572.640        -914.945          46.000                                                                  
E01  26297011.420   138191727.232       -1056.967          45.000                                                                  
E04  27006411.119   141919647.618       -2634.888          45.000                                                                  
> 2023 01 08 09 45 32.0000000  0 16                     
G07  21485297.891   112906001.632         649.637          44.000                                                                  
G01  23613498.834   124089774.903        2793.559          44.000                                                                  
G21  22751028.359   119557460.993         474.817          44.000                                                                  
G09  24171630.544   127022776.630       -3184.699          43.000                                                                  
G27  25877775.966   135988631.744       -3825.505          43.000                                                                  
G04  25991967.783   136588713.792       -3692.080          43.000                                                                  
G14  24154165.572   126930996.151        1651.842          43.000                                                                  
G17  24335547.171   127884164.837        2787.860          43.000                                                                  
E12  29075935.047   152795071.117        2842.377          44.000                                                                  
E21  29678252.791   155960271.346       -1760.949          44.000                                                                  
E24  29140003.533   153131751.613        1398.632          44.000                                                                  
E31  25861015.109   135900549.793         534.382          45.000                                                                  
E33  26378270.987   138618748.793        1949.262          45.000                                                                  
E14  21676064.796   113908488.419        -916.365          46.000                                                                  
E01  26297212.628   138192784.638       -1057.649          45.000                                                                  
E04  27006912.466   141922282.932       -2635.605          45.000                                                                  
> 2023 01 08 09 45 33.0000000  0 16                     
G07  21485174.289   112905352.250         649.290          44.000                                                                  
G01  23612967.302   124086981.497        2793.470          44.000                                                                  
G21  22750938.075   119556986.738         474.294          44.000                                                                  
G09  24172236.588   127025961.430       -3184.683          43.000                                                                  
G27  25878503.980   135992457.426       -3825.363          43.000                                                                  
G04  25992670.275   136592405.882       -3691.963          43.000                                                                  
G14  24153851.229   126929344.406        1651.976          43.000                                                                  
G17  24335016.655   127881377.126        2787.749          43.000                                                                  
E12  29075394.117   152792228.905        2842.309          44.000                                                                  
E21  29678587.801   155962032.386       -1760.970          44.000                                                                  
E24  29139737.210   153130353.065        1398.632          44.000                                                                  
E31  25860913.452   135900015.523         534.372          45.000                                                                  
E33  26377899.937   138616799.696        1949.045          45.000                                                                  
E14  21676239.270   113909405.370        -917.198          46.000                                                                  
E01  26297413.799   138193842.308       -1057.419          45.000                                                                  
E04  27007413.831   141924918.651       -2635.709          45.000                                                                  
> 2023 01 08 09 45 34.0000000  0 16                     
G07  21485050.675   112904703.202         648.723          44.000                                                                  
G01  23612435.657   124084188.240        2793.041          44.000                                                                  
G21  22750847.793   119556512.941         473.248          44.000                                                                  
G09  24172842.588   127029146.265       -3184.847          43.000                                                                  
G27  25879231.974   135996282.936       -3825.608          43.000                                                                  
G04  25993372.835   136596097.710       -3691.964          43.000                                                                  
G14  24153536.884   126927692.573        1651.751          43.000                                                                  
G17  24334486.226   127878589.554        2787.356          43.000                                                                  
E12  29074853.410   152789386.420        2842.579          44.000                                                                  
E21  29678922.888   155963793.257       -1760.946          44.000                                                                  
E24  29139471.014   153128954.324        1398.605          44.000                                                                  
E31  25860811.811   135899481.103         534.417          45.000                                                                  
E33  26377529.208   138614850.733        1948.818          45.000                                                                  
E14  21676413.720   113910323.098        -918.459          46.000                                                                  
E01  26297615.123   138194899.851       -1057.660          45.000                                                                  
E04  27007915.478   141927554.345       -2635.827          45.000                                                                  
> 2023 01 08 09 45 35.0000000  0 16                     
G07  21484927.299   112904054.952         647.798          44.000                                                                  
G01  23611904.227   124081395.587        2792.363          44.000                                                                  
G21  22750757.846   119556040.057         472.377          44.000                                                                  
G09  24173448.795   127032331.598       -3185.659          43.000                                                                  
G27  25879960.052   136000108.769       -3826.115          43.000                                                                  
G04  25994075.378   136599789.731       -3692.228          43.000                                                                  
G14  24153222.602   126926041.137        1651.256          43.000                                                                  
G17  24333955.868   127875802.619        2786.567          43.000                                                                  
E12  29074312.306   152786544.170        2842.158          44.000                                                                  
E21  29679258.143   155965554.447       -1761.277          44.000                                                                  
E24  29139204.908   153127555.879        1398.281          44.000                                                                  
E31  25860710.060   135898947.013         533.986          45.000                                                                  
E33  26377158.414   138612902.387        1947.983          45.000                                                                  
E14  21676588.600   113911242.055        -919.567          46.000                                                                  
E01  26297816.468   138195957.735       -1058.169          45.000                                                                  
E04  27008417.144   141930190.505       -2636.305          45.000                                                                  
> 2023 01 08 09 45 36.0040000  0 16                     
G07  21484803.481   112903404.680         647.516          44.000                                                                  
G01  23611370.747   124078592.150        2792.153          44.000                                                                  
G21  22750667.597   119555565.988         471.788          44.000                                                                  
G09  24174057.466   127035529.932       -3185.845          43.000                                                                  
G27  25880690.900   136003949.948       -3825.765          43.000                                                                  
G04  25994780.723   136603496.475       -3692.021          43.000                                                                  
G14  24152907.069   126924383.244        1651.187          43.000                                                                  
G17  24333423.469   127873004.919        2786.257          43.000                                                                  
E12  29073769.221   152783690.542        2842.329          44.000                                                                  
E21  29679594.531   155967322.764       -1761.267          44.000    29679584.078                       -1315.252          46.000  
E24  29138937.695   153126151.900        1398.400          44.000                                                                  
E31  25860608.063   135898410.887         533.942          45.000    25860593.002                         398.922          47.000  
E33  26376786.258   138610946.617        1947.807          45.000    26376770.633                        1454.467          47.000  
E14  21676764.684   113912165.702        -920.490          46.000    21676748.091                        -687.276          48.000  
E01  26298018.653   138197019.939       -1058.013          45.000    26298002.474                        -790.096          47.000  
E04  27008921.123   141932837.456       -2636.679          45.000    27008909.133                       -1968.839          47.000  
> 2023 01 08 09 45 37.0040000  0 16                     
G07  21484680.371   112902757.370         647.382          44.000                                                                  
G01  23610839.400   124075800.060        2792.288          44.000                                                                  
G21  22750577.827   119555094.279         471.787          44.000                                                                  
G09  24174663.641   127038715.566       -3185.437          43.000                                                                  
G27  25881418.833   136007775.711       -3825.622          43.000                                                                  
G04  25995483.140   136607188.228       -3691.427          43.000                                                                  
G14  24152592.735   126922731.901        1651.658          43.000                                                                  
G17  24332893.222   127870218.526        2786.365          43.000                                                                  
E12  29073228.441   152780848.064        2842.883          44.000    29073221.788                        2122.905          46.000  
E21  29679929.746   155969083.910       -1760.846          44.000    29679919.823   116470379.6001      -1314.973          46.000  
E24  29138671.680   153124753.371        1398.799          44.000    29138659.163                        1044.596          46.000  
E31  25860506.348   135897876.780         534.450          45.000    25860491.283   101482122.5731        398.904          47.000  
E33  26376415.696   138608998.821        1948.080          45.000    26376400.484   103506660.5831       1454.609          47.000  
E14  21676939.757   113913086.469        -921.018          46.000    21676922.725    85064900.0061       -687.790          48.000  
E01  26298219.900   138198077.817       -1057.654          45.000    26298204.223   103199801.6701       -789.742          47.000  
E04  27009422.531   141935473.856       -2636.166          45.000    27009410.569   105990728.0761      -1968.520          47.000  
> 2023 01 08 09 45 38.0040000  0 16                     
G07  21484557.214   112902110.165         647.111          44.000    21484538.916    84309945.0791        483.406          48.000  
G01  23610308.086   124073007.889        2792.239          44.000    23610290.919    92651852.0851       2085.312          47.000  
G21  22750488.107   119554622.821         471.519          44.000                                                                  
G09  24175269.685   127041900.997       -3184.917          43.000    24175253.557    94868887.4701      -2378.543          47.000  
G27  25882146.854   136011601.083       -3825.140          43.000    25882132.276   101567046.0491      -2856.199          46.000  
G04  25996185.523   136610879.472       -3690.843          43.000    25996170.979   102014558.1671      -2755.993          46.000  
G14  24152278.435   126921080.248        1651.882          43.000    24152262.011    94778663.7471       1233.604          47.000  
G17  24332362.942   127867432.074        2786.535          43.000    24332346.723    95485354.4271       2080.966          47.000  
E12  29072687.380   152778005.133        2843.294          44.000    29072681.230   114087445.6381       2123.179          46.000  
E21  29680264.651   155970844.684       -1760.521          44.000    29680254.411   116471694.451       -1314.666          46.000  
E24  29138405.536   153123354.446        1399.235          44.000    29138392.728   114345311.2261       1044.827          46.000  
E31  25860404.560   135897342.311         534.704          45.000    25860389.618   101481723.446         399.317          47.000  
E33  26376044.964   138607050.948        1948.046          45.000    26376029.845   103505206.021        1454.418          47.000  
E14  21677115.070   113914007.791        -921.606          46.000    21677098.415    85065587.994        -688.018          48.000  
E01  26298421.075   138199135.340       -1057.198          45.000    26298405.129   103200591.379        -789.461          47.000  
E04  27009924.203   141938110.039       -2635.890          45.000    27009911.885   105992696.645       -1968.427          47.000  
> 2023 01 08 09 45 39.0040000  0 16                     
G07  21484434.090   112901463.252         646.746          44.000    21484416.240    84309462.003         482.990          48.000  
G01  23609776.747   124070215.840        2791.915          44.000    23609760.269    92649767.119        2084.878          47.000  
G21  22750398.419   119554151.796         470.674          44.000    22750380.686    89277379.7861        351.550          47.000  
G09  24175875.921   127045086.456       -3185.491          43.000    24175859.465    94871266.207       -2378.667          47.000  
G27  25882874.786   136015426.267       -3825.313          43.000    25882860.247   101569902.520       -2856.416          46.000  
G04  25996887.910   136614570.431       -3690.769          43.000    25996873.391   102017314.409       -2756.171          46.000  
G14  24151964.158   126919428.488        1651.789          43.000    24151947.866    94777430.293        1233.434          47.000  
G17  24331832.679   127864645.749        2786.270          43.000    24331816.682    95483273.729        2080.708          47.000  
E12  29072146.266   152775161.914        2843.291          44.000    29072140.087   114085322.460        2123.309          46.000  
E21  29680599.745   155972605.267       -1760.558          44.000    29680588.912   116473009.177       -1314.879          46.000  
E24  29138139.262   153121955.312        1399.271          44.000    29138126.809   114344266.430        1044.655          46.000  
E31  25860302.939   135896807.673         534.664          45.000    25860287.367   101481324.212         399.218          47.000  
E33  26375674.440   138605103.188        1947.628          45.000    26375659.440   103503751.516        1454.443          47.000  
E14  21677290.632   113914929.843        -922.515          46.000    21677273.904    85066276.555        -688.985          48.000  
E01  26298622.341   138200192.700       -1057.297          45.000    26298606.454   103201380.970        -789.608          47.000  
E04  27010426.093   141940746.186       -2636.218          45.000    27010413.625   105994665.189       -1968.536          47.000  
> 2023 01 08 09 45 40.0040000  0 16                     
G07  21484311.017   112900816.760         646.144          44.000    21484293.046    84308979.231         482.597          48.000  
G01  23609245.450   124067423.999        2791.659          44.000    23609228.534    92647682.311        2084.547          47.000  
G21  22750308.842   119553681.278         470.162          44.000    22750291.161    89277028.429         351.144          48.000  
G09  24176482.077   127048271.987       -3185.615          43.000    24176465.380    94873645.013       -2378.777          47.000  
G27  25883602.663   136019251.348       -3825.101          43.000    25883587.759   101572758.918       -2856.489          46.000  
G04  25997590.154   136618261.192       -3690.806          43.000    25997575.882   102020070.492       -2756.112          46.000  
G14  24151649.858   126917776.705        1651.792          43.000    24151633.729    94776196.820        1233.515          47.000  
G17  24331302.416   127861859.633        2785.984          43.000    24331286.560    95481193.193        2080.511          47.000  
E12  29071605.264   152772318.525        2843.459          44.000    29071598.787   114083199.157        2123.442          46.000  
E21  29680934.736   155974365.769       -1760.480          44.000    29680924.199   116474323.834       -1314.812          46.000  
E24  29137873.048   153120556.079        1399.328          44.000    29137860.451   114343221.538        1044.943          46.000  
E31  25860201.156   135896272.960         534.702          45.000    25860185.828   101480924.905         399.430          47.000  
E33  26375303.703   138603155.633        1947.436          45.000    26375288.727   103502297.185        1454.146          47.000  
E14  21677466.037   113915852.739        -923.362          46.000    21677449.764    85066965.722        -689.504          48.000  
E01  26298823.573   138201250.004       -1057.398          45.000    26298807.429   103202170.507        -789.589          47.000  
E04  27010927.679   141943382.385       -2636.135          45.000    27010915.404   105996633.777       -1968.509          47.000  
> 2023 01 08 09 45 41.0040000  0 16                     
G07  21484187.983   112900170.631         645.877          44.000    21484169.782    84308496.738         482.259          48.000  
G01  23608714.162   124064632.338        2791.499          44.000    23608697.272    92645597.634        2084.488          47.000  
G21  22750219.413   119553211.282         469.668          44.000    22750201.769    89276677.458         350.730          48.000  
G09  24177088.361   127051457.595       -3185.715          43.000    24177071.537    94876023.880       -2379.080          47.000  
G27  25884330.505   136023076.319       -3825.066          43.000    25884315.662   101575615.221       -2856.337          47.000  
G04  25998292.409   136621951.715       -3690.419          43.000    25998277.868   102022826.404       -2755.886          46.000  
G14  24151335.568   126916124.886        1651.887          43.000    24151319.090    94774963.327        1233.463          47.000  
G17  24330772.259   127859073.726        2785.644          43.000    24330756.389    95479112.810        2080.190          47.000  
E12  29071063.904   152769474.944        2843.594          44.000    29071057.607   114081075.704        2123.484          46.000  
E21  29681269.907   155976126.161       -1760.465          44.000    29681259.057   116475638.406       -1314.621          46.000  
E24  29137606.729   153119156.716        1399.437          44.000    29137594.021   114342176.567        1044.955          46.000  
E31  25860099.373   135895738.162         534.714          45.000    25860084.218   101480525.540         399.430          47.000  
E33  26374933.199   138601208.268        1947.147          45.000    26374918.234   103500842.985        1454.101          47.000  
E14  21677641.885   113916776.455        -924.254          46.000    21677625.356    85067655.502        -690.084          48.000  
E01  26299024.708   138202307.214       -1057.262          45.000    26299008.713   103202959.983        -789.523          47.000  
E04  27011429.541   141946018.629       -2636.198          45.000    27011417.081   105998602.400       -1968.699          47.000  
> 2023 01 08 09 45 42.0040000  0 16                     
G07  21484065.148   112899525.069         645.336          44.000    21484047.231    84308014.656         481.870          48.000  
G01  23608182.959   124061841.067        2791.114          44.000    23608166.162    92643513.235        2084.234          47.000  
G21  22750130.104   119552741.958         468.982          44.000    22750112.600    89276326.990         350.177          48.000  
G09  24177694.540   127054643.452       -3186.178          43.000    24177677.873    94878402.911       -2379.018          47.000  
G27  25885058.393   136026901.351       -3824.992          43.000    25885043.728   101578471.576       -2856.483          46.000  
G04  25998994.681   136625642.206       -3690.365          43.000    25998980.262   102025582.293       -2755.919          46.000  
G14  24151021.267   126914473.233        1651.402          43.000    24151004.862    94773729.931        1233.416          47.000  
G17  24330242.123   127856288.181        2785.498          43.000    24330226.461    95477032.712        2079.886          47.000  
E12  29070522.975   152766631.341        2843.555          44.000    29070516.430   114078952.243        2123.403          46.000  
E21  29681604.854   155977886.635       -1760.527          44.000    29681594.202   116476953.035       -1314.608          46.000  
E24  29137340.470   153117757.398        1399.370          44.000    29137327.717   114341131.628        1044.868          46.000  
E31  25859997.786   135895203.448         534.473          45.000    25859982.339   101480126.238         399.219          47.000  
E33  26374562.704   138599261.279        1946.760          45.000    26374547.712   103499389.069        1453.655          47.000  
E14  21677817.868   113917701.162        -925.195          46.000    21677801.381    85068346.031        -690.716          48.000  
E01  26299225.836   138203364.521       -1057.291          45.000    26299209.881   103203749.527        -789.562          47.000  
E04  27011930.944   141948655.090       -2636.583          45.000    27011918.707   106000571.178       -1968.749          47.000  
> 2023 01 08 09 45 43.0040000  0 16                     
G07  21483942.370   112898879.912         644.914          44.000    21483924.382    84307532.889         481.428          48.000  
G01  23607651.898   124059050.009        2790.707          44.000    23607635.118    92641429.003        2084.126          47.000  
G21  22750040.867   119552273.170         468.550          44.000    22750023.540    89275976.923         349.712          48.000  
G09  24178300.793   127057829.404       -3186.094          43.000    24178284.198    94880782.041       -2379.208          47.000  
G27  25885786.275   136030726.295       -3824.941          43.000    25885771.462   101581327.866       -2856.411          46.000  
G04  25999696.940   136629332.512       -3690.229          43.000    25999682.668   102028338.034       -2755.825          46.000  
G14  24150707.008   126912821.549        1651.634          43.000    24150690.399    94772496.542        1233.366          47.000  
G17  24329712.011   127853502.884        2785.024          43.000    24329696.372    95474952.774        2079.677          47.000  
E12  29069981.872   152763787.564        2843.730          44.000    29069975.309   114076828.657        2123.496          46.000  
E21  29681939.745   155979647.005       -1760.426          44.000    29681929.279   116478267.608       -1314.570          46.000  
E24  29137074.162   153116357.981        1399.403          44.000    29137061.469   114340086.614        1044.995          46.000  
E31  25859895.773   135894668.652         534.812          45.000    25859880.678   101479726.893         399.229          47.000  
E33  26374192.161   138597314.499        1946.650          45.000    26374177.225   103497935.299        1453.707          47.000  
E14  21677994.119   113918626.721        -926.166          46.000    21677977.556    85069037.194        -691.499          48.000  
E01  26299427.082   138204421.772       -1057.250          45.000    26299411.116   103204539.034        -789.536          47.000  
E04  27012432.676   141951291.613       -2636.466          45.000    27012420.393   106002540.009       -1969.000          47.000  
> 2023 01 08 09 45 44.0040000  0 16                     
G07  21483819.670   112898235.152         644.500          44.000    21483801.836    84307051.407         481.324          48.000  
G01  23607120.789   124056259.143        2790.736          44.000    23607104.083    92639344.933        2083.805          47.000  
G21  22749951.795   119551804.900         467.895          44.000    22749934.513    89275627.248         349.294          48.000  
G09  24178907.063   127061015.434       -3186.076          43.000    24178890.562    94883161.228       -2379.311          47.000  
G27  25886514.009   136034551.133       -3824.784          43.000    25886499.465   101584184.075       -2856.328          46.000  
G04  26000399.153   136633022.604       -3690.185          43.000    26000384.877   102031093.606       -2755.411          46.000  
G14  24150392.638   126911169.843        1651.551          43.000    24150376.181    94771263.136        1233.323          47.000  
G17  24329181.966   127850717.785        2784.887          43.000    24329166.306    95472872.998        2079.619          47.000  
E12  29069440.818   152760943.609        2843.830          44.000    29069434.196   114074704.926        2123.664          46.000  
E21  29682274.759   155981407.301       -1760.263          44.000    29682264.241   116479582.112       -1314.533          46.000  
E24  29136807.640   153114958.453        1399.535          44.000    29136795.116   114339041.516        1045.053          46.000  
E31  25859794.064   135894133.797         534.740          45.000    25859778.945   101479327.477         399.454          47.000  
E33  26373821.914   138595367.929        1946.354          45.000    26373806.866   103496481.704        1453.421          47.000  
E14  21678170.290   113919553.097        -926.823          46.000    21678153.855    85069728.975        -692.152          48.000  
E01  26299628.215   138205478.951       -1057.219          45.000    26299612.275   103205328.491        -789.514          47.000  
E04  27012934.484   141953928.196       -2636.640          45.000    27012922.140   106004508.883       -1969.047          47.000  
> 2023 01 08 09 45 45.0040000  0 16                     
G07  21483697.071   112897590.855         643.824          44.000    21483679.178    84306570.271         480.869          48.000  
G01  23606589.584   124053468.573        2790.188          44.000    23606573.025    92637261.052        2083.768          47.000  
G21  22749862.795   119551337.230         466.935          44.000    22749845.546    89275278.005         348.682          48.000  
G09  24179513.378   127064201.640       -3186.552          43.000    24179496.814    94885540.523       -2379.440          47.000  
G27  25887241.809   136038375.953       -3825.010          43.000    25887227.342   101587040.265       -2856.428          46.000  
G04  26001101.365   136636712.558       -3690.184          43.000    26001087.073   102033849.098       -2755.722          46.000  
G14  24150078.319   126909518.202        1651.302          43.000    24150061.894    94770029.760        1233.085          47.000  
G17  24328651.922   127847932.972        2784.506          43.000    24328636.433    95470793.428        2079.331          47.000  
E12  29068899.574   152758099.543        2843.766          44.000    29068892.890   114072581.106        2123.784          46.000  
E21  29682609.792   155983167.574       -1760.535          44.000    29682599.130   116480896.596       -1314.667          46.000  
E24  29136541.393   153113558.879        1399.371          44.000    29136528.780   114337996.386        1044.949          46.000  
E31  25859692.237   135893598.914         534.772          45.000    25859677.016   101478928.064         399.170          47.000  
E33  26373451.512   138593421.627        1945.935          45.000    26373436.352   103495028.303        1453.152          47.000  
E14  21678346.872   113920480.390        -927.941          46.000    21678330.193    85070421.430        -693.076          48.000  
E01  26299829.456   138206536.135       -1057.386          45.000    26299813.399   103206117.941        -789.687          47.000  
E04  27013436.182   141956564.886       -2636.766          45.000    27013423.926   106006477.837       -1969.122          47.000  
> 2023 01 08 09 45 46.0040000  0 16                     
G07  21483574.470   112896947.029         643.627          44.000    21483556.672    84306089.510         480.560          48.000  
G01  23606058.521   124050678.286        2790.159          44.000    23606042.085    92635177.409        2083.484          47.000  
G21  22749773.923   119550870.151         466.696          44.000    22749756.651    89274929.216         348.474          48.000  
G09  24180119.766   127067387.998       -3186.485          43.000    24180103.189    94887919.958       -2379.593          47.000  
G27  25887969.662   136042200.739       -3824.790          43.000    25887955.005   101589896.441       -2856.191          47.000  
G04  26001803.472   136640402.383       -3689.865          43.000    26001789.096   102036604.485       -2755.436          46.000  
G14  24149763.956   126907866.617        1651.431          43.000    24149747.620    94768796.427        1233.368          47.000  
G17  24328122.031   127845148.464        2784.243          43.000    24328106.449    95468714.090        2079.172          47.000  
E12  29068358.268   152755255.379        2844.187          44.000    29068351.677   114070457.232        2123.967          46.000  
E21  29682944.824   155984927.837       -1760.298          44.000    29682934.099   116482211.081       -1314.574          46.000  
E24  29136275.039   153112159.281        1399.568          44.000    29136262.564   114336951.235        1045.219          46.000  
E31  25859590.495   135893064.050         534.956          45.000    25859575.343   101478528.653         399.451          47.000  
E33  26373080.998   138591475.621        1945.820          45.000    26373066.074   103493575.131        1452.826          47.000  
E14  21678523.341   113921408.602        -928.731          46.000    21678506.952    85071114.571        -693.544          48.000  
E01  26300030.557   138207593.333       -1057.241          45.000    26300014.629   103206907.403        -789.432          47.000  
E04  27013937.799   141959201.740       -2636.936          45.000    27013925.732   106008446.905       -1969.048          47.000  
> 2023 01 08 09 45 47.0040000  0 16                     
G07  21483452.060   112896303.675         643.044          44.000    21483434.265    84305609.070         480.222          48.000  
G01  23605527.504   124047888.270        2789.990          44.000    23605511.238    92633093.957        2083.335          47.000  
G21  22749685.107   119550403.646         466.367          44.000    22749667.737    89274580.853         348.220          48.000  
G09  24180726.063   127070574.524       -3186.837          43.000    24180709.561    94890299.489       -2379.642          47.000  
G27  25888697.481   136046025.487       -3824.471          43.000    25888682.885   101592752.579       -2856.019          47.000  
G04  26002505.633   136644092.058       -3689.654          43.000    26002491.270   102039359.756       -2755.235          47.000  
G14  24149449.598   126906215.055        1651.747          43.000    24149433.383    94767563.135        1233.218          47.000  
G17  24327592.181   127842364.201        2784.423          43.000    24327576.675    95466634.944        2079.107          47.000  
E12  29067817.067   152752411.089        2844.344          44.000    29067810.372   114068333.263        2123.930          46.000  
E21  29683279.674   155986688.059       -1760.124          44.000    29683269.151   116483525.521       -1314.286          46.000  
E24  29136008.818   153110759.621        1399.722          44.000    29135996.119   114335906.029        1045.350          46.000  
E31  25859488.633   135892529.165         534.935          45.000    25859473.544   101478129.224         399.431          47.000  
E33  26372710.958   138589529.875        1945.655          45.000    26372695.925   103492122.134        1452.869          47.000  
E14  21678700.236   113922337.692        -929.478          46.000    21678683.712    85071808.368        -693.956          48.000  
E01  26300231.832   138208650.518       -1057.265          45.000    26300215.800   103207696.859        -789.330          47.000  
E04  27014439.664   141961838.693       -2637.018          45.000    27014427.437   106010416.050       -1969.161          47.000  
> 2023 01 08 09 45 48.0040000  0 16                     
G07  21483329.592   112895660.618         643.006          44.000    21483311.815    84305128.871         480.183          48.000  
G01  23604996.642   124045098.395        2789.677          44.000    23604980.208    92631010.594        2083.496          47.000  
G21  22749596.453   119549937.602         465.886          44.000    22749579.092    89274232.828         347.905          48.000  
G09  24181332.359   127073761.033       -3186.398          43.000    24181315.974    94892679.028       -2379.397          47.000  
G27  25889425.206   136049850.064       -3824.277          43.000    25889410.758   101595608.590       -2855.846          46.000  
G04  26003207.665   136647781.445       -3689.050          43.000    26003193.326   102042114.820       -2754.852          46.000  
G14  24149135.280   126904563.402        1651.917          43.000    24149119.044    94766329.762        1233.409          47.000  
G17  24327062.319   127839580.104        2784.119          43.000    24327046.864    95464555.906        2079.129          47.000  
E12  29067275.758   152749566.550        2844.572          44.000    29067269.063   114066209.088        2124.350          46.000  
E21  29683614.646   155988448.130       -1760.081          44.000    29683603.919   116484839.857       -1314.226          46.000  
E24  29135742.327   153109359.771        1400.056          44.000    29135729.851   114334860.697        1045.539          46.000  
E31  25859386.928   135891994.126         535.188          45.000    25859371.718   101477729.685         399.571          47.000  
E33  26372340.622   138587584.264        1945.534          45.000    26372325.654   103490669.242        1452.878          47.000  
E14  21678877.191   113923267.542        -930.163          46.000    21678860.570    85072502.736        -694.692          48.000  
E01  26300432.944   138209707.557       -1057.021          45.000    26300416.862   103208486.201        -789.260          47.000  
E04  27014941.329   141964475.615       -2636.770          45.000    27014929.333   106012385.179       -1969.146          47.000  
> 2023 01 08 09 45 49.0040000  0 16                     
G07  21483207.232   112895018.089         642.396          44.000    21483189.535    84304649.056         479.787          48.000  
G01  23604465.927   124042308.822        2789.414          44.000    23604449.411    92628927.483        2083.139          47.000  
G21  22749507.863   119549472.184         465.228          44.000    22749490.570    89273885.276         347.539          48.000  
G09  24181938.678   127076947.753       -3186.672          43.000    24181922.229    94895058.723       -2379.783          47.000  
G27  25890153.011   136053674.661       -3824.527          43.000    25890138.449   101598464.610       -2855.840          46.000  
G04  26003909.696   136651470.753       -3689.312          43.000    26003895.362   102044869.815       -2754.881          46.000  
G14  24148820.994   126902911.850        1651.645          43.000    24148804.875    94765096.450        1233.451          47.000  
G17  24326532.568   127836796.328        2783.685          43.000    24326517.041    95462477.119        2078.747          47.000  
E12  29066734.471   152746721.931        2844.730          44.000    29066727.687   114064084.871        2124.348          46.000  
E21  29683949.732   155990208.205       -1760.020          44.000    29683938.792   116486154.201       -1314.238          46.000  
E24  29135476.004   153107959.925        1399.909          44.000    29135463.286   114333815.367        1045.412          46.000  
E31  25859285.160   135891459.123         534.982          45.000    25859269.913   101477330.164         399.599          47.000  
E33  26371970.288   138585638.963        1945.235          45.000    26371955.393   103489216.595        1452.542          47.000  
E14  21679054.393   113924198.336        -931.145          46.000    21679037.821    85073197.810        -695.294          48.000  
E01  26300633.968   138210764.626       -1056.905          45.000    26300618.197   103209275.583        -789.303          47.000  
E04  27015443.479   141967112.709       -2636.989          45.000    27015431.143   106014354.446       -1969.427          47.000  
> 2023 01 08 09 45 50.0040000  0 16                     
G07  21483085.103   112894376.089         641.805          44.000    21483067.435    84304169.634         479.400          48.000  
G01  23603935.145   124039519.597        2789.266          44.000    23603918.581    92626844.624        2082.916          47.000  
G21  22749419.460   119549007.424         464.595          44.000    22749402.093    89273538.221         346.908          48.000  
G09  24182545.166   127080134.700       -3187.094          43.000    24182528.820    94897438.577       -2379.767          47.000  
G27  25890880.694   136057499.270       -3824.482          43.000    25890866.244   101601320.658       -2855.881          47.000  
G04  26004611.764   136655159.983       -3689.138          43.000    26004597.360   102047624.763       -2755.021          46.000  
G14  24148506.786   126901260.409        1651.592          43.000    24148490.541    94763863.237        1233.312          47.000  
G17  24326002.937   127834012.902        2783.302          43.000    24325987.267    95460398.588        2078.508          47.000  
E12  29066193.194   152743877.276        2844.881          44.000    29066186.437   114061960.623        2124.454          46.000  
E21  29684284.450   155991968.323       -1760.013          44.000    29684273.954   116487468.584       -1314.333          46.000  
E24  29135209.719   153106560.095        1400.066          44.000    29135196.937   114332770.054        1045.261          46.000  
E31  25859183.288   135890924.169         535.191          45.000    25859168.172   101476930.696         399.564          47.000  
E33  26371600.145   138583693.999        1945.167          45.000    26371585.297   103487764.200        1452.313          47.000  
E14  21679231.662   113925130.115        -932.261          46.000    21679214.996    85073893.606        -696.016          48.000  
E01  26300835.368   138211821.782       -1057.023          45.000    26300819.329   103210065.015        -789.425          47.000  
E04  27015945.168   141969750.001       -2637.255          45.000    27015933.020   106016323.828       -1969.236          47.000  
> 2023 01 08 09 45 51.0040000  0 16                     
G07  21482962.970   112893734.422         641.600          44.000    21482945.211    84303690.475         479.175          48.000  
G01  23603404.490   124036730.536        2788.985          44.000    23603387.860    92624761.886        2082.701          47.000  
G21  22749331.179   119548543.127         464.183          44.000    22749313.711    89273191.504         346.559          48.000  
G09  24183151.620   127083321.671       -3186.866          43.000    24183135.370    94899818.464       -2379.925          47.000  
G27  25891608.460   136061323.735       -3824.230          43.000    25891594.034   101604176.588       -2855.740          47.000  
G04  26005313.665   136658848.944       -3688.625          43.000    26005299.399   102050379.506       -2754.565          46.000  
G14  24148192.472   126899608.903        1651.483          43.000    24148176.237    94762629.962        1233.460          47.000  
G17  24325473.362   127831229.640        2783.138          43.000    24325457.753    95458320.177        2078.436          47.000  
E12  29065651.651   152741032.384        2845.198          44.000    29065645.081   114059836.197        2124.695          46.000  
E21  29684619.313   155993728.307       -1759.773          44.000    29684608.764   116488782.844       -1313.970          46.000  
E24  29134943.290   153105160.115        1400.343          44.000    29134930.575   114331724.606        1045.710          46.000  
E31  25859081.488   135890389.091         535.408          45.000    25859066.215   101476531.123         399.599          47.000  
E33  26371230.159   138581749.209        1944.943          45.000    26371215.221   103486311.913        1452.279          47.000  
E14  21679409.200   113926062.651        -932.787          46.000    21679392.583    85074589.991        -696.669          48.000  
E01  26301036.442   138212878.808       -1056.807          45.000    26301020.445   103210854.346        -789.250          47.000  
E04  27016447.093   141972387.289       -2637.155          45.000    27016434.765   106018293.223       -1969.258          47.000  
> 2023 01 08 09 45 52.0040000  0 16                     
G07  21482841.020   112893093.201         641.109          44.000    21482823.408    84303211.644         478.737          48.000  
G01  23602873.828   124033941.717        2788.707          44.000    23602857.228    92622679.331        2082.606          47.000  
G21  22749242.832   119548079.389         463.596          44.000    22749225.461    89272845.218         346.024          48.000  
G09  24183758.136   127086508.777       -3187.050          43.000    24183741.812    94902198.443       -2379.947          47.000  
G27  25892336.168   136065148.144       -3824.164          43.000    25892321.907   101607032.478       -2855.867          46.000  
G04  26006015.659   136662537.747       -3688.598          43.000    26006001.386   102053134.134       -2754.577          46.000  
G14  24147878.190   126897957.406        1651.567          43.000    24147862.012    94761396.714        1233.277          47.000  
G17  24324943.733   127828446.624        2782.954          43.000    24324928.179    95456241.957        2078.156          47.000  
E12  29065110.272   152738187.368        2845.051          44.000    29065103.662   114057711.677        2124.661          46.000  
E21  29684954.322   155995488.238       -1759.844          44.000    29684943.641   116490097.081       -1314.075          46.000  
E24  29134676.898   153103760.055        1400.186          44.000    29134664.033   114330679.116        1045.489          46.000  
E31  25858979.597   135889853.983         535.140          45.000    25858964.396   101476131.529         399.463          47.000  
E33  26370860.053   138579804.664        1944.300          45.000    26370845.152   103484859.812        1452.138          47.000  
E14  21679586.702   113926996.071        -933.852          46.000    21679570.161    85075287.028        -697.432          48.000  
E01  26301237.494   138213935.808       -1056.879          45.000    26301221.571   103211643.665        -789.209          47.000  
E04  27016948.961   141975024.668       -2637.495          45.000    27016936.715   106020262.699       -1969.502          47.000  
> 2023 01 08 09 45 53.0040000  0 16                     
G07  21482719.139   112892452.487         640.361          44.000    21482701.331    84302733.189         478.210          48.000  
G01  23602343.188   124031153.236        2788.031          43.000    23602326.515    92620597.023        2082.160          47.000  
G21  22749154.619   119547616.306         462.618          44.000    22749137.405    89272499.398         345.447          48.000  
G09  24184364.739   127089696.090       -3187.782          43.000    24184348.261    94904578.568       -2380.263          47.000  
G27  25893063.914   136068972.579       -3824.688          43.000    25893049.650   101609888.378       -2856.080          46.000  
G04  26006717.608   136666226.462       -3688.721          43.000    26006703.391   102055888.678       -2754.492          46.000  
G14  24147564.074   126896306.009        1651.294          43.000    24147547.834    94760163.528        1233.029          47.000  
G17  24324414.148   127825663.954        2782.096          43.000    24324398.638    95454163.986        2077.802          47.000  
E12  29064568.945   152735342.270        2844.997          44.000    29064562.274   114055587.101        2124.358          46.000  
E21  29685289.332   155997248.195       -1760.147          44.000    29685278.656   116491411.337       -1314.439          46.000  
E24  29134410.403   153102360.004        1399.831          44.000    29134397.774   114329633.624        1045.350          46.000  
E31  25858877.811   135889318.907         534.913          45.000    25858862.526   101475731.957         399.451          47.000  
E33  26370490.185   138577860.428        1943.857          45.000    26370475.215   103483407.959        1451.583          47.000  
E14  21679764.619   113927930.450        -935.138          46.000    21679747.883    85075984.767        -698.194          48.000  
E01  26301438.797   138214992.859       -1057.198          45.000    26301422.741   103212433.009        -789.321          47.000  
E04  27017450.826   141977662.226       -2637.926          45.000    27017438.641   106022232.292       -1969.657          47.000  
> 2023 01 08 09 45 54.0040000  0 16                     
G07  21482597.319   112891812.209         640.100          44.000    21482579.429    84302255.069         477.885          48.000  
G01  23601812.492   124028364.997        2787.849          43.000    23601795.963    92618514.901        2081.986          47.000  
G21  22749066.632   119547153.773         462.136          44.000    22749049.444    89272154.004         345.190          48.000  
G09  24184971.252   127092883.514       -3187.569          43.000    24184954.814    94906958.789       -2380.232          47.000  
G27  25893791.851   136072796.934       -3824.336          43.000    25893777.427   101612744.228       -2855.979          46.000  
G04  26007419.573   136669915.009       -3688.554          43.000    26007405.203   102058643.120       -2754.461          46.000  
G14  24147249.862   126894654.629        1651.487          43.000    24147233.387    94758930.368        1233.047          47.000  
G17  24323884.676   127822881.536        2782.033          43.000    24323869.184    95452086.205        2077.696          47.000  
E12  29064027.554   152732497.040        2845.200          44.000    29064020.825   114053462.423        2124.750          46.000  
E21  29685624.104   155999008.103       -1759.944          44.000    29685613.465   116492725.547       -1314.324          46.000  
E24  29134144.138   153100959.885        1399.985          44.000    29134131.264   114328588.084        1045.557          46.000  
E31  25858775.906   135888783.790         535.129          45.000    25858760.774   101475332.364         399.568          47.000  
E33  26370120.299   138575916.453        1943.644          45.000    26370105.223   103481956.291        1451.610          47.000  
E14  21679942.604   113928865.691        -935.912          46.000    21679925.944    85076683.160        -698.737          48.000  
E01  26301639.852   138216049.884       -1057.124          45.000    26301623.957   103213222.353        -789.232          47.000  
E04  27017952.748   141980299.869       -2637.890          45.000    27017940.586   106024201.958       -1969.743          47.000  
> 2023 01 08 09 45 55.0040000  0 16                     
G07  21482475.510   112891172.384         639.427          44.000    21482457.751    84301777.273         477.532          48.000  
G01  23601282.017   124025577.024        2787.411          43.000    23601265.372    92616432.970        2081.712          47.000  
G21  22748978.801   119546691.806         461.504          44.000    22748961.471    89271809.034         344.569          48.000  
G09  24185577.842   127096071.073       -3187.608          43.000    24185561.469    94909339.115       -2380.335          47.000  
G27  25894519.563   136076621.247       -3824.494          43.000    25894505.044   101615600.046       -2855.931          46.000  
G04  26008121.401   136673603.390       -3688.430          43.000    26008107.100   102061397.437       -2754.472          46.000  
G14  24146935.581   126893003.299        1650.845          43.000    24146919.232    94757697.221        1232.869          47.000  
G17  24323355.206   127820099.376        2781.549          43.000    24323339.655    95450008.626        2077.218          47.000  
E12  29063485.996   152729651.678        2845.127          44.000    29063479.441   114051337.647        2124.563          46.000  
E21  29685959.095   156000767.965       -1760.165          44.000    29685948.338   116494039.722       -1314.138          46.000  
E24  29133877.517   153099559.685        1400.008          44.000    29133864.880   114327542.487        1045.597          46.000  
E31  25858674.079   135888248.657         534.859          45.000    25858658.970   101474932.743         399.529          47.000  
E33  26369750.315   138573972.712        1943.404          45.000    26369735.372   103480504.817        1451.100          47.000  
E14  21680120.548   113929801.809        -936.770          46.000    21680104.144    85077382.214        -699.506          48.000  
E01  26301841.179   138217106.881       -1057.326          45.000    26301824.953   103214011.668        -789.458          47.000  
E04  27018454.719   141982937.620       -2638.208          45.000    27018442.644   106026171.705       -1970.044          47.000  
> 2023 01 08 09 45 56.0040000  0 16                     
G07  21482353.887   112890533.043         639.334          44.000    21482336.153    84301299.848         477.200          48.000  
G01  23600751.408   124022789.329        2787.778          43.000    23600734.862    92614351.260        2081.686          47.000  
G21  22748890.927   119546230.451         461.301          44.000    22748873.686    89271464.517         344.302          48.000  
G09  24186184.470   127099258.826       -3187.900          43.000    24186168.003    94911719.574       -2380.546          47.000  
G27  25895247.306   136080445.537       -3824.285          43.000    25895232.869   101618455.847       -2855.773          46.000  
G04  26008823.316   136677291.665       -3688.049          43.000    26008809.059   102064151.656       -2754.136          46.000  
G14  24146621.432   126891352.014        1651.347          43.000    24146604.974    94756464.116        1233.073          47.000  
G17  24322825.881   127817317.507        2781.800          43.000    24322810.460    95447931.264        2077.294          47.000  
E12  29062944.455   152726806.225        2845.540          44.000    29062937.880   114049212.793        2124.973          46.000  
E21  29686293.938   156002527.832       -1759.835          44.000    29686283.200   116495353.912       -1314.157          46.000  
E24  29133610.700   153098159.471        1400.302          44.000    29133598.353   114326496.883        1045.697          46.000  
E31  25858572.463   135887713.529         535.117          45.000    25858557.242   101474533.137         399.574          47.000  
E33  26369380.459   138572029.282        1943.363          45.000    26369365.529   103479053.547        1451.278          47.000  
E14  21680299.063   113930738.861        -937.522          46.000    21680282.405    85078081.950        -699.988          48.000  
E01  26302042.268   138218163.899       -1056.985          45.000    26302026.094   103214801.007        -789.337          47.000  
E04  27018956.639   141985575.505       -2638.014          45.000    27018944.569   106028141.549       -1969.861          47.000  
> 2023 01 08 09 45 57.0040000  0 16                     
G07  21482232.352   112889894.235         638.476          44.000    21482214.486    84300822.809         476.688          48.000  
G01  23600220.940   124020001.991        2787.184          43.000    23600204.448    92612269.807        2081.251          47.000  
G21  22748803.253   119545769.749         460.481          44.000    22748785.975    89271120.489         343.807          48.000  
G09  24186791.140   127102446.782       -3188.095          43.000    24186774.831    94914100.183       -2380.688          47.000  
G27  25895975.016   136084269.861       -3824.376          43.000    25895960.646   101621311.670       -2855.787          46.000  
G04  26009525.111   136680979.853       -3688.106          43.000    26009510.846   102066905.820       -2754.069          46.000  
G14  24146307.124   126889700.838        1651.068          43.000    24146290.867    94755231.096        1233.023          47.000  
G17  24322296.580   127814536.000        2781.219          43.000    24322281.048    95445854.168        2076.927          47.000  
E12  29062402.946   152723960.712        2845.608          44.000    29062396.432   114047087.913        2124.876          46.000  
E21  29686628.935   156004287.729       -1759.930          44.000    29686618.221   116496668.123       -1314.198          46.000  
E24  29133344.265   153096759.274        1400.101          44.000    29133332.004   114325451.282        1045.590          46.000  
E31  25858470.659   135887178.447         535.055          45.000    25858455.387   101474133.558         399.733          47.000  
E33  26369010.836   138570086.190        1942.968          45.000    26368995.894   103477602.541        1450.867          47.000  
E14  21680477.505   113931676.864        -938.528          46.000    21680460.879    85078782.416        -700.874          48.000  
E01  26302243.170   138219220.968       -1056.989          45.000    26302227.302   103215590.374        -789.347          47.000  
E04  27019458.656   141988213.572       -2638.165          45.000    27019446.531   106030111.529       -1969.967          47.000  
> 2023 01 08 09 45 58.0040000  0 16                     
G07  21482110.884   112889255.910         638.133          44.000    21482093.073    84300346.137         476.575          48.000  
G01  23599690.622   124017214.960        2786.932          43.000    23599674.128    92610188.584        2081.100          47.000  
G21  22748715.724   119545309.681         459.794          44.000    22748698.446    89270776.923         343.308          48.000  
G09  24187397.902   127105634.923       -3188.196          43.000    24187381.429    94916480.942       -2380.832          47.000  
G27  25896702.751   136088094.193       -3824.270          43.000    25896688.425   101624167.494       -2855.714          46.000  
G04  26010226.832   136684667.942       -3688.032          43.000    26010212.572   102069659.910       -2754.155          46.000  
G14  24145992.862   126888049.745        1651.232          43.000    24145976.571    94753998.149        1232.852          47.000  
G17  24321767.392   127811754.817        2780.668          43.000    24321751.741    95443777.302        2076.762          47.000  
E12  29061861.667   152721115.145        2845.580          44.000    29061855.012   114044962.970        2124.978          46.000  
E21  29686963.655   156006047.636       -1759.853          44.000    29686953.182   116497982.328       -1314.084          46.000  
E24  29133078.034   153095359.064        1400.356          44.000    29133065.513   114324405.676        1045.604          46.000  
E31  25858368.836   135886643.392         535.092          45.000    25858353.511   101473734.016         399.526          47.000  
E33  26368641.044   138568143.407        1942.595          45.000    26368626.086   103476151.768        1450.578          47.000  
E14  21680656.125   113932615.817        -939.489          46.000    21680639.561    85079483.577        -701.620          48.000  
E01  26302444.436   138220278.092       -1057.185          45.000    26302428.447   103216379.780        -789.436          47.000  
E04  27019960.823   141990851.809       -2638.452          45.000    27019948.566   106032081.624       -1970.020          47.000  
> 2023 01 08 09 45 59.0040000  0 16                     
G07  21481989.561   112888618.034         637.756          44.000    21481971.683    84299869.806         476.233          48.000  
G01  23599160.397   124014428.195        2786.574          43.000    23599143.842    92608107.562        2080.872          47.000  
G21  22748628.386   119544850.160         459.263          44.000    22748611.135    89270433.783         342.991          48.000  
G09  24188004.507   127108823.193       -3188.194          43.000    24187988.202    94918861.799       -2381.006          47.000  
G27  25897430.614   136091918.470       -3824.390          43.000    25897416.120   101627023.284       -2855.821          46.000  
G04  26010928.660   136688355.862       -3687.757          43.000    26010914.555   102072413.872       -2753.926          46.000  
G14  24145678.732   126886398.689        1650.969          43.000    24145662.419    94752765.216        1232.934          47.000  
G17  24321238.180   127808973.862        2780.945          43.000    24321222.683    95441700.637        2076.542          47.000  
E12  29061320.087   152718269.417        2845.868          44.000    29061313.323   114042837.931        2125.085          46.000  
E21  29687298.508   156007807.511       -1759.982          44.000    29687287.950   116499296.523       -1314.149          46.000  
E24  29132811.571   153093958.790        1400.317          44.000    29132799.058   114323360.023        1045.700          46.000  
E31  25858266.837   135886108.312         535.124          45.000    25858251.652   101473334.433         399.662          47.000  
E33  26368271.298   138566200.869        1942.618          45.000    26368256.468   103474701.181        1450.457          47.000  
E14  21680834.953   113933555.641        -940.264          46.000    21680818.323    85080185.389        -702.107          48.000  
E01  26302645.620   138221335.183       -1056.994          45.000    26302629.650   103217169.163        -789.364          47.000  
E04  27020462.798   141993490.128       -2638.330          45.000    27020450.606   106034051.813       -1970.288          47.000  
> 2023 01 08 09 46 00.0040000  0 16                     
G07  21481868.285   112887980.726         636.941          44.000    21481850.477    84299393.888         475.750          48.000  
G01  23598630.146   124011641.795        2786.203          44.000    23598613.614    92606026.804        2080.647          47.000  
G21  22748541.075   119544391.341         458.474          44.000    22748523.701    89270091.155         342.366          48.000  
G09  24188611.310   127112011.727       -3188.750          43.000    24188594.844    94921242.842       -2381.210          47.000  
G27  25898158.355   136095742.799       -3824.384          43.000    25898143.923   101629879.117       -2855.891          46.000  
G04  26011630.458   136692043.730       -3687.522          43.000    26011616.269   102075167.814       -2753.955          46.000  
G14  24145364.519   126884747.781        1650.610          43.000    24145348.170    94751532.390        1232.809          47.000  
G17  24320709.034   127806193.319        2780.327          43.000    24320693.528    95439624.253        2076.301          47.000  
E12  29060778.658   152715423.690        2845.676          44.000    29060771.929   114040712.882        2125.083          46.000  
E21  29687633.600   156009567.441       -1759.944          44.000    29687622.883   116500610.764       -1314.249          46.000  
E24  29132545.089   153092558.573        1400.091          44.000    29132532.507   114322314.411        1045.587          46.000  
E31  25858165.065   135885573.318         534.890          45.000    25858149.887   101472934.926         399.513          47.000  
E33  26367901.971   138564258.722        1941.824          45.000    26367886.930   103473250.872        1450.134          47.000  
E14  21681014.011   113934496.462        -941.314          46.000    21680997.429    85080887.949        -702.857          48.000  
E01  26302846.819   138222392.365       -1057.151          45.000    26302830.800   103217958.617        -789.457          47.000  
E04  27020964.837   141996128.674       -2638.646          45.000    27020952.698   106036022.143       -1970.292          47.000  
> 2023 01 08 09 46 01.0040000  0 16                     
G07  21481747.111   112887343.874         636.597          44.000    21481729.122    84298918.323         475.381          48.000  
G01  23598100.008   124008855.654        2786.234          43.000    23598083.421    92603946.265        2080.452          47.000  
G21  22748453.879   119543933.105         458.038          44.000    22748436.471    89269748.965         341.998          48.000  
G09  24189218.164   127115200.401       -3188.725          43.000    24189201.639    94923623.988       -2381.147          47.000  
G27  25898886.037   136099567.082       -3824.023          43.000    25898871.637   101632734.916       -2855.743          46.000  
G04  26012332.279   136695731.482       -3687.705          43.000    26012317.937   102077921.639       -2753.825          46.000  
G14  24145050.367   126883096.893        1650.874          43.000    24145034.008    94750299.595        1232.810          47.000  
G17  24320179.981   127803413.044        2780.122          43.000    24320164.327    95437548.077        2076.015          47.000  
E12  29060236.888   152712577.845        2845.950          44.000    29060230.396   114038587.738        2125.212          46.000  
E21  29687968.552   156011327.357       -1759.846          44.000    29687957.951   116501924.972       -1314.040          46.000  
E24  29132278.699   153091158.307        1400.163          44.000    29132265.954   114321268.747        1045.846          46.000  
E31  25858063.352   135885038.301         535.121          45.000    25858048.098   101472535.418         399.462          47.000  
E33  26367532.340   138562316.819        1941.743          45.000    26367517.421   103471800.759        1450.023          47.000  
E14  21681193.175   113935438.179        -942.028          46.000    21681176.696    85081591.181        -703.480          48.000  
E01  26303048.076   138223449.554       -1057.159          45.000    26303031.952   103218748.079        -789.365          47.000  
E04  27021466.985   141998767.340       -2638.711          45.000    27021454.760   106037992.571       -1970.374          47.000  
> 2023 01 08 09 46 02.0040000  0 16                     
G07  21481626.069   112886707.443         636.074          44.000    21481608.130    84298443.058         475.096          48.000  
G01  23597569.934   124006069.772        2785.615          43.000    23597553.166    92601865.885        2080.240          47.000  
G21  22748366.636   119543475.398         457.427          44.000    22748349.430    89269407.183         341.492          48.000  
G09  24189824.945   127118389.175       -3188.844          43.000    24189808.364    94926005.215       -2381.345          47.000  
G27  25899613.799   136103391.292       -3824.215          43.000    25899599.357   101635590.659       -2855.709          46.000  
G04  26013034.008   136699419.022       -3687.625          43.000    26013019.756   102080675.318       -2753.704          46.000  
G14  24144736.159   126881446.015        1650.823          43.000    24144719.912    94749066.793        1232.850          47.000  
G17  24319650.972   127800632.994        2780.018          43.000    24319635.440    95435472.076        2075.847          47.000  
E12  29059695.248   152709731.841        2846.006          44.000    29059688.666   114036462.479        2125.404          46.000  
E21  29688303.184   156013087.191       -1759.881          44.000    29688292.725   116503239.145       -1314.347          46.000  
E24  29132012.134   153089757.935        1400.271          44.000    29131999.668   114320223.036        1045.750          46.000  
E31  25857961.490   135884503.233         534.988          45.000    25857946.216   101472135.842         399.571          47.000  
E33  26367163.018   138560375.159        1941.273          45.000    26367147.817   103470350.813        1449.863          47.000  
E14  21681372.631   113936380.751        -943.032          46.000    21681355.980    85082295.044        -704.213          48.000  
E01  26303249.286   138224506.681       -1057.234          45.000    26303233.098   103219537.502        -789.491          47.000  
E04  27021969.137   142001406.068       -2638.909          45.000    27021956.937   106039963.050       -1970.546          47.000  
> 2023 01 08 09 46 03.0040000  0 16                     
G07  21481505.181   112886071.522         635.616          44.000    21481487.036    84297968.187         474.636          48.000  
G01  23597039.754   124003284.204        2785.405          44.000    23597023.279    92599785.753        2080.205          47.000  
G21  22748279.628   119543018.344         456.869          44.000    22748262.333    89269065.870         341.079          48.000  
G09  24190431.740   127121578.163       -3189.052          43.000    24190415.232    94928386.594       -2381.272          47.000  
G27  25900341.517   136107215.540       -3824.296          43.000    25900326.921   101638446.410       -2855.684          46.000  
G04  26013735.623   136703106.493       -3687.464          43.000    26013721.277   102083428.940       -2753.492          46.000  
G14  24144422.062   126879795.246        1650.726          43.000    24144405.828    94747834.077        1232.722          47.000  
G17  24319122.071   127797853.298        2779.607          43.000    24319106.404    95433396.324        2075.651          47.000  
E12  29059153.779   152706885.774        2846.059          44.000    29059147.175   114034337.189        2125.221          46.000  
E21  29688638.189   156014847.066       -1759.876          44.000    29688627.524   116504553.319       -1313.988          46.000  
E24  29131745.741   153088357.576        1400.409          44.000    29131733.033   114319177.313        1045.822          46.000  
E31  25857859.700   135883968.204         535.030          45.000    25857844.353   101471736.317         399.435          47.000  
E33  26366793.395   138558433.824        1941.189          45.000    26366778.302   103468901.121        1449.562          47.000  
E14  21681552.139   113937324.281        -944.071          46.000    21681535.443    85082999.626        -704.920          48.000  
E01  26303450.395   138225563.867       -1057.134          45.000    26303434.407   103220326.947        -789.351          47.000  
E04  27022471.257   142004044.978       -2638.917          45.000    27022459.175   106041933.662       -1970.656          47.000  
> 2023 01 08 09 46 04.0040000  0 16                     
G07  21481384.337   112885436.022         635.301          44.000    21481366.083    84297493.629         474.382          48.000  
G01  23596509.673   124000498.876        2785.148          44.000    23596493.158    92597705.809        2079.857          47.000  
G21  22748192.639   119542561.840         456.014          44.000    22748175.581    89268724.968         340.721          48.000  
G09  24191038.613   127124767.252       -3189.124          43.000    24191022.199    94930768.059       -2381.451          47.000  
G27  25901069.291   136111039.686       -3824.104          43.000    25901054.719   101641302.108       -2855.632          46.000  
G04  26014437.266   136706793.770       -3687.395          43.000    26014422.933   102086182.422       -2753.432          46.000  
G14  24144107.943   126878144.471        1650.609          43.000    24144091.667    94746601.356        1232.807          47.000  
G17  24318593.116   127795073.838        2779.175          43.000    24318577.535    95431320.757        2075.399          47.000  
E12  29058612.120   152704039.562        2846.179          44.000    29058605.457   114032211.764        2125.559          46.000  
E21  29688973.078   156016606.873       -1759.928          44.000    29688962.453   116505867.468       -1314.155          46.000  
E24  29131479.271   153086957.127        1400.547          44.000    29131466.609   114318131.524        1045.989          46.000  
E31  25857757.830   135883433.118         535.161          45.000    25857742.665   101471336.735         399.615          47.000  
E33  26366423.928   138556492.716        1940.943          45.000    26366408.939   103467451.604        1449.385          47.000  
E14  21681731.667   113938268.657        -944.846          46.000    21681715.261    85083704.840        -705.451          48.000  
E01  26303651.333   138226621.010       -1057.154          45.000    26303635.518   103221116.370        -789.356          47.000  
E04  27022973.642   142006683.956       -2638.932          45.000    27022961.445   106043904.318       -1970.579          47.000  
> 2023 01 08 09 46 05.0040000  0 16                     
G07  21481263.442   112884800.956         634.891          44.000    21481245.325    84297019.385         474.200          48.000  
G01  23595979.771   123997713.791        2785.029          44.000    23595963.176    92595626.035        2079.685          47.000  
G21  22748105.871   119542105.875         455.804          44.000    22748088.750    89268384.478         340.337          48.000  
G09  24191645.498   127127956.458       -3189.194          43.000    24191628.912    94933149.605       -2381.510          47.000  
G27  25901796.954   136114863.774       -3824.043          43.000    25901782.392   101644157.750       -2855.462          46.000  
G04  26015138.937   136710480.850       -3686.760          43.000    26015124.670   102088935.774       -2753.363          46.000  
G14  24143793.726   126876493.696        1650.855          43.000    24143777.462    94745368.646        1232.806          47.000  
G17  24318064.297   127792294.613        2779.122          43.000    24318048.688    95429245.371        2075.185          47.000  
E12  29058070.602   152701193.173        2846.756          44.000    29058063.916   114030086.234        2125.486          46.000  
E21  29689308.020   156018366.614       -1759.739          44.000    29689297.320   116507181.553       -1314.084          46.000  
E24  29131212.703   153085556.603        1400.651          44.000    29131200.069   114317085.693        1045.716          46.000  
E31  25857655.986   135882897.989         535.303          45.000    25857640.825   101470937.124         399.810          47.000  
E33  26366054.519   138554551.844        1940.880          45.000    26366039.740   103466002.248        1449.334          47.000  
E14  21681911.830   113939213.904        -945.563          46.000    21681895.111    85084410.704        -706.161          48.000  
E01  26303852.599   138227678.106       -1056.943          45.000    26303836.638   103221905.763        -789.437          47.000  
E04  27023475.764   142009323.030       -2639.050          45.000    27023463.616   106045875.050       -1970.757          47.000  
> 2023 01 08 09 46 06.0040000  0 16                     
G07  21481142.634   112884166.414         634.263          44.000    21481124.537    84296545.538         473.611          48.000  
G01  23595449.934   123994929.047        2784.442          44.000    23595433.253    92593546.514        2079.493          47.000  
G21  22748019.407   119541650.571         454.930          44.000    22748002.098    89268044.482         339.655          48.000  
G09  24192252.442   127131145.875       -3189.410          43.000    24192235.972    94935531.319       -2381.836          47.000  
G27  25902524.669   136118687.876       -3823.946          43.000    25902510.156   101647013.418       -2855.741          46.000  
G04  26015840.533   136714167.864       -3687.022          43.000    26015826.333   102091689.058       -2753.190          46.000  
G14  24143479.572   126874843.054        1650.552          43.000    24143463.397    94744136.017        1232.567          47.000  
G17  24317535.462   127789515.741        2778.678          43.000    24317519.889    95427170.238        2074.823          47.000  
E12  29057528.973   152698346.762        2846.447          44.000    29057522.222   114027960.668        2125.452          46.000  
E21  29689642.855   156020126.386       -1759.827          44.000    29689632.344   116508495.673       -1314.109          46.000  
E24  29130946.169   153084156.097        1400.406          44.000    29130933.539   114316039.850        1045.813          46.000  
E31  25857554.198   135882362.919         535.027          45.000    25857539.009   101470537.558         399.500          47.000  
E33  26365685.341   138552611.314        1940.301          45.000    26365670.454   103464553.158        1448.983          47.000  
E14  21682091.779   113940160.105        -946.667          46.000    21682075.230    85085117.284        -706.935          48.000  
E01  26304053.815   138228735.266       -1057.176          45.000    26304037.843   103222695.202        -789.420          47.000  
E04  27023977.905   142011962.280       -2639.456          45.000    27023965.818   106047845.914       -1970.874          47.000  
> 2023 01 08 09 46 07.0040000  0 16                     
G07  21481021.954   112883532.472         633.672          44.000    21481003.984    84296072.137         473.266          48.000  
G01  23594920.116   123992144.703        2784.164          44.000    23594903.394    92591467.309        2078.962          47.000  
G21  22747932.888   119541195.977         454.469          44.000    22747915.498    89267705.019         339.149          48.000  
G09  24192859.377   127134335.577       -3189.672          43.000    24192842.948    94937913.243       -2382.002          47.000  
G27  25903252.473   136122512.101       -3824.347          43.000    25903237.871   101649869.150       -2855.677          46.000  
G04  26016542.108   136717854.877       -3686.793          43.000    26016527.914   102094442.347       -2753.373          46.000  
G14  24143165.487   126873192.579        1650.521          43.000    24143149.346    94742903.522        1232.470          47.000  
G17  24317006.823   127786737.279        2778.363          43.000    24316991.204    95425095.414        2074.743          47.000  
E12  29056987.257   152695500.362        2846.473          44.000    29056980.558   114025835.122        2125.469          46.000  
E21  29689977.594   156021886.275       -1759.910          44.000    29689967.267   116509809.882       -1314.261          46.000  
E24  29130679.928   153082755.667        1400.378          44.000    29130667.142   114314994.092        1045.655          46.000  
E31  25857452.398   135881827.958         534.960          45.000    25857437.149   101470138.080         399.444          47.000  
E33  26365316.185   138550671.193        1939.928          45.000    26365301.166   103463104.375        1448.641          47.000  
E14  21682272.104   113941107.347        -947.663          46.000    21682255.561    85085824.645        -707.907          48.000  
E01  26304255.030   138229792.563       -1057.385          45.000    26304238.937   103223484.745        -789.628          47.000  
E04  27024480.142   142014601.782       -2639.669          45.000    27024468.019   106049816.962       -1971.057          47.000  
> 2023 01 08 09 46 08.0040000  0 16                     
G07  21480901.365   112882898.837         633.356          44.000    21480883.302    84295598.971         473.101          48.000  
G01  23594390.364   123989360.494        2784.097          43.000    23594373.660    92589388.194        2079.085          47.000  
G21  22747846.462   119540741.840         453.878          44.000    22747829.156    89267365.881         338.932          48.000  
G09  24193466.405   127137525.296       -3189.838          43.000    24193449.926    94940295.165       -2381.936          47.000  
G27  25903980.228   136126336.112       -3823.955          43.000    25903965.573   101652724.758       -2855.571          46.000  
G04  26017243.581   136721541.589       -3686.360          43.000    26017229.478   102097195.410       -2753.022          46.000  
G14  24142851.338   126871542.001        1650.532          43.000    24142835.195    94741670.951        1232.604          47.000  
G17  24316478.185   127783958.954        2778.219          43.000    24316462.317    95423020.699        2074.602          47.000  
E12  29056445.543   152692653.702        2846.850          44.000    29056438.780   114023709.368        2125.745          46.000  
E21  29690312.542   156023645.998       -1759.806          44.000    29690302.081   116511123.943       -1313.930          46.000  
E24  29130413.278   153081355.049        1400.644          44.000    29130400.601   114313948.178        1045.915          46.000  
E31  25857350.632   135881292.844         535.103          45.000    25857335.362   101469738.483         399.560          47.000  
E33  26364946.986   138548731.193        1939.930          45.000    26364932.038   103461655.677        1448.600          47.000  
E14  21682452.524   113942055.339        -948.327          46.000    21682435.914    85086532.552        -708.285          48.000  
E01  26304456.106   138230849.705       -1057.085          45.000    26304440.206   103224274.159        -789.250          47.000  
E04  27024982.673   142017241.246       -2639.426          45.000    27024970.197   106051787.994       -1971.010          47.000  
> 2023 01 08 09 46 09.0040000  0 16                     
G07  21480780.860   112882265.675         632.895          44.000    21480762.877    84295126.167         472.524          48.000  
G01  23593860.650   123986576.566        2783.894          44.000    23593843.822    92587309.287        2078.816          47.000  
G21  22747760.170   119540288.271         453.497          44.000    22747742.822    89267027.194         338.445          48.000  
G09  24194073.528   127140715.168       -3190.112          43.000    24194056.910    94942677.203       -2382.096          47.000  
G27  25904707.961   136130160.092       -3823.691          43.000    25904693.296   101655580.335       -2855.676          46.000  
G04  26017945.055   136725228.179       -3686.578          43.000    26017931.055   102099948.367       -2752.811          46.000  
G14  24142537.257   126869891.476        1650.440          43.000    24142521.136    94740438.422        1232.347          47.000  
G17  24315949.504   127781180.927        2777.854          43.000    24315933.885    95420946.189        2074.443          47.000  
E12  29055903.939   152689806.939        2846.863          44.000    29055897.162   114021583.540        2125.876          46.000  
E21  29690647.495   156025405.699       -1759.884          44.000    29690636.795   116512438.008       -1314.008          46.000  
E24  29130146.746   153079954.388        1400.666          44.000    29130134.057   114312902.235        1045.852          46.000  
E31  25857248.637   135880757.724         535.168          45.000    25857233.576   101469338.878         399.580          47.000  
E33  26364577.813   138546791.478        1939.710          45.000    26364562.838   103460207.200        1448.210          47.000  
E14  21682632.975   113943004.239        -949.331          46.000    21682616.445    85087241.141        -708.913          48.000  
E01  26304657.423   138231906.855       -1057.089          45.000    26304641.354   103225063.590        -789.435          47.000  
E04  27025484.921   142019880.853       -2639.776          45.000    27025472.731   106053759.114       -1971.094          47.000  
> 2023 01 08 09 46 10.0040000  0 16                     
G07  21480660.467   112881632.957         632.425          44.000    21480642.433    84294653.673         472.294          48.000  
G01  23593331.012   123983792.900        2783.587          44.000    23593314.170    92585230.575        2078.648          47.000  
G21  22747674.035   119539835.309         452.415          44.000    22747656.645    89266688.925         337.914          48.000  
G09  24194680.513   127143905.157       -3190.380          43.000    24194663.997    94945059.342       -2382.249          47.000  
G27  25905435.556   136133984.040       -3824.094          43.000    25905420.923   101658435.868       -2855.646          46.000  
G04  26018646.488   136728914.590       -3686.473          43.000    26018632.512   102102701.208       -2752.727          46.000  
G14  24142223.179   126868240.978        1650.217          43.000    24142207.092    94739205.902        1232.412          47.000  
G17  24315420.857   127778403.144        2777.453          43.000    24315405.305    95418871.883        2074.093          47.000  
E12  29055362.180   152686960.042        2846.729          44.000    29055355.378   114019457.618        2125.897          46.000  
E21  29690982.247   156027165.335       -1759.666          44.000    29690971.582   116513752.033       -1314.128          46.000  
E24  29129879.862   153078553.654        1400.679          44.000    29129867.408   114311856.237        1046.038          46.000  
E31  25857146.958   135880222.573         534.973          45.000    25857131.623   101468939.264         399.394          47.000  
E33  26364208.645   138544852.008        1939.198          45.000    26364193.808   103458758.892        1448.152          47.000  
E14  21682813.874   113943954.012        -950.414          46.000    21682797.177    85087950.386        -709.609          48.000  
E01  26304858.657   138232963.978       -1057.290          45.000    26304842.548   103225852.999        -789.492          47.000  
E04  27025987.198   142022520.537       -2639.826          45.000    27025974.927   106055730.314       -1971.380          47.000  
> 2023 01 08 09 46 11.0040000  0 16                     
G07  21480540.091   112881000.823         631.714          44.000    21480522.173    84294181.627         471.787          48.000  
G01  23592801.347   123981009.629        2783.064          44.000    23592784.481    92583152.169        2078.150          47.000  
G21  22747588.090   119539383.021         451.879          44.000    22747570.579    89266351.192         337.333          48.000  
G09  24195287.532   127147095.425       -3190.784          43.000    24195271.025    94947441.679       -2382.539          47.000  
G27  25906163.148   136137808.053       -3824.117          43.000    25906148.627   101661291.455       -2855.594          46.000  
G04  26019347.919   136732600.998       -3686.612          43.000    26019334.012   102105454.038       -2752.873          46.000  
G14  24141909.115   126866590.638        1650.138          43.000    24141892.926    94737973.505        1232.339          47.000  
G17  24314892.292   127775625.769        2777.127          43.000    24314876.786    95416797.867        2073.832          47.000  
E12  29054820.278   152684113.143        2846.796          44.000    29054813.633   114017331.693        2125.965          46.000  
E21  29691317.322   156028925.084       -1759.828          44.000    29691306.602   116515066.120       -1314.069          46.000  
E24  29129613.589   153077153.004        1400.528          44.000    29129600.866   114310810.292        1046.106          46.000  
E31  25857045.036   135879687.527         534.948          45.000    25857029.850   101468539.715         399.293          47.000  
E33  26363839.768   138542912.938        1938.794          45.000    26363824.843   103457310.887        1447.840          47.000  
E14  21682994.540   113944904.805        -951.403          46.000    21682978.027    85088660.397        -710.575          48.000  
E01  26305059.685   138234021.219       -1057.461          45.000    26305043.700   103226642.498        -789.617          47.000  
E04  27026489.555   142025160.477       -2640.263          45.000    27026477.398   106057701.683       -1971.526          47.000  
> 2023 01 08 09 46 12.0040000  0 16                     
G07  21480419.825   112880369.219         631.346          44.000    21480401.930    84293709.975         471.439          48.000  
G01  23592271.693   123978226.720        2782.420          43.000    23592254.929    92581074.010        2077.893          47.000  
G21  22747502.071   119538931.399         451.090          44.000    22747484.644    89266013.937         336.964          48.000  
G09  24195894.669   127150285.902       -3190.665          43.000    24195878.128    94949824.182       -2382.671          47.000  
G27  25906890.821   136141632.108       -3824.135          43.000    25906876.321   101664147.081       -2855.733          46.000  
G04  26020049.404   136736287.303       -3686.268          43.000    26020035.454   102108206.804       -2752.745          46.000  
G14  24141595.175   126864940.414        1650.066          43.000    24141578.980    94736741.203        1232.186          47.000  
G17  24314363.885   127772848.747        2776.874          43.000    24314348.234    95414724.119        2073.582          47.000  
E12  29054278.488   152681266.203        2847.001          44.000    29054271.782   114015205.743        2125.886          46.000  
E21  29691652.026   156030684.879       -1759.896          44.000    29691641.431   116516380.253       -1314.233          46.000  
E24  29129347.066   153075752.367        1400.490          44.000    29129334.342   114309764.376        1045.824          46.000  
E31  25856943.190   135879152.541         534.908          45.000    25856928.037   101468140.208         399.511          47.000  
E01  26305260.882   138235078.514       -1057.309          45.000    26305244.980   103227432.040        -789.589          47.000  
E04  27026991.847   142027800.587       -2640.196          45.000    27026979.716   106059673.192       -1971.587          47.000  
E14                                                                  21683158.789                        -705.013          20.000  
E33                                                                  26363457.786                        1434.970          10.000  
> 2023 01 08 09 46 13.0040000  0 14                     
G07  21480299.674   112879738.090         630.841          44.000    21480281.916    84293238.679         470.994          48.000  
G01  23591742.290   123975444.078        2782.191          43.000    23591725.428    92578996.068        2077.815          47.000  
G21  22747416.151   119538480.358         450.862          44.000    22747398.790    89265677.128         336.570          48.000  
G09  24196501.863   127153476.542       -3191.007          43.000    24196485.331    94952206.798       -2382.793          47.000  
G27  25907618.486   136145456.123       -3824.012          43.000    25907603.987   101667002.675       -2855.598          46.000  
G04  26020750.820   136739973.479       -3686.017          43.000    26020736.882   102110959.464       -2752.487          46.000  
G14  24141281.143   126863290.243        1650.111          43.000    24141264.894    94735508.934        1232.208          47.000  
G17  24313835.467   127770072.004        2776.563          43.000    24313819.854    95412650.589        2073.295          47.000  
E12  29053736.603   152678419.156        2847.127          44.000    29053730.077   114013079.710        2125.979          46.000  
E21  29691986.896   156032444.646       -1759.830          44.000    29691976.204   116517694.356       -1314.066          46.000  
E24  29129080.534   153074351.698        1400.567          44.000    29129067.821   114308718.421        1045.870          46.000  
E31  25856841.313   135878617.541         535.057          45.000    25856826.082   101467740.700         399.414          47.000  
E01  26305462.154   138236135.828       -1057.295          45.000    26305446.152   103228221.585        -789.519          47.000  
E04  27027494.170   142030440.842       -2640.567          45.000    27027482.194   106061644.793       -1971.549          47.000  
> 2023 01 08 09 46 14.0040000  0 14                     
G07  21480179.695   112879107.409         630.634          44.000    21480161.740    84292767.714         470.846          48.000  
G01  23591212.773   123972661.691        2782.368          44.000    23591195.896    92576918.322        2077.744          47.000  
G21  22747330.386   119538029.909         450.483          44.000    22747313.124    89265340.753         336.322          48.000  
G09  24197109.102   127156667.305       -3190.597          43.000    24197092.452    94954589.513       -2382.592          47.000  
G27  25908346.110   136149280.097       -3823.771          43.000    25908331.689   101669858.231       -2855.334          46.000  
G04  26021452.439   136743659.511       -3685.857          43.000    26021438.384   102113712.023       -2752.407          46.000  
G14  24140967.044   126861640.106        1650.241          43.000    24140950.958    94734276.685        1232.429          47.000  
G17  24313307.150   127767295.536        2776.425          43.000    24313291.520    95410577.252        2073.369          47.000  
E12  29053194.804   152675571.991        2847.397          44.000    29053188.230   114010953.579        2126.278          46.000  
E21  29692321.713   156034204.374       -1759.472          44.000    29692311.064   116519008.442       -1313.906          46.000  
E24  29128813.918   153072950.964        1400.847          44.000    29128801.233   114307672.422        1046.149          46.000  
E31  25856739.759   135878082.530         535.195          45.000    25856724.331   101467341.165         399.872          47.000  
E01  26305663.526   138237193.125       -1057.130          45.000    26305647.312   103229011.128        -789.465          47.000  
E04  27027996.711   142033081.179       -2640.240          45.000    27027984.590   106063616.483       -1971.616          47.000  
> 2023 01 08 09 46 15.0040000  0 14                     
G07  21480059.907   112878477.165         629.911          44.000    21480041.859    84292297.074         470.445          48.000  
G01  23590683.338   123969879.565        2781.911          44.000    23590666.531    92574840.764        2077.341          47.000  
G21  22747244.676   119537580.021         449.602          44.000    22747227.575    89265004.802         335.559          48.000  
G09  24197716.267   127159858.205       -3191.082          43.000    24197699.685    94956972.325       -2382.906          47.000  
G27  25909073.783   136153104.003       -3824.035          43.000    25909059.239   101672713.749       -2855.582          46.000  
G04  26022153.842   136747345.366       -3685.708          43.000    26022139.738   102116464.439       -2752.374          46.000  
G14  24140653.065   126859989.992        1650.048          43.000    24140636.958    94733044.455        1232.233          47.000  
G17  24312778.826   127764519.329        2775.922          43.000    24312763.242    95408504.108        2072.940          47.000  
E12  29052652.942   152672724.680        2847.294          44.000    29052646.370   114008827.343        2126.325          46.000  
E21  29692656.512   156035964.061       -1759.740          44.000    29692645.955   116520322.489       -1314.196          46.000  
E24  29128547.285   153071550.149        1400.778          44.000    29128534.769   114306626.375        1045.925          46.000  
E31  25856637.680   135877547.465         535.179          45.000    25856622.602   101466941.621         399.541          47.000  
E01  26305864.485   138238250.386       -1057.221          45.000    26305848.532   103229800.638        -789.449          47.000  
E04  27028499.260   142035721.617       -2640.530          45.000    27028487.034   106065588.238       -1971.853          47.000  
> 2023 01 08 09 46 16.0040000  0 14                     
G07  21479939.986   112877847.334         629.546          44.000    21479922.069    84291826.751         470.048          48.000  
G01  23590153.919   123967097.669        2781.740          43.000    23590137.134    92572763.377        2077.223          47.000  
G21  22747159.297   119537130.677         448.955          44.000    22747142.006    89264669.240         335.343          48.000  
G09  24198323.462   127163049.211       -3191.260          43.000    24198306.926    94959355.211       -2382.923          47.000  
G27  25909801.421   136156927.829       -3823.989          43.000    25909786.850   101675569.202       -2855.401          46.000  
G04  26022855.254   136751031.022       -3685.461          43.000    26022841.234   102119216.722       -2752.290          46.000  
G14  24140339.073   126858339.865        1650.098          43.000    24140322.884    94731812.231        1232.132          47.000  
G17  24312250.509   127761743.339        2775.878          43.000    24312235.061    95406431.141        2072.807          47.000  
E12  29052111.251   152669877.208        2847.384          44.000    29052104.537   114006700.998        2126.405          46.000  
E21  29692991.500   156037723.666       -1759.653          44.000    29692980.839   116521636.478       -1313.974          46.000  
E24  29128280.779   153070149.244        1400.883          44.000    29128268.099   114305580.246        1046.192          46.000  
E31  25856536.168   135877012.361         534.893          45.000    25856520.825   101466542.019         399.567          47.000  
E01  26306065.718   138239307.605       -1057.435          45.000    26306049.624   103230590.116        -789.475          47.000  
E04  27029001.728   142038362.126       -2640.670          45.000    27028989.494   106067560.041       -1971.990          47.000  
> 2023 01 08 09 46 17.0040000  0 14                     
G07  21479820.174   112877218.003         629.157          44.000    21479802.362    84291356.793         469.699          48.000  
G01  23589624.530   123964316.098        2781.322          44.000    23589607.796    92570686.224        2076.884          47.000  
G21  22747073.883   119536681.947         448.300          44.000    22747056.710    89264334.159         334.779          48.000  
G09  24198930.647   127166240.388       -3191.321          43.000    24198914.170    94961738.235       -2383.051          47.000  
G27  25910529.141   136160751.637       -3823.721          43.000    25910514.520   101678424.656       -2855.652          46.000  
G04  26023556.661   136754716.590       -3685.628          43.000    26023542.479   102121968.917       -2752.212          46.000  
G14  24140025.149   126856689.821        1650.095          43.000    24140008.906    94730580.053        1232.128          47.000  
G17  24311722.359   127758967.686        2775.520          43.000    24311706.808    95404358.413        2072.520          47.000  
E12  29051569.423   152667029.657        2847.613          44.000    29051562.744   114004574.595        2126.281          46.000  
E21  29693326.170   156039483.291       -1759.797          44.000    29693315.797   116522950.484       -1314.038          46.000  
E24  29128014.141   153068748.341        1400.763          44.000    29128001.510   114304534.120        1046.044          46.000  
E31  25856434.116   135876477.265         535.070          45.000    25856418.793   101466142.435         399.590          47.000  
E01  26306266.719   138240364.856       -1057.437          45.000    26306250.943   103231379.621        -789.567          47.000  
E04  27029504.043   142041002.790       -2640.785          45.000    27029492.035   106069531.965       -1972.154          47.000  
> 2023 01 08 09 46 18.0040000  0 14                     
G07  21479700.630   112876589.277         628.404          44.000    21479682.719    84290887.292         469.285          48.000  
G01  23589095.252   123961534.923        2781.058          43.000    23589078.547    92568609.384        2076.668          47.000  
G21  22746988.646   119536233.943         447.682          44.000    22746971.370    89263999.604         334.280          48.000  
G09  24199537.961   127169431.855       -3191.647          43.000    24199521.526    94964121.480       -2383.331          47.000  
G27  25911256.922   136164575.567       -3824.048          43.000    25911242.277   101681280.164       -2855.446          46.000  
G04  26024258.032   136758402.140       -3685.518          43.000    26024243.898   102124721.113       -2752.215          46.000  
G14  24139711.237   126855039.978        1649.579          43.000    24139695.022    94729348.020        1231.976          47.000  
G17  24311194.254   127756192.443        2775.023          43.000    24311178.614    95402285.990        2072.278          47.000  
E12  29051027.466   152664182.136        2847.431          44.000    29051020.867   114002448.202        2126.246          46.000  
E21  29693661.184   156041243.021       -1759.760          44.000    29693650.543   116524264.567       -1314.104          46.000  
E24  29127747.534   153067347.514        1400.702          44.000    29127735.046   114303488.047        1046.070          46.000  
E31  25856332.278   135875942.300         534.911          45.000    25856317.116   101465742.951         399.506          47.000  
E01  26306468.016   138241422.232       -1057.435          45.000    26306452.141   103232169.223        -789.567          47.000  
E04  27030006.736   142043643.702       -2641.010          45.000    27029994.617   106071504.063       -1972.144          47.000  
> 2023 01 08 09 46 19.0040000  0 14                     
G07  21479581.070   112875961.029         627.999          44.000    21479563.102    84290418.147         469.042          48.000  
G01  23588566.020   123958754.073        2780.535          44.000    23588549.434    92566532.759        2076.681          47.000  
G21  22746903.431   119535786.550         447.096          44.000    22746886.262    89263665.516         333.975          48.000  
G09  24200145.283   127172623.489       -3191.639          43.000    24200128.791    94966504.837       -2383.324          47.000  
G27  25911984.490   136168399.454       -3823.632          43.000    25911969.920   101684135.677       -2855.487          46.000  
G04  26024959.394   136762087.559       -3685.243          43.000    26024945.127   102127473.216       -2751.929          46.000  
G14  24139397.270   126853390.168        1649.834          43.000    24139381.081    94728116.031        1232.026          47.000  
G17  24310666.150   127753417.505        2774.658          43.000    24310650.543    95400213.791        2072.129          47.000  
E12  29050485.536   152661334.516        2847.725          44.000    29050478.934   114000321.732        2126.534          46.000  
E21  29693995.979   156043002.746       -1759.771          44.000    29693985.504   116525578.639       -1313.920          46.000  
E24  29127481.007   153065946.652        1401.000          44.000    29127468.377   114302441.961        1046.160          46.000  
E31  25856230.552   135875407.333         534.944          45.000    25856215.338   101465343.471         399.449          47.000  
E01  26306669.304   138242479.628       -1057.416          45.000    26306653.246   103232958.839        -789.492          47.000  
E04  27030509.285   142046284.760       -2641.137          45.000    27030497.233   106073476.279       -1972.345          47.000  
> 2023 01 08 09 46 20.0040000  0 14                     
G07  21479461.554   112875333.162         627.482          44.000    21479443.579    84289949.285         468.608          48.000  
G01  23588036.896   123955973.385        2780.483          44.000    23588020.199    92564456.283        2076.335          47.000  
G21  22746818.358   119535339.650         446.481          44.000    22746801.131    89263331.797         333.381          48.000  
G09  24200752.641   127175815.189       -3191.927          43.000    24200736.305    94968888.244       -2383.471          47.000  
G27  25912712.154   136172223.234       -3823.826          43.000    25912697.699   101686991.094       -2855.471          47.000  
G04  26025660.636   136765772.759       -3685.385          43.000    26025646.492   102130225.139       -2751.911          47.000  
G14  24139083.347   126851740.333        1649.642          43.000    24139067.308    94726884.016        1231.793          47.000  
G17  24310138.115   127750642.754        2774.385          43.000    24310122.545    95398141.751        2071.888          47.000  
E12  29049943.474   152658486.698        2847.705          44.000    29049937.048   113998195.128        2126.524          46.000  
E21  29694330.844   156044762.358       -1759.865          44.000    29694320.299   116526892.635       -1314.003          46.000  
E24  29127214.483   153064545.669        1400.764          44.000    29127201.811   114301395.768        1046.093          46.000  
E31  25856128.831   135874872.275         534.875          45.000    25856113.550   101464943.910         399.572          47.000  
E01  26306870.733   138243536.931       -1057.500          45.000    26306854.569   103233748.381        -789.638          47.000  
E04  27031012.135   142048925.837       -2641.244          45.000    27030999.759   106075448.507       -1972.424          47.000  
> 2023 01 08 09 46 21.0040000  0 14                     
G07  21479342.219   112874705.847         627.089          44.000    21479324.199    84289480.844         468.168          48.000  
G01  23587507.807   123953193.084        2780.091          44.000    23587491.193    92562380.093        2075.986          47.000  
G21  22746733.441   119534893.455         445.715          44.000    22746716.319    89262998.591         332.882          48.000  
G09  24201360.094   127179007.135       -3192.221          43.000    24201343.632    94971271.842       -2383.759          47.000  
G27  25913439.737   136176047.073       -3824.035          43.000    25913425.410   101689846.553       -2855.526          46.000  
G04  26026361.925   136769457.903       -3685.264          43.000    26026347.741   102132977.036       -2751.957          46.000  
G14  24138769.333   126850090.646        1649.446          43.000    24138753.189    94725652.094        1231.930          47.000  
G17  24309610.073   127747868.389        2774.072          43.000    24309594.558    95396069.988        2071.645          47.000  
E12  29049401.829   152655638.870        2847.819          44.000    29049395.059   113996068.501        2126.666          46.000  
E21  29694665.853   156046522.034       -1759.700          44.000    29694655.126   116528206.683       -1314.026          46.000  
E24  29126947.699   153063144.727        1400.952          44.000    29126935.293   114300349.624        1046.164          46.000  
E31  25856026.993   135874337.303         534.777          45.000    25856011.707   101464544.411         399.515          47.000  
E01  26307071.839   138244594.337       -1057.467          45.000    26307055.723   103234538.007        -789.730          47.000  
E04  27031514.576   142051567.141       -2641.586          45.000    27031502.368   106077420.904       -1972.599          47.000  
> 2023 01 08 09 46 22.0040000  0 14                     
G07  21479222.956   112874078.996         626.444          45.000    21479204.989    84289012.733         467.867          48.000  
G01  23586978.741   123950413.042        2779.951          44.000    23586962.102    92560304.087        2075.866          47.000  
G21  22746648.723   119534447.806         445.200          44.000    22746631.409    89262665.807         332.435          48.000  
G09  24201967.527   127182199.204       -3192.180          43.000    24201951.147    94973655.528       -2383.819          47.000  
G27  25914167.415   136179870.859       -3823.868          43.000    25914152.881   101692701.969       -2855.451          46.000  
G04  26027063.110   136773142.880       -3684.926          43.000    26027048.918   102135728.801       -2751.734          46.000  
G14  24138455.470   126848440.978        1649.339          43.000    24138439.221    94724420.205        1231.844          47.000  
G17  24309082.169   127745094.282        2773.978          43.000    24309066.705    95393998.415        2071.376          47.000  
E12  29048860.049   152652790.905        2847.970          44.000    29048853.174   113993941.775        2126.842          46.000  
E21  29695000.709   156048281.679       -1759.645          44.000    29694989.988   116529520.703       -1314.118          46.000  
E24  29126681.125   153061743.723        1401.122          44.000    29126668.574   114299303.426        1046.138          46.000  
E31  25855925.232   135873802.291         535.047          45.000    25855909.902   101464144.908         399.303          47.000  
E01  26307273.066   138245651.714       -1057.406          45.000    26307256.925   103235327.602        -789.667          47.000  
E04  27032017.186   142054208.525       -2641.449          45.000    27032005.012   106079393.363       -1972.622          47.000  
> 2023 01 08 09 46 23.0040000  0 14                     
G07  21479103.775   112873452.528         626.075          44.000    21479085.729    84288544.915         467.606          48.000  
G01  23586449.662   123947633.217        2779.405          44.000    23586433.079    92558228.241        2075.598          47.000  
G21  22746564.058   119534002.675         444.878          44.000    22746546.782    89262333.403         332.308          48.000  
G09  24202575.053   127185391.354       -3192.295          43.000    24202558.475    94976039.282       -2383.997          47.000  
G27  25914895.056   136183694.525       -3823.717          43.000    25914880.580   101695557.309       -2855.430          46.000  
G04  26027764.273   136776827.648       -3684.698          43.000    26027750.083   102138480.404       -2751.490          46.000  
G14  24138141.586   126846791.274        1649.661          43.000    24138125.289    94723188.283        1231.969          47.000  
G17  24308554.284   127742320.390        2773.760          43.000    24308538.880    95391927.010        2071.169          47.000  
E12  29048317.924   152649942.767        2848.013          44.000    29048311.132   113991814.927        2126.860          46.000  
E21  29695335.509   156050041.228       -1759.626          44.000    29695324.809   116530834.645       -1314.022          46.000  
E24  29126414.792   153060342.605        1401.051          44.000    29126401.987   114298257.144        1046.152          46.000  
E31  25855823.497   135873267.201         535.143          45.000    25855808.155   101463745.322         399.502          47.000  
E01  26307474.293   138246709.029       -1057.379          45.000    26307458.150   103236117.154        -789.650          47.000  
E04  27032519.902   142056849.971       -2641.542          45.000    27032507.571   106081365.871       -1972.731          47.000  
> 2023 01 08 09 46 24.0040000  0 15                     
G07  21478984.686   112872826.565         625.635          44.000    21478966.703    84288077.476         467.251          48.000  
G01  23585920.796   123944853.703        2779.435          44.000    23585904.231    92556152.628        2075.595          47.000  
G21  22746479.495   119533558.179         444.419          44.000    22746462.158    89262001.482         331.663          48.000  
G09  24203182.587   127188583.698       -3192.391          43.000    24203165.928    94978423.159       -2383.902          47.000  
G27  25915622.561   136187518.203       -3823.639          43.000    25915608.175   101698412.645       -2855.232          46.000  
G04  26028465.400   136780512.313       -3684.600          43.000    26028451.326   102141231.948       -2751.561          46.000  
G14  24137827.706   126845141.664        1649.696          43.000    24137811.391    94721956.438        1231.972          47.000  
G17  24308026.503   127739546.819        2773.504          43.000    24308011.058    95389855.835        2071.079          47.000  
E12  29047775.935   152647094.537        2848.348          44.000    29047769.091   113989688.023        2126.790          46.000  
E21  29695670.416   156051800.788       -1759.581          44.000    29695659.630   116532148.599       -1313.818          46.000  
E24  29126147.877   153058941.476        1401.235          44.000    29126135.339   114297210.847        1046.314          46.000  
E31  25855721.596   135872732.143         535.135          45.000    25855706.223   101463345.767         399.493          47.000  
E01  26307675.361   138247766.368       -1057.217          45.000    26307659.322   103236906.727        -789.550          47.000  
E04  27033022.609   142059491.574       -2641.641          45.000    27033010.400   106083338.477       -1972.617          47.000  
E05  29652517.420   155825030.1341       1423.340          44.000                                                                  
> 2023 01 08 09 46 25.0040000  0 15                     
G07  21478865.633   112872201.100         625.287          45.000    21478847.575    84287610.410         466.851          48.000  
G01  23585391.931   123942074.510        2779.053          44.000    23585375.441    92554077.267        2075.139          47.000  
G21  22746395.027   119533114.324         443.680          44.000    22746377.743    89261670.028         331.116          48.000  
G09  24203790.086   127191776.221       -3192.615          43.000    24203773.492    94980807.194       -2384.170          47.000  
G27  25916350.209   136191341.875       -3823.739          43.000    25916335.862   101701267.989       -2855.311          46.000  
G04  26029166.561   136784196.876       -3684.703          43.000    26029152.545   102143983.397       -2751.437          46.000  
G14  24137513.799   126843492.160        1649.268          43.000    24137497.520    94720724.661        1231.739          47.000  
G17  24307498.761   127736773.576        2773.122          43.000    24307483.438    95387784.909        2070.850          47.000  
E12  29047233.745   152644246.252        2848.194          44.000    29047227.024   113987561.053        2127.028          46.000  
E21  29696005.041   156053560.354       -1759.455          44.000    29695994.591   116533462.575       -1314.004          46.000  
E24  29125881.329   153057540.336        1401.159          44.000    29125868.637   114296164.544        1046.301          46.000  
E31  25855619.651   135872197.120         534.921          45.000    25855604.464   101462946.231         399.539          47.000  
E01  26307876.683   138248823.752       -1057.356          45.000    26307860.472   103237696.330        -789.729          47.000  
E04  27033525.214   142062133.329       -2641.868          45.000    27033513.080   106085311.224       -1972.897          47.000  
E05  29652245.134   155823607.042        1422.758          44.000                                                                  
> 2023 01 08 09 46 26.0040000  0 15                     
G07  21478746.676   112871576.097         624.309          44.000    21478728.653    84287143.677         466.341          48.000  
G01  23584863.105   123939295.578        2778.496          44.000    23584846.568    92552002.089        2074.779          47.000  
G21  22746310.695   119532671.029         442.633          44.000    22746293.320    89261338.993         330.573          48.000  
G09  24204397.641   127194968.885       -3193.131          43.000    24204381.073    94983191.312       -2384.297          47.000  
G27  25917077.790   136195165.493       -3823.946          43.000    25917063.383   101704123.284       -2855.513          46.000  
G04  26029867.496   136787881.272       -3684.677          43.000    26029853.545   102146734.734       -2751.554          46.000  
G14  24137199.846   126841842.655        1648.968          43.000    24137183.706    94719492.890        1231.583          47.000  
G17  24306971.073   127734000.593        2772.354          43.000    24306955.603    95385714.174        2070.401          47.000  
E12  29046691.715   152641397.825        2848.267          44.000    29046685.088   113985433.994        2126.786          46.000  
E21  29696339.853   156055319.900       -1759.929          44.000    29696329.301   116534776.501       -1314.126          46.000  
E24  29125614.694   153056139.135        1400.934          44.000    29125602.159   114295118.201        1046.090          46.000  
E31  25855517.845   135871662.053         534.775          45.000    25855502.600   101462546.666         399.434          47.000  
E01  26308077.840   138249881.114       -1057.689          45.000    26308061.810   103238485.911        -789.673          47.000  
E04  27034028.138   142064775.182       -2642.290          45.000    27034015.872   106087284.024       -1973.134          47.000  
E05  29651975.369   155822184.246        1422.255          44.000                                                                  
> 2023 01 08 09 46 27.0040000  0 15                     
G07  21478627.748   112870951.669         624.249          44.000    21478609.853    84286677.391         466.117          48.000  
G01  23584334.399   123936517.051        2778.384          44.000    23584317.894    92549927.213        2074.771          47.000  
G21  22746226.555   119532228.444         442.163          44.000    22746209.244    89261008.494         330.328          48.000  
G09  24205005.091   127198161.812       -3193.013          43.000    24204988.573    94985575.646       -2384.388          47.000  
G27  25917805.480   136198989.206       -3823.651          43.000    25917791.114   101706978.649       -2855.317          46.000  
G04  26030568.672   136791565.636       -3684.254          43.000    26030554.636   102149486.047       -2751.219          46.000  
G14  24136885.992   126840193.328        1649.147          43.000    24136869.745    94718261.256        1231.608          47.000  
G17  24306443.410   127731228.015        2772.504          43.000    24306427.975    95383643.754        2070.167          47.000  
E12  29046149.829   152638549.423        2848.380          44.000    29046143.061   113983306.935        2127.057          46.000  
E21  29696674.905   156057079.535       -1759.845          44.000    29696664.094   116536090.513       -1314.038          46.000  
E24  29125348.098   153054738.026        1400.960          44.000    29125335.565   114294071.907        1046.449          46.000  
E31  25855416.199   135871127.110         534.804          45.000    25855400.836   101462147.195         399.545          47.000  
E01  26308279.029   138250938.604       -1057.630          45.000    26308263.030   103239275.600        -789.732          47.000  
E04  27034531.024   142067417.279       -2642.053          45.000    27034518.557   106089257.022       -1973.186          47.000  
E05  29651704.432   155820761.910        1422.080          44.000                                                                  
> 2023 01 08 09 46 28.0040000  0 15                     
G07  21478509.022   112870327.677         623.724          44.000    21478491.095    84286211.428         465.739          48.000  
G01  23583805.740   123933738.776        2778.017          44.000    23583789.109    92547852.534        2074.520          47.000  
G21  22746142.428   119531786.423         441.823          44.000    22746125.058    89260678.417         329.843          48.000  
G09  24205612.700   127201354.863       -3193.203          43.000    24205596.335    94987960.070       -2384.528          47.000  
G27  25918532.998   136202812.841       -3823.717          43.000    25918518.550   101709833.969       -2855.410          46.000  
G04  26031269.684   136795249.845       -3684.202          43.000    26031255.713   102152237.237       -2751.238          46.000  
G14  24136572.141   126838544.011        1649.426          43.000    24136555.874    94717029.634        1231.631          47.000  
G17  24305915.904   127728455.705        2771.963          43.000    24305900.385    95381573.516        2070.018          47.000  
E12  29045607.690   152635700.875        2848.580          44.000    29045600.940   113981179.792        2127.025          46.000  
E21  29697009.542   156058839.114       -1759.655          44.000    29696999.006   116537404.494       -1314.245          46.000  
E24  29125081.284   153053336.820        1401.123          44.000    29125068.692   114293025.573        1046.341          46.000  
E31  25855314.335   135870592.109         534.986          45.000    25855299.044   101461747.698         399.362          47.000  
E01  26308480.120   138251996.055       -1057.570          45.000    26308464.258   103240065.253        -789.699          47.000  
E04  27035033.698   142070059.467       -2642.341          45.000    27035021.366   106091230.075       -1973.248          47.000  
E05  29651432.382   155819339.860        1421.814          44.000                                                                  
> 2023 01 08 09 46 29.0040000  0 15                     
G07  21478390.329   112869704.067         623.540          45.000    21478372.383    84285745.747         465.650          48.000  
G01  23583277.027   123930960.703        2777.823          44.000    23583260.575    92545777.995        2074.515          47.000  
G21  22746058.334   119531344.908         441.350          44.000    22746040.990    89260348.714         329.594          48.000  
G09  24206220.303   127204547.974       -3193.033          43.000    24206203.925    94990344.531       -2384.482          47.000  
G27  25919260.696   136206636.357       -3823.271          43.000    25919246.307   101712689.192       -2855.233          47.000  
G04  26031970.748   136798933.821       -3683.895          43.000    26031956.836   102154988.253       -2750.900          46.000  
G14  24136258.248   126836894.670        1649.517          43.000    24136242.041    94715797.983        1231.664          47.000  
G17  24305388.419   127725683.578        2771.977          43.000    24305372.961    95379503.421        2070.231          47.000  
E12  29045065.674   152632852.142        2848.732          44.000    29045058.859   113979052.483        2127.356          46.000  
E21  29697344.332   156060598.585       -1759.455          44.000    29697333.866   116538718.375       -1313.678          46.000  
E24  29124814.584   153051935.490        1401.516          44.000    29124802.206   114291979.131        1046.497          46.000  
E31  25855212.383   135870057.035         535.149          45.000    25855197.176   101461348.122         399.624          47.000  
E01  26308681.442   138253053.424       -1057.362          45.000    26308665.464   103240854.846        -789.513          47.000  
E04  27035536.453   142072701.678       -2642.000          45.000    27035524.071   106093203.157       -1973.003          47.000  
E05  29651161.185   155817918.066        1421.614          44.000                                                                  
> 2023 01 08 09 46 30.0040000  0 15                     
G07  21478271.830   112869080.989         622.708          45.000    21478253.901    84285280.454         465.143          48.000  
G01  23582748.486   123928182.959        2777.339          44.000    23582731.889    92543703.701        2074.231          47.000  
G21  22745974.380   119530904.033         440.438          44.000    22745957.099    89260019.493         328.954          48.000  
G09  24206827.895   127207741.300       -3193.654          43.000    24206811.722    94992729.150       -2384.806          47.000  
G27  25919988.308   136210459.897       -3823.639          43.000    25919973.913   101715544.430       -2855.339          46.000  
G04  26032671.772   136802617.717       -3684.205          43.000    26032657.831   102157739.203       -2750.958          46.000  
G14  24135944.446   126835245.418        1649.130          43.000    24135928.288    94714566.399        1231.525          47.000  
G17  24304860.935   127722911.784        2771.624          43.000    24304845.528    95377433.588        2069.676          47.000  
E12  29044523.595   152630003.338        2848.552          44.000    29044516.719   113976925.135        2127.259          46.000  
E21  29697679.214   156062358.084       -1759.673          44.000    29697668.631   116540032.297       -1314.148          46.000  
E24  29124547.956   153050534.175        1401.083          44.000    29124535.403   114290932.698        1046.236          46.000  
E31  25855110.636   135869521.988         534.962          45.000    25855095.438   101460948.586         399.327          47.000  
E01  26308882.516   138254110.842       -1057.594          45.000    26308866.620   103241644.479        -789.732          47.000  
E04  27036039.319   142075344.079       -2642.678          45.000    27036026.991   106095176.363       -1973.394          47.000  
E05  29650890.539   155816496.635        1421.067          44.000                                                                  
> 2023 01 08 09 46 31.0040000  0 15                     
G07  21478153.403   112868458.483         622.468          44.000    21478135.413    84284815.598         464.888          48.000  
G01  23582219.949   123925405.597        2777.404          44.000    23582203.381    92541629.716        2073.982          47.000  
G21  22745890.653   119530463.863         440.121          44.000    22745873.285    89259690.797         328.663          48.000  
G09  24207435.605   127210934.869       -3193.423          43.000    24207419.353    94995113.965       -2384.843          47.000  
G27  25920715.974   136214283.507       -3823.362          43.000    25920701.352   101718399.719       -2855.162          46.000  
G04  26033372.791   136806301.566       -3683.766          43.000    26033358.863   102160490.135       -2750.788          46.000  
G14  24135630.647   126833596.332        1649.347          44.000    24135614.364    94713334.937        1231.696          47.000  
G17  24304333.608   127720140.400        2771.474          43.000    24304318.081    95375364.061        2069.382          47.000  
E12  29043981.352   152627154.536        2848.953          44.000    29043974.522   113974797.799        2127.464          46.000  
E21  29698014.042   156064117.676       -1759.245          44.000    29698003.427   116541346.264       -1313.626          46.000  
E24  29124281.359   153049132.908        1401.530          44.000    29124268.700   114289886.301        1046.463          46.000  
E31  25855008.974   135868987.049         535.210          45.000    25854993.570   101460549.113         399.650          47.000  
E01  26309083.768   138255168.373       -1057.372          45.000    26309067.936   103242434.186        -789.464          47.000  
E04  27036541.950   142077986.696       -2642.551          45.000    27036529.866   106097149.743       -1973.317          47.000  
E05  29650619.922   155815075.650        1420.968          44.000                                                                  
> 2023 01 08 09 46 32.0040000  0 15                     
G07  21478035.056   112867836.358         621.840          45.000    21478017.137    84284351.028         464.446          48.000  
G01  23581691.517   123922628.451        2776.862          44.000    23581674.838    92539555.870        2073.784          47.000  
G21  22745806.920   119530024.203         439.353          44.000    22745789.670    89259362.482         328.079          48.000  
G09  24208043.344   127214128.511       -3193.679          43.000    24208027.066    94997498.822       -2384.928          47.000  
G27  25921443.511   136218106.994       -3823.338          43.000    25921429.029   101721254.920       -2855.220          46.000  
G04  26034073.728   136809985.184       -3683.475          43.000    26034059.814   102163240.900       -2750.835          46.000  
G14  24135316.751   126831947.221        1648.941          43.000    24135300.502    94712103.445        1231.630          47.000  
G17  24303806.274   127717369.213        2771.162          43.000    24303790.771    95373294.661        2069.342          47.000  
E12  29043439.188   152624305.533        2849.080          44.000    29043432.438   113972670.299        2127.677          46.000  
E21  29698348.856   156065877.163       -1759.451          44.000    29698338.365   116542660.164       -1313.699          46.000  
E24  29124014.619   153047731.522        1401.505          44.000    29124002.102   114288839.809        1046.695          46.000  
E31  25854907.075   135868452.017         535.063          45.000    25854891.754   101460149.574         399.659          47.000  
E01  26309284.946   138256225.823       -1057.439          45.000    26309269.233   103243223.840        -789.618          47.000  
E04  27037044.849   142080629.357       -2642.782          45.000    27037032.783   106099123.145       -1973.275          47.000  
E05  29650349.656   155813654.911        1420.538          44.000                                                                  
> 2023 01 08 09 46 33.0040000  0 16                     
G07  21477916.752   112867214.723         621.237          44.000    21477898.850    84283886.815         463.957          48.000  
G01  23581163.131   123919851.597        2776.485          44.000    23581146.449    92537482.244        2073.575          47.000  
G21  22745723.400   119529585.152         438.707          44.000    22745706.089    89259034.617         327.502          48.000  
G09  24208651.072   127217322.325       -3194.021          43.000    24208634.853    94999883.812       -2385.070          47.000  
G27  25922171.015   136221930.466       -3823.338          43.000    25922156.607   101724110.113       -2855.406          46.000  
G04  26034774.783   136813668.694       -3683.626          43.000    26034760.692   102165991.559       -2750.726          46.000  
G14  24135002.856   126830298.147        1648.878          43.000    24134986.802    94710872.008        1231.410          47.000  
G17  24303279.022   127714598.338        2770.579          43.000    24303263.448    95371225.500        2068.969          47.000  
E12  29042897.085   152621456.443        2848.954          44.000    29042890.317   113970542.736        2127.652          46.000  
E21  29698683.845   156067636.652       -1759.713          44.000    29698673.186   116543974.072       -1314.120          46.000  
E24  29123747.929   153046330.114        1401.325          44.000    29123735.308   114287793.313        1046.419          46.000  
E31  25854805.359   135867916.990         535.011          45.000    25854789.912   101459750.048         399.390          47.000  
E01  26309486.504   138257283.288       -1057.610          45.000    26309470.414   103244013.516        -789.775          47.000  
E04  27037547.862   142083272.153       -2643.183          45.000    27037535.675   106101096.663       -1973.654          47.000  
E05  29650079.420   155812234.519        1420.056          44.000                                                                  
E26  27349677.992   143723527.3971       -410.250          45.000                                                                  
> 2023 01 08 09 46 34.0040000  0 16                     
G07  21477798.489   112866593.539         620.542          44.000    21477780.545    84283422.949         463.422          48.000  
G01  23580634.782   123917075.020        2775.983          44.000    23580618.072    92535408.831        2073.125          47.000  
G21  22745639.937   119529146.674         437.936          44.000    22745622.684    89258707.180         326.984          48.000  
G09  24209258.838   127220516.285       -3194.348          43.000    24209242.581    95002268.903       -2385.377          47.000  
G27  25922898.524   136225753.904       -3823.832          43.000    25922884.069   101726965.268       -2855.499          46.000  
G04  26035475.761   136817352.047       -3683.745          43.000    26035461.633   102168742.107       -2750.684          46.000  
G14  24134689.064   126828649.123        1648.689          43.000    24134672.975    94709640.600        1231.209          47.000  
G17  24302751.771   127711827.722        2770.165          43.000    24302736.274    95369156.542        2068.536          47.000  
E12  29042354.750   152618607.233        2849.053          44.000    29042348.207   113968415.086        2127.471          46.000  
E21  29699018.698   156069396.092       -1759.755          44.000    29699007.963   116545287.941       -1314.139          46.000  
E24  29123481.514   153044928.644        1401.211          44.000    29123468.632   114286746.762        1046.388          46.000  
E31  25854703.740   135867381.954         534.731          45.000    25854688.169   101459350.494         399.353          47.000  
E01  26309687.645   138258340.741       -1057.827          45.000    26309671.593   103244803.166        -789.874          47.000  
E04  27038050.807   142085915.042       -2643.190          45.000    27038038.543   106103070.246       -1973.670          47.000  
E05  29649809.136   155810814.439        1419.651          44.000                                                                  
E26  27349756.531   143723937.723        -410.876          45.000                                                                  
> 2023 01 08 09 46 35.0040000  0 16                     
G07  21477680.396   112865973.067         620.128          44.000    21477662.386    84282959.604         463.153          48.000  
G01  23580106.546   123914298.969        2775.611          44.000    23580089.881    92533335.804        2072.745          47.000  
G21  22745556.640   119528709.033         437.344          44.000    22745539.462    89258380.375         326.556          48.000  
G09  24209866.685   127223710.618       -3194.410          43.000    24209850.474    95004654.285       -2385.518          47.000  
G27  25923626.127   136229577.533       -3823.778          43.000    25923611.807   101729820.569       -2855.383          46.000  
G04  26036176.670   136821035.483       -3683.522          43.000    26036162.665   102171492.731       -2750.664          46.000  
G14  24134375.338   126827000.396        1648.467          43.000    24134359.162    94708409.405        1231.076          47.000  
G17  24302224.692   127709057.644        2769.767          43.000    24302209.120    95367087.975        2068.396          47.000  
E12  29041812.671   152615758.158        2849.093          44.000    29041806.006   113966287.524        2127.502          46.000  
E21  29699353.773   156071155.764       -1759.848          44.000    29699342.886   116546601.971       -1314.049          46.000  
E24  29123214.647   153043527.383        1401.101          44.000    29123202.064   114285700.364        1046.423          46.000  
E31  25854601.635   135866847.136         534.708          45.000    25854586.445   101458951.118         399.302          47.000  
E01  26309888.877   138259398.436       -1057.798          45.000    26309872.887   103245593.001        -789.988          47.000  
E04  27038553.878   142088558.308       -2643.486          45.000    27038541.552   106105044.106       -1974.001          47.000  
E05  29649538.901   155809394.935        1419.211          44.000                                                                  
E26  27349834.549   143724348.738        -411.281          45.000                                                                  
> 2023 01 08 09 46 36.0040000  0 16                     
G07  21477562.440   112865353.206         619.607          44.000    21477544.522    84282496.728         462.555          48.000  
G01  23579578.339   123911523.320        2775.721          44.000    23579561.567    92531263.100        2072.427          47.000  
G21  22745473.568   119528272.120         436.725          44.000    22745456.165    89258054.110         326.107          48.000  
G09  24210474.645   127226905.253       -3194.877          43.000    24210458.424    95007039.891       -2385.804          47.000  
G27  25924353.820   136233401.274       -3823.830          43.000    25924339.490   101732675.964       -2855.481          46.000  
G04  26036877.585   136824718.927       -3683.299          43.000    26036863.473   102174243.352       -2750.563          46.000  
G14  24134061.664   126825351.846        1648.523          43.000    24134045.497    94707178.356        1230.863          47.000  
G17  24301697.630   127706287.986        2769.333          43.000    24301682.074    95365019.726        2068.093          47.000  
E12  29041270.579   152612909.114        2849.122          44.000    29041263.824   113964160.001        2127.531          46.000  
E21  29699688.455   156072915.546       -1759.663          44.000    29699677.695   116547916.106       -1314.327          46.000  
E24  29122948.065   153042126.196        1401.240          44.000    29122935.471   114284654.040        1046.432          46.000  
E31  25854499.990   135866312.457         534.664          45.000    25854484.701   101458551.858         399.133          47.000  
E01  26310090.135   138260456.268       -1057.727          45.000    26310074.203   103246382.948        -789.915          47.000  
E04  27039056.902   142091201.828       -2643.585          45.000    27039044.667   106107018.160       -1974.150          47.000  
E05  29649269.126   155807975.892        1418.966          44.000                                                                  
E26  27349912.116   143724760.346        -411.708          45.000                                                                  
> 2023 01 08 09 46 37.0040000  0 16                     
G07  21477444.593   112864733.612         619.797          44.000    21477426.543    84282034.050         462.607          48.000  
G01  23579050.146   123908747.793        2775.697          44.000    23579033.445    92529190.465        2072.608          47.000  
G21  22745390.500   119527835.623         436.486          44.000    22745373.210    89257728.152         325.939          48.000  
G09  24211082.539   127230099.850       -3194.424          43.000    24211066.346    95009425.459       -2385.437          47.000  
G27  25925081.480   136237224.796       -3823.373          43.000    25925066.965   101735531.189       -2855.125          46.000  
G04  26037578.400   136828402.061       -3682.939          43.000    26037564.369   102176993.731       -2750.121          46.000  
G14  24133747.956   126823703.178        1648.739          43.000    24133731.781    94705947.195        1231.285          47.000  
G17  24301170.550   127703518.433        2769.548          43.000    24301155.092    95362951.556        2068.267          47.000  
E12  29040728.320   152610059.783        2849.714          44.000    29040721.571   113962032.261        2127.969          46.000  
E21  29700023.251   156074675.121       -1759.218          44.000    29700012.566   116549230.065       -1313.724          46.000  
E24  29122681.423   153040724.795        1401.646          44.000    29122668.756   114283607.539        1046.717          46.000  
E31  25854398.125   135865777.583         535.054          45.000    25854382.800   101458152.429         399.641          47.000  
E01  26310291.470   138261513.923       -1057.395          45.000    26310275.425   103247172.751        -789.640          47.000  
E04  27039559.869   142093845.287       -2643.457          45.000    27039547.633   106108992.161       -1973.809          47.000  
E05  29648999.102   155806557.001        1418.897          44.000                                                                  
E26  27349989.331   143725172.221        -411.854          45.000                                                                  
> 2023 01 08 09 46 38.0040000  0 16                     
G07  21477326.814   112864114.390         619.000          44.000    21477308.748    84281571.636         462.256          48.000  
G01  23578522.140   123905972.439        2775.174          43.000    23578505.529    92527117.946        2072.394          47.000  
G21  22745307.567   119527399.604         435.684          44.000    22745290.312    89257402.556         325.280          48.000  
G09  24211690.361   127233294.467       -3194.613          43.000    24211674.227    95011811.054       -2385.619          47.000  
G27  25925808.998   136241048.148       -3823.287          43.000    25925794.509   101738386.289       -2855.089          46.000  
G04  26038279.284   136832084.901       -3682.824          42.000    26038265.210   102179743.914       -2750.137          46.000  
G14  24133434.248   126822054.408        1648.731          43.000    24133417.985    94704715.989        1231.084          47.000  
G17  24300643.520   127700749.037        2769.270          43.000    24300628.081    95360883.508        2068.063          47.000  
E12  29040186.057   152607210.234        2849.602          44.000    29040179.240   113959904.359        2127.872          46.000  
E21  29700358.155   156076434.567       -1759.430          44.000    29700347.447   116550543.934       -1313.883          46.000  
E24  29122414.807   153039323.228        1401.547          44.000    29122402.024   114282560.932        1046.462          46.000  
E31  25854296.437   135865242.579         534.948          45.000    25854281.054   101457752.917         399.532          47.000  
E01  26310492.695   138262571.460       -1057.571          45.000    26310476.687   103247962.472        -789.749          47.000  
E04  27040062.823   142096488.733       -2643.532          45.000    27040050.672   106110966.172       -1974.115          47.000  
E05  29648729.082   155805138.312        1418.512          44.000                                                                  
E26  27350067.217   143725584.407        -412.356          45.000                                                                  
> 2023 01 08 09 46 39.0040000  0 16                     
G07  21477209.113   112863495.671         618.442          44.000    21477191.096    84281109.609         461.832          48.000  
G01  23577994.010   123903197.385        2775.005          44.000    23577977.233    92525045.678        2072.302          47.000  
G21  22745224.666   119526964.215         435.017          44.000    22745207.279    89257077.420         325.028          48.000  
G09  24212298.373   127236489.290       -3194.937          43.000    24212282.242    95014196.794       -2385.629          47.000  
G27  25926536.533   136244871.529       -3823.480          43.000    25926522.082   101741241.401       -2855.153          46.000  
G04  26038980.069   136835767.654       -3682.650          43.000    26038966.092   102182494.022       -2750.011          46.000  
G14  24133120.512   126820405.752        1648.719          43.000    24133104.366    94703484.847        1231.064          47.000  
G17  24300116.657   127697979.989        2768.933          43.000    24300101.103    95358815.711        2067.729          47.000  
E12  29039643.923   152604360.612        2849.597          44.000    29039637.031   113957776.405        2127.912          46.000  
E21  29700692.760   156078194.024       -1759.375          44.000    29700682.199   116551857.813       -1313.793          46.000  
E24  29122148.100   153037921.664        1401.575          44.000    29122135.334   114281514.298        1046.764          46.000  
E31  25854194.715   135864707.608         534.983          45.000    25854179.296   101457353.434         399.407          47.000  
E01  26310693.857   138263629.034       -1057.498          45.000    26310677.913   103248752.212        -789.665          47.000  
E04  27040565.897   142099132.350       -2643.664          45.000    27040553.914   106112940.292       -1974.166          47.000  
E05  29648459.220   155803720.000        1418.210          44.000                                                                  
E26  27350145.678   143725997.097        -412.901          45.000                                                                  
> 2023 01 08 09 46 40.0040000  0 16                     
G07  21477091.486   112862877.466         617.860          44.000    21477073.418    84280647.962         461.391          48.000  
G01  23577465.959   123900422.682        2774.448          43.000    23577449.289    92522973.650        2072.014          47.000  
G21  22745141.914   119526529.455         434.299          44.000    22745124.599    89256752.764         324.543          48.000  
G09  24212906.475   127239684.300       -3195.116          43.000    24212890.272    95016582.677       -2385.909          47.000  
G27  25927264.163   136248694.894       -3823.339          43.000    25927249.649   101744096.515       -2855.096          46.000  
G04  26039680.877   136839450.324       -3682.646          43.000    26039666.891   102185244.053       -2749.780          46.000  
G14  24132806.872   126818757.186        1648.553          43.000    24132790.504    94702253.773        1230.976          47.000  
G17  24299589.791   127695211.255        2768.562          43.000    24299574.221    95356748.163        2067.317          47.000  
E12  29039101.850   152601510.921        2849.734          44.000    29039094.679   113955648.392        2127.959          46.000  
E21  29701027.514   156079953.499       -1759.385          44.000    29701017.018   116553171.712       -1313.901          46.000  
E24  29121881.271   153036520.089        1401.677          44.000    29121868.607   114280467.674        1046.685          46.000  
E31  25854092.535   135864172.665         535.084          45.000    25854077.318   101456953.961         399.653          47.000  
E01  26310895.214   138264686.656       -1057.594          45.000    26310879.158   103249542.001        -789.809          47.000  
E04  27041069.162   142101776.124       -2643.773          45.000    27041056.936   106114914.536       -1974.226          47.000  
E05  29648189.207   155802302.052        1417.857          44.000                                                                  
E26  27350224.253   143726410.269        -413.293          45.000                                                                  
> 2023 01 08 09 46 41.0040000  0 16                     
G07  21476973.833   112862259.681         617.502          44.000    21476955.833    84280186.622         461.260          48.000  
G01  23576937.907   123897648.214        2774.052          44.000    23576921.265    92520901.823        2071.484          47.000  
G21  22745059.257   119526095.237         433.821          44.000    22745042.054    89256428.520         324.061          48.000  
G09  24213514.477   127242879.423       -3195.314          43.000    24213498.113    95018968.646       -2386.146          47.000  
G27  25927991.834   136252518.195       -3823.399          43.000    25927977.177   101746951.570       -2855.028          47.000  
G04  26040381.565   136843132.779       -3682.349          43.000    26040367.611   102187993.943       -2749.813          46.000  
G14  24132493.187   126817108.610        1648.645          43.000    24132476.816    94701022.700        1231.077          47.000  
G17  24299062.842   127692442.764        2768.451          43.000    24299047.373    95354680.786        2067.253          47.000  
E12  29038559.489   152598661.081        2849.889          44.000    29038552.319   113953520.277        2127.990          46.000  
E21  29701362.392   156081712.922       -1759.370          44.000    29701351.748   116554485.560       -1313.834          46.000  
E24  29121614.555   153035118.431        1401.607          44.000    29121601.862   114279420.988        1046.622          46.000  
E31  25853991.004   135863637.684         534.917          45.000    25853975.589   101456554.467         399.391          47.000  
E01  26311096.486   138265744.236       -1057.665          45.000    26311080.406   103250331.753        -789.834          47.000  
E04  27041572.154   142104419.978       -2643.927          45.000    27041560.031   106116888.829       -1974.227          47.000  
E05  29647919.577   155800884.397        1417.438          44.000                                                                  
E26  27350303.124   143726823.849        -413.795          45.000                                                                  
> 2023 01 08 09 46 42.0040000  0 16                     
G07  21476856.386   112861642.384         617.072          44.000    21476838.438    84279725.663         460.604          48.000  
G01  23576410.016   123894874.041        2773.979          44.000    23576393.396    92518830.206        2071.324          47.000  
G21  22744976.774   119525661.647         433.083          44.000    22744959.530    89256104.734         323.481          48.000  
G09  24214122.551   127246074.715       -3195.709          43.000    24214106.208    95021354.732       -2386.228          47.000  
G27  25928719.409   136256341.474       -3823.481          43.000    25928704.781   101749806.619       -2855.132          46.000  
G04  26041082.262   136846815.137       -3682.407          43.000    26041068.327   102190743.748       -2749.825          46.000  
G14  24132179.362   126815460.125        1648.165          43.000    24132163.103    94699791.688        1230.780          47.000  
G17  24298536.116   127689674.596        2767.918          43.000    24298520.590    95352613.641        2066.947          47.000  
E12  29038017.049   152595811.168        2849.594          44.000    29038010.145   113951392.093        2128.122          46.000  
E21  29701697.173   156083472.345       -1759.487          44.000    29701686.674   116555799.416       -1314.051          46.000  
E24  29121347.846   153033716.748        1401.626          44.000    29121335.073   114278374.282        1046.572          46.000  
E31  25853889.156   135863102.715         534.835          45.000    25853873.926   101456154.972         399.430          47.000  
E01  26311297.757   138266801.844       -1057.834          45.000    26311281.611   103251121.521        -789.950          47.000  
E04  27042075.304   142107063.985       -2644.371          45.000    27042063.197   106118863.250       -1974.601          47.000  
E05  29647649.823   155799467.091        1417.073          44.000                                                                  
E26  27350381.714   143727237.903        -414.423          45.000                                                                  
> 2023 01 08 09 46 43.0040000  0 16                     
G07  21476739.101   112861025.687         616.416          44.000    21476720.988    84279265.134         460.406          48.000  
G01  23575882.126   123892100.288        2773.491          44.000    23575865.614    92516758.883        2071.214          47.000  
G21  22744894.441   119525228.767         432.467          44.000    22744877.210    89255781.476         322.954          48.000  
G09  24214730.561   127249270.271       -3195.845          43.000    24214714.329    95023741.028       -2386.440          47.000  
G27  25929446.847   136260164.830       -3823.189          43.000    25929432.380   101752661.729       -2855.203          46.000  
G04  26041783.057   136850497.466       -3682.467          43.000    26041769.031   102193493.535       -2749.805          46.000  
G14  24131865.732   126813811.795        1648.220          43.000    24131849.532    94698560.796        1230.703          47.000  
G17  24298009.560   127686906.831        2767.465          43.000    24297993.913    95350546.804        2066.680          47.000  
E12  29037474.658   152592961.242        2849.927          44.000    29037467.895   113949263.913        2128.140          46.000  
E21  29702032.043   156085231.860       -1759.516          44.000    29702021.421   116557113.331       -1313.872          46.000  
E24  29121081.137   153032315.148        1401.515          44.000    29121068.414   114277327.638        1046.476          46.000  
E31  25853787.241   135862567.842         534.870          45.000    25853771.949   101455755.568         399.268          47.000  
E01  26311498.944   138267859.558       -1057.731          45.000    26311482.923   103251911.370        -789.929          47.000  
E04  27042578.480   142109708.210       -2644.381          45.000    27042566.368   106120837.836       -1974.792          47.000  
E05  29647380.317   155798050.240        1416.588          44.000                                                                  
E26  27350460.844   143727652.514        -414.847          45.000                                                                  
> 2023 01 08 09 46 44.0040000  0 16                     
G07  21476621.873   112860409.420         616.014          44.000    21476603.750    84278804.942         460.015          48.000  
G01  23575354.376   123889326.768        2773.536          43.000    23575337.698    92514687.774        2070.834          47.000  
G21  22744812.118   119524796.432         432.233          44.000    22744794.939    89255458.639         322.670          48.000  
G09  24215338.706   127252465.952       -3195.923          43.000    24215322.426    95026127.403       -2386.428          47.000  
G27  25930174.415   136263988.150       -3823.454          43.000    25930159.919   101755516.784       -2854.969          46.000  
G04  26042483.898   136854179.613       -3682.023          43.000    26042469.791   102196243.196       -2749.594          46.000  
G14  24131551.997   126812163.488        1648.220          43.000    24131535.901    94697329.909        1230.927          47.000  
G17  24297482.901   127684139.313        2767.345          43.000    24297467.334    95348480.155        2066.577          47.000  
E12  29036932.255   152590111.196        2850.025          44.000    29036925.559   113947135.636        2128.254          46.000  
E21  29702366.827   156086991.327       -1759.449          44.000    29702356.307   116558427.218       -1313.835          46.000  
E24  29120814.447   153030913.465        1401.675          44.000    29120801.650   114276280.931        1046.834          46.000  
E31  25853685.427   135862032.950         534.888          45.000    25853670.182   101455356.130         399.314          47.000  
E01  26311700.303   138268917.259       -1057.692          45.000    26311684.226   103252701.208        -789.780          47.000  
E04  27043081.761   142112352.532       -2644.347          45.000    27043069.548   106122812.486       -1974.822          47.000  
E05  29647110.770   155796633.679        1416.410          44.000                                                                  
E26  27350539.855   143728067.558        -415.349          45.000                                                                  
> 2023 01 08 09 46 45.0040000  0 16                     
G07  21476504.785   112859793.609         615.680          44.000    21476486.567    84278345.082         459.772          48.000  
G01  23574826.655   123886553.541        2773.137          44.000    23574810.043    92512616.845        2070.847          47.000  
G21  22744730.002   119524364.707         431.516          44.000    22744712.542    89255136.229         322.435          48.000  
G09  24215946.813   127255661.757       -3195.893          43.000    24215930.577    95028513.883       -2386.373          47.000  
G27  25930901.890   136267811.389       -3823.052          43.000    25930887.435   101758371.814       -2855.016          46.000  
G04  26043184.432   136857861.611       -3682.007          43.000    26043170.406   102198992.733       -2749.356          46.000  
G14  24131238.320   126810515.207        1648.309          43.000    24131222.173    94696099.054        1230.926          47.000  
G17  24296956.313   127681372.067        2767.120          43.000    24296940.756    95346413.705        2066.488          47.000  
E12  29036389.833   152587261.017        2850.308          44.000    29036383.197   113945007.264        2128.488          46.000  
E21  29702701.597   156088750.755       -1759.344          44.000    29702691.094   116559741.072       -1313.775          46.000  
E24  29120547.615   153029511.729        1401.797          44.000    29120534.991   114275234.181        1046.796          46.000  
E31  25853583.617   135861498.020         535.009          45.000    25853568.459   101454956.660         399.636          47.000  
E01  26311901.438   138269974.942       -1057.698          45.000    26311885.528   103253491.025        -789.632          47.000  
E04  27043584.993   142114996.956       -2644.348          45.000    27043572.846   106124787.214       -1974.782          47.000  
E05  29646841.282   155795217.430        1416.287          44.000                                                                  
E26  27350618.858   143728483.017        -415.621          45.000                                                                  
> 2023 01 08 09 46 46.0040000  0 16                     
G07  21476387.689   112859178.348         614.911          44.000    21476369.528    84277885.628         459.185          48.000  
G01  23574298.989   123883780.673        2772.487          43.000    23574282.389    92510546.192        2070.498          47.000  
G21  22744648.012   119523933.631         430.577          44.000    22744630.624    89254814.332         321.570          48.000  
G09  24216554.990   127258857.789       -3196.268          43.000    24216538.801    95030900.532       -2386.780          47.000  
G27  25931629.391   136271634.671       -3823.269          43.000    25931615.096   101761226.857       -2855.170          47.000  
G04  26043885.165   136861543.530       -3681.900          43.000    26043871.056   102201742.227       -2749.712          46.000  
G14  24130924.632   126808867.053        1647.965          43.000    24130908.517    94694868.288        1230.720          47.000  
G17  24296429.811   127678605.187        2766.540          43.000    24296414.186    95344347.538        2065.999          47.000  
E12  29035847.534   152584410.812        2850.097          44.000    29035840.745   113942878.867        2128.355          46.000  
E21  29703036.509   156090510.240       -1759.624          44.000    29703025.738   116561054.973       -1314.027          46.000  
E24  29120280.909   153028110.019        1401.512          44.000    29120268.209   114274187.451        1046.786          46.000  
E31  25853482.044   135860963.159         534.683          45.000    25853466.591   101454557.256         399.340          47.000  
E01  26312102.841   138271032.688       -1057.851          45.000    26312086.722   103254280.914        -789.924          47.000  
E04  27044088.253   142117641.578       -2644.850          45.000    27044076.032   106126762.087       -1975.011          47.000  
E05  29646571.548   155793801.594        1415.563          44.000                                                                  
E26  27350698.032   143728898.998        -416.323          45.000                                                                  
> 2023 01 08 09 46 47.0040000  0 16                     
G07  21476270.686   112858563.589         614.556          44.000    21476252.534    84277426.562         458.921          48.000  
G01  23573771.337   123881008.121        2772.417          44.000    23573754.853    92508475.792        2070.264          47.000  
G21  22744566.009   119523503.183         430.442          44.000    22744548.751    89254492.905         321.199          48.000  
G09  24217163.268   127262054.022       -3196.349          43.000    24217146.962    95033287.323       -2386.692          47.000  
G27  25932356.908   136275457.979       -3823.236          43.000    25932342.630   101764081.919       -2855.081          46.000  
G04  26044585.895   136865225.366       -3681.890          43.000    26044571.670   102204491.638       -2749.377          46.000  
G14  24130610.895   126807218.997        1647.899          43.000    24130594.932    94693637.597        1230.762          47.000  
G17  24295903.315   127675838.633        2766.597          43.000    24295887.730    95342281.606        2065.961          47.000  
E12  29035305.104   152581560.536        2850.429          44.000    29035298.277   113940750.429        2128.497          46.000  
E21  29703371.221   156092269.742       -1759.382          44.000    29703360.658   116562368.881       -1313.787          46.000  
E24  29120014.193   153026708.313        1401.715          44.000    29120001.430   114273140.725        1046.766          46.000  
E31  25853380.328   135860428.333         534.952          45.000    25853364.936   101454157.880         399.359          47.000  
E01  26312304.261   138272090.501       -1057.918          45.000    26312288.146   103255070.830        -789.900          47.000  
E04  27044591.472   142120286.362       -2644.786          45.000    27044579.291   106128737.076       -1974.996          47.000  
E05  29646302.363   155792386.137        1415.199          44.000                                                                  
E26  27350777.303   143729315.479        -416.615          45.000                                                                  
> 2023 01 08 09 46 48.0040000  0 16                     
G07  21476153.873   112857949.291         613.858          44.000    21476135.606    84276967.829         458.548          48.000  
G01  23573243.782   123878235.832        2772.162          44.000    23573227.228    92506405.581        2070.099          47.000  
G21  22744484.180   119523073.326         429.645          44.000    22744466.912    89254171.900         320.791          48.000  
G09  24217771.397   127265250.379       -3196.273          43.000    24217755.295    95035674.216       -2387.017          47.000  
G27  25933084.409   136279281.202       -3823.033          43.000    25933070.027   101766936.930       -2854.948          46.000  
G04  26045286.461   136868907.019       -3681.457          43.000    26045272.173   102207240.929       -2749.270          46.000  
G14  24130297.306   126805570.960        1648.109          43.000    24130281.261    94692406.926        1230.767          47.000  
G17  24295376.877   127673072.342        2766.333          43.000    24295361.358    95340215.878        2065.722          47.000  
E12  29034762.752   152578710.137        2850.455          44.000    29034755.798   113938621.888        2128.695          46.000  
E21  29703706.058   156094029.206       -1759.359          44.000    29703695.518   116563682.766       -1313.836          46.000  
E24  29119747.400   153025306.535        1401.857          44.000    29119734.689   114272093.952        1046.835          46.000  
E31  25853278.592   135859893.484         534.925          45.000    25853263.194   101453758.476         399.359          47.000  
E01  26312505.358   138273148.273       -1057.689          45.000    26312489.349   103255860.731        -790.005          47.000  
E04  27045094.794   142122931.241       -2644.839          45.000    27045082.620   106130712.144       -1975.083          47.000  
E05  29646033.065   155790970.971        1415.133          44.000                                                                  
E26  27350856.478   143729732.379        -416.925          45.000                                                                  
> 2023 01 08 09 46 49.0040000  0 16                     
G07  21476037.021   112857335.327         613.615          44.000    21476018.801    84276509.357         458.264          48.000  
G01  23572716.374   123875463.739        2771.475          44.000    23572699.773    92504335.492        2069.932          47.000  
G21  22744402.432   119522643.938         428.895          44.000    22744385.207    89253851.243         320.408          48.000  
G09  24218379.706   127268446.763       -3196.736          43.000    24218363.536    95038061.122       -2387.019          47.000  
G27  25933811.987   136283104.296       -3823.167          43.000    25933797.683   101769791.830       -2854.966          46.000  
G04  26045987.111   136872588.419       -3681.553          43.000    26045972.692   102209990.026       -2749.214          46.000  
G14  24129983.776   126803922.856        1647.984          43.000    24129967.729    94691176.203        1230.575          47.000  
G17  24294850.496   127670306.229        2765.759          43.000    24294834.902    95338150.273        2065.528          47.000  
E12  29034220.339   152575859.515        2850.596          44.000    29034213.385   113936493.177        2128.782          46.000  
E21  29704040.807   156095788.528       -1759.362          44.000    29704030.236   116564996.547       -1313.775          46.000  
E24  29119480.494   153023904.586        1401.873          44.000    29119467.875   114271047.064        1046.641          46.000  
E31  25853176.643   135859358.503         534.899          45.000    25853161.311   101453358.972         399.435          47.000  
E01  26312706.579   138274205.932       -1057.673          45.000    26312690.655   103256650.538        -789.905          47.000  
E04  27045598.157   142125576.119       -2645.185          45.000    27045585.879   106132687.210       -1975.178          47.000  
E05  29645763.727   155789556.031        1414.467          44.000                                                                  
E26  27350935.890   143730149.612        -417.560          45.000                                                                  
> 2023 01 08 09 46 50.0040000  0 16                     
G07  21475920.270   112856721.895         613.203          44.000    21475902.008    84276051.271         457.899          48.000  
G01  23572188.864   123872691.944        2771.633          43.000    23572172.298    92502265.664        2069.663          47.000  
G21  22744320.773   119522215.182         428.381          44.000    22744303.698    89253531.082         319.716          48.000  
G09  24218987.995   127271643.344       -3196.826          43.000    24218971.829    95040448.184       -2387.273          47.000  
G27  25934539.567   136286927.391       -3823.088          43.000    25934525.181   101772646.739       -2854.946          46.000  
G04  26046687.652   136876269.728       -3681.288          43.000    26046673.393   102212739.049       -2749.156          46.000  
G14  24129670.164   126802274.840        1648.011          43.000    24129654.138    94689945.548        1230.643          47.000  
G17  24294324.209   127667540.453        2765.483          43.000    24294308.680    95336084.922        2065.215          47.000  
E12  29033677.952   152573008.840        2850.542          44.000    29033670.916   113934364.428        2128.843          46.000  
E21  29704375.621   156097547.889       -1759.515          44.000    29704365.089   116566310.345       -1313.754          46.000  
E24  29119213.892   153022502.660        1401.806          44.000    29119201.170   114270000.162        1046.914          46.000  
E31  25853074.889   135858823.560         534.877          45.000    25853059.513   101452959.506         399.300          47.000  
E01  26312907.978   138275263.654       -1057.932          45.000    26312891.893   103257440.388        -789.806          47.000  
E04  27046101.723   142128221.160       -2645.109          45.000    27046089.318   106134662.402       -1975.231          47.000  
E05  29645494.485   155788141.464        1414.134          44.000                                                                  
E26  27351015.255   143730567.344        -418.101          45.000                                                                  
> 2023 01 08 09 46 51.0040000  0 16                     
G07  21475803.544   112856108.951         612.686          44.000    21475785.405    84275593.556         457.498          48.000  
G01  23571661.571   123869920.474        2771.363          44.000    23571644.853    92500196.064        2069.514          47.000  
G21  22744239.314   119521787.045         427.697          44.000    22744222.209    89253211.376         319.391          48.000  
G09  24219596.283   127274840.105       -3196.891          43.000    24219580.055    95042835.365       -2387.171          47.000  
G27  25935267.047   136290750.480       -3823.192          43.000    25935252.551   101775501.632       -2854.798          46.000  
G04  26047388.136   136879950.910       -3681.145          43.000    26047373.865   102215487.976       -2748.881          46.000  
G14  24129356.613   126800626.918        1647.687          43.000    24129340.510    94688714.952        1230.568          47.000  
G17  24293797.950   127664774.990        2765.147          43.000    24293782.377    95334019.808        2064.957          47.000  
E12  29033135.310   152570158.066        2850.795          44.000    29033128.443   113932235.623        2128.798          46.000  
E21  29704710.299   156099307.230       -1759.266          44.000    29704699.918   116567624.161       -1313.947          46.000  
E24  29118947.018   153021100.707        1401.983          44.000    29118934.253   114268953.263        1046.882          46.000  
E31  25852973.091   135858288.642         534.814          45.000    25852957.679   101452560.057         399.273          47.000  
E01  26313109.245   138276321.387       -1057.778          45.000    26313093.253   103258230.264        -789.895          47.000  
E04  27046604.806   142130866.358       -2645.320          45.000    27046592.669   106136637.699       -1975.213          47.000  
E05  29645225.451   155786727.237        1414.009          44.000                                                                  
E26  27351094.967   143730985.541        -418.409          45.000                                                                  
> 2023 01 08 09 46 52.0040000  0 16                     
G07  21475686.952   112855496.434         612.240          44.000    21475668.783    84275136.156         457.150          48.000  
G01  23571134.277   123867149.251        2770.991          44.000    23571117.514    92498126.644        2069.237          47.000  
G21  22744157.905   119521359.462         427.306          44.000    22744140.872    89252892.073         318.988          48.000  
G09  24220204.554   127278036.966       -3197.032          43.000    24220188.434    95045222.634       -2387.365          47.000  
G27  25935994.621   136294573.482       -3823.060          43.000    25935980.094   101778356.478       -2854.952          46.000  
G04  26048088.626   136883631.911       -3680.962          43.000    26048074.416   102218236.777       -2748.752          46.000  
G14  24129043.013   126798978.998        1647.630          43.000    24129026.872    94687484.353        1230.653          47.000  
G17  24293271.851   127662009.765        2764.900          43.000    24293256.242    95331954.869        2064.781          47.000  
E12  29032592.659   152567307.152        2850.865          44.000    29032585.903   113930106.693        2128.942          46.000  
E21  29705045.079   156101066.526       -1759.242          44.000    29705034.848   116568937.908       -1313.822          46.000  
E24  29118680.194   153019698.673        1402.006          44.000    29118667.538   114267906.279        1046.930          46.000  
E31  25852871.257   135857753.658         534.907          45.000    25852855.980   101452160.558         399.426          47.000  
E01  26313310.464   138277379.079       -1057.725          45.000    26313294.567   103259020.097        -789.750          47.000  
E04  27047108.283   142133511.614       -2645.394          45.000    27047096.119   106138613.058       -1975.463          47.000  
E05  29644956.499   155785313.317        1413.618          44.000                                                                  
E26  27351174.700   143731404.142        -418.704          45.000                                                                  
> 2023 01 08 09 46 55.0040000  0 16                     
G07  21475337.745   112853661.894         610.566          45.000    21475319.703    84273766.207         455.884          48.000  
G01  23569552.722   123858837.479        2769.800          44.000    23569535.731    92491919.806        2068.352          47.000  
G21  22743914.623   119520080.463         425.059          44.000    22743897.400    89251936.978         317.367          48.000  
G09  24222029.565   127287628.619       -3197.790          43.000    24222013.543    95052385.228       -2388.003          47.000  
G27  25938177.081   136306042.455       -3823.083          43.000    25938162.690   101786920.963       -2854.994          46.000  
G04  26050190.000   136894674.227       -3680.834          43.000    26050175.598   102226482.656       -2748.623          46.000  
G14  24128102.324   126794035.673        1647.352          43.000    24128086.116    94683792.928        1230.079          47.000  
G17  24291693.727   127653716.005        2763.761          43.000    24291677.948    95325761.490        2063.743          47.000  
E12  29030965.003   152558753.949        2850.974          44.000    29030958.282   113923719.580        2128.949          46.000  
E21  29706049.577   156106344.461       -1759.546          44.000    29706038.963   116572879.210       -1313.865          46.000  
E24  29117879.835   153015492.466        1401.805          44.000    29117867.164   114264765.302        1046.868          46.000  
E31  25852565.804   135856148.858         534.752          45.000    25852550.460   101450962.172         399.151          47.000  
E01  26313914.432   138280552.363       -1058.098          45.000    26313898.351   103261389.751        -790.147          47.000  
E04  27048618.613   142141448.298       -2645.934          45.000    27048606.242   106144539.793       -1976.003          47.000  
E05  29644149.807   155781073.682        1412.406          44.000    29644137.044                        1054.601          46.000  
E26  27351414.340   143732662.829        -420.598          45.000                                                                  
> 2023 01 08 09 46 56.0040000  0 16                     
G07  21475221.623   112853051.367         609.878          44.000    21475203.594    84273310.293         455.424          48.000  
G01  23569025.543   123856067.505        2769.471          44.000    23569008.611    92489851.319        2068.164          47.000  
G21  22743833.652   119519655.353         424.539          44.000    22743816.531    89251619.527         316.954          48.000  
G09  24222638.090   127290826.182       -3197.967          43.000    24222622.018    95054773.007       -2388.052          47.000  
G27  25938904.573   136309865.427       -3823.302          43.000    25938890.134   101789775.776       -2855.041          46.000  
G04  26050890.456   136898354.766       -3680.834          43.000    26050876.074   102229231.104       -2748.638          46.000  
G14  24127788.775   126792388.044        1647.267          43.000    24127772.583    94682562.550        1230.239          47.000  
G17  24291167.704   127650952.031        2763.543          43.000    24291151.894    95323697.485        2063.591          47.000  
E12  29030422.678   152555902.712        2850.970          44.000    29030415.748   113921590.413        2128.983          46.000  
E21  29706384.399   156108103.772       -1759.577          44.000    29706373.775   116574192.987       -1314.107          46.000  
E24  29117612.907   153014090.356        1401.784          44.000    29117600.265   114263718.273        1046.804          46.000  
E31  25852464.131   135855613.952         534.602          45.000    25852448.730   101450562.722         399.306          47.000  
E01  26314115.569   138281610.170       -1058.077          45.000    26314099.671   103262179.674        -790.165          47.000  
E04  27049122.161   142144094.145       -2646.156          45.000    27049109.880   106146515.575       -1976.077          47.000  
E05  29643880.996   155779661.180        1412.116          44.000    29643868.424   116328907.0461       1054.337          46.000  
E26  27351494.229   143733083.326        -421.053          45.000                                                                  
> 2023 01 08 09 46 57.0040000  0 16                     
G07  21475105.555   112852441.341         609.745          44.000    21475087.518    84272854.756         455.357          48.000  
G01  23568498.557   123853297.854        2769.504          44.000    23568481.721    92487783.072        2068.126          47.000  
G21  22743752.915   119519230.876         424.280          44.000    22743735.685    89251302.551         316.707          48.000  
G09  24223246.576   127294023.926       -3197.778          43.000    24223230.648    95057160.939       -2387.967          47.000  
G27  25939632.153   136313688.379       -3822.698          43.000    25939617.503   101792630.590       -2854.919          47.000  
G04  26051590.890   136902035.183       -3680.430          43.000    26051576.378   102231979.475       -2748.445          46.000  
G14  24127475.237   126790740.503        1647.451          43.000    24127459.133    94681332.253        1230.050          47.000  
G17  24290641.747   127648188.386        2763.467          43.000    24290626.012    95321633.738        2063.385          47.000  
E12  29029879.973   152553051.404        2851.314          44.000    29029873.283   113919461.206        2129.250          46.000  
E21  29706719.182   156109863.110       -1759.368          44.000    29706708.644   116575506.771       -1313.851          46.000  
E24  29117346.158   153012688.231        1402.156          44.000    29117333.371   114262671.239        1047.108          46.000  
E31  25852362.209   135855079.073         534.947          45.000    25852346.934   101450163.310         399.458          47.000  
E01  26314316.846   138282668.018       -1057.929          45.000    26314300.962   103262969.624        -790.029          47.000  
E04  27049625.633   142146740.148       -2646.109          45.000    27049613.303   106148491.478       -1976.006          47.000  
E05  29643612.149   155778249.027        1412.157          44.000    29643599.964   116327852.535        1054.212          46.000  
E26  27351574.195   143733504.304        -421.129          45.000                                                                  
> 2023 01 08 09 46 58.0040000  0 16                     
G07  21474989.613   112851831.787         609.058          44.000    21474971.550    84272399.559         454.954          48.000  
G01  23567971.457   123850528.482        2769.050          44.000    23567954.575    92485715.050        2067.605          47.000  
G21  22743672.292   119518806.999         423.258          44.000    22743655.027    89250986.016         316.141          48.000  
G09  24223855.139   127297221.819       -3198.255          43.000    24223839.215    95059548.963       -2388.168          47.000  
G27  25940359.639   136317511.310       -3823.120          43.000    25940345.074   101795485.358       -2854.832          46.000  
G04  26052291.179   136905715.463       -3680.372          43.000    26052276.724   102234727.726       -2748.464          46.000  
G14  24127161.740   126789092.995        1647.360          43.000    24127145.612    94680101.973        1230.048          47.000  
G17  24290115.858   127645425.023        2763.102          43.000    24290100.109    95319570.180        2063.316          47.000  
E12  29029337.388   152550199.980        2851.362          44.000    29029330.531   113917331.901        2129.263          46.000  
E21  29707054.006   156111622.401       -1759.367          44.000    29707043.402   116576820.529       -1313.856          46.000  
E24  29117079.470   153011286.070        1401.836          44.000    29117066.544   114261624.174        1046.922          46.000  
E31  25852260.325   135854544.174         534.892          45.000    25852245.177   101449763.883         399.032          47.000  
E01  26314518.151   138283725.857       -1058.024          45.000    26314502.233   103263759.575        -790.241          47.000  
E04  27050129.052   142149386.248       -2646.285          45.000    27050116.857   106150467.470       -1976.302          47.000  
E05  29643343.689   155776837.230        1411.377          44.000    29643331.404   116326798.254        1053.986          46.000  
E26  27351654.460   143733925.731        -421.865          45.000                                                                  
> 2023 01 08 09 46 59.0040000  0 16                     
G07  21474873.663   112851222.794         608.852          45.000    21474855.499    84271944.803         454.583          48.000  
G01  23567444.533   123847759.506        2768.921          44.000    23567427.680    92483647.304        2067.570          47.000  
G21  22743591.810   119518383.805         422.948          44.000    22743574.602    89250669.998         315.725          48.000  
G09  24224463.806   127300419.946       -3198.143          43.000    24224447.753    95061937.183       -2388.223          47.000  
G27  25941087.189   136321334.290       -3822.872          43.000    25941072.593   101798340.183       -2854.702          47.000  
G04  26052991.480   136909395.694       -3680.227          43.000    26052977.025   102237475.953       -2748.339          47.000  
G14  24126848.280   126787445.651        1647.281          43.000    24126832.168    94678871.810        1230.116          47.000  
G17  24289590.190   127642662.052        2762.936          43.000    24289574.408    95317506.924        2063.216          47.000  
E12  29028794.765   152547348.562        2851.559          44.000    29028787.927   113915202.605        2129.331          46.000  
E21  29707388.781   156113381.797       -1759.407          44.000    29707378.244   116578134.359       -1313.890          46.000  
E24  29116812.521   153009883.961        1402.040          44.000    29116799.708   114260577.145        1047.107          46.000  
E31  25852158.683   135854009.386         534.843          45.000    25852143.482   101449364.519         399.363          47.000  
E01  26314719.723   138284783.812       -1058.054          45.000    26314703.488   103264549.586        -790.022          47.000  
E04  27050632.716   142152032.587       -2646.369          45.000    27050620.492   106152443.620       -1976.278          47.000  
E05  29643075.041   155775425.854        1411.110          44.000    29643062.866   116325744.300        1053.880          46.000  
E26  27351734.585   143734347.706        -422.195          45.000                                                                  
> 2023 01 08 09 47 00.0040000  0 16                     
G07  21474757.841   112850614.307         608.212          44.000    21474739.758    84271490.414         454.110          48.000  
G01  23566917.761   123844990.841        2768.505          44.000    23566900.926    92481579.795        2067.296          47.000  
G21  22743511.537   119517961.228         422.266          44.000    22743494.168    89250354.438         315.361          48.000  
G09  24225072.434   127303618.261       -3198.485          43.000    24225056.361    95064325.532       -2388.480          47.000  
G27  25941814.686   136325157.269       -3822.985          43.000    25941800.163   101801194.997       -2854.704          47.000  
G04  26053691.645   136913075.806       -3680.112          43.000    26053677.388   102240224.083       -2748.192          46.000  
G14  24126534.829   126785798.369        1647.218          43.000    24126518.725    94677641.696        1230.094          47.000  
G17  24289064.435   127639899.398        2762.328          43.000    24289048.748    95315443.906        2062.934          47.000  
E12  29028252.216   152544497.057        2851.527          44.000    29028245.283   113913073.246        2129.293          46.000  
E21  29707723.728   156115141.180       -1759.401          44.000    29707712.988   116579448.186       -1313.837          46.000  
E24  29116545.810   153008481.821        1402.149          44.000    29116533.072   114259530.104        1046.972          46.000  
E31  25852056.961   135853474.602         534.766          45.000    25852041.548   101448965.168         399.223          47.000  
E01  26314920.961   138285841.771       -1057.987          45.000    26314904.940   103265339.639        -790.156          47.000  
E04  27051136.471   142154679.059       -2646.628          45.000    27051124.078   106154419.873       -1976.265          47.000  
E05  29642806.333   155774014.820        1410.862          44.000    29642794.327   116324690.610        1053.627          46.000  
E26  27351815.158   143734770.160        -422.833          45.000                                                                  
> 2023 01 08 09 47 01.0040000  0 16                     
G07  21474642.159   112850006.120         608.012          44.000    21474624.062    84271036.242         454.101          48.000  
G01  23566390.927   123842222.291        2768.493          44.000    23566374.083    92479512.366        2067.533          47.000  
G21  22743431.176   119517539.090         421.732          44.000    22743413.847    89250039.200         315.028          48.000  
G09  24225681.158   127306816.547       -3198.355          43.000    24225665.117    95066713.865       -2388.344          47.000  
G27  25942542.160   136328980.043       -3822.769          43.000    25942527.571   101804049.666       -2854.638          46.000  
G04  26054391.936   136916755.603       -3679.752          43.000    26054377.545   102242971.979       -2747.786          46.000  
G14  24126221.295   126784150.963        1647.476          43.000    24126205.212    94676411.498        1230.151          47.000  
G17  24288538.637   127637136.851        2762.442          43.000    24288522.947    95313380.971        2062.871          47.000  
E12  29027709.382   152541645.281        2851.801          44.000    29027702.598   113910943.667        2129.713          46.000  
E21  29708058.419   156116900.388       -1759.320          44.000    29708047.735   116580761.874       -1313.745          46.000  
E24  29116278.651   153007079.477        1402.411          44.000    29116266.135   114258482.905        1047.397          46.000  
E31  25851955.028   135852939.637         535.188          45.000    25851939.853   101448565.684         399.534          47.000  
E01  26315122.197   138286899.578       -1057.804          45.000    26315106.220   103266129.550        -789.880          47.000  
E04  27051639.757   142157325.480       -2646.398          45.000    27051627.722   106156396.091       -1976.166          47.000  
E05  29642537.725   155772603.959        1410.692          44.000    29642525.824   116323637.047        1053.497          46.000  
E26  27351895.559   143735192.872        -422.823          45.000                                                                  
> 2023 01 08 09 47 02.0040000  0 16                     
G07  21474526.394   112849398.338         607.257          44.000    21474508.376    84270582.378         453.548          48.000  
G01  23565864.084   123839453.962        2767.994          44.000    23565847.208    92477445.111        2067.090          47.000  
G21  22743350.948   119517117.461         421.156          44.000    22743333.547    89249724.350         314.478          48.000  
G09  24226289.819   127310014.904       -3198.383          43.000    24226273.561    95069102.248       -2388.567          47.000  
G27  25943269.627   136332802.704       -3822.841          43.000    25943254.982   101806904.247       -2854.672          46.000  
G04  26055092.130   136920435.180       -3679.594          43.000    26055077.752   102245719.719       -2747.886          46.000  
G14  24125907.756   126782503.549        1647.141          43.000    24125891.795    94675181.285        1230.143          47.000  
G17  24288012.934   127634374.532        2762.019          43.000    24287997.339    95311318.205        2062.496          47.000  
E12  29027166.601   152538793.322        2851.842          44.000    29027159.834   113908813.969        2129.710          46.000  
E21  29708393.253   156118659.488       -1759.264          44.000    29708382.526   116582075.487       -1313.764          46.000  
E24  29116012.064   153005677.015        1402.396          44.000    29115999.337   114257435.620        1047.174          46.000  
E31  25851853.468   135852404.614         534.821          45.000    25851838.019   101448166.141         399.554          47.000  
E01  26315323.331   138287957.309       -1057.889          45.000    26315307.474   103266919.419        -789.937          47.000  
E04  27052143.682   142159971.949       -2646.656          45.000    27052131.324   106158372.351       -1976.435          47.000  
E05  29642269.443   155771193.351        1410.258          44.000    29642257.374   116322583.673        1053.198          46.000  
E26  27351976.236   143735615.973        -423.417          45.000                                                                  
> 2023 01 08 09 47 03.0040000  0 16                     
G07  21474410.845   112848791.021         606.595          44.000    21474392.815    84270128.860         453.120          48.000  
G01  23565337.464   123836685.924        2767.566          44.000    23565320.631    92475378.072        2066.621          47.000  
G21  22743270.787   119516696.434         420.388          44.000    22743253.444    89249409.949         313.875          48.000  
G09  24226898.460   127313213.425       -3198.871          43.000    24226882.233    95071490.744       -2388.731          47.000  
G27  25943996.980   136336625.331       -3823.007          43.000    25943982.298   101809758.809       -2854.846          46.000  
G04  26055792.395   136924114.624       -3679.530          43.000    26055777.889   102248467.346       -2747.680          46.000  
G14  24125594.222   126780856.181        1646.932          43.000    24125578.174    94673951.109        1229.965          47.000  
G17  24287487.273   127631612.506        2761.517          43.000    24287471.671    95309255.649        2062.045          47.000  
E12  29026623.906   152535941.264        2851.832          44.000    29026617.139   113906684.191        2129.706          46.000  
E21  29708727.997   156120418.574       -1759.340          44.000    29708717.197   116583389.091       -1313.904          46.000  
E24  29115745.112   153004274.518        1402.221          44.000    29115732.381   114256388.296        1047.132          46.000  
E31  25851751.479   135851869.567         534.709          45.000    25851736.176   101447766.605         399.181          47.000  
E01  26315524.687   138289015.049       -1058.032          45.000    26315508.712   103267709.290        -790.173          47.000  
E04  27052647.089   142162618.538       -2647.026          45.000    27052634.848   106160348.697       -1976.666          47.000  
E05  29642001.095   155769783.083        1409.671          44.000    29641988.914   116321530.547        1052.847          46.000  
E26  27352056.885   143736039.530        -424.107          45.000                                                                  
> 2023 01 08 09 47 04.0040000  0 16                     
G07  21474295.463   112848184.274         606.553          44.000    21474277.385    84269675.779         452.859          48.000  
G01  23564810.817   123833918.269        2767.542          44.000    23564793.829    92473311.321        2066.710          47.000  
G21  22743190.835   119516276.103         420.005          44.000    22743173.489    89249096.063         313.755          48.000  
G09  24227507.184   127316412.196       -3198.958          43.000    24227491.061    95073879.429       -2388.636          47.000  
G27  25944724.328   136340448.018       -3822.643          43.000    25944709.781   101812613.407       -2854.458          46.000  
G04  26056492.566   136927794.035       -3679.532          43.000    26056478.159   102251214.954       -2747.565          46.000  
G14  24125280.740   126779208.960        1647.157          43.000    24125264.787    94672721.049        1230.045          47.000  
G17  24286961.678   127628850.855        2761.601          43.000    24286946.210    95307193.387        2062.118          47.000  
E12  29026081.212   152533089.202        2852.177          44.000    29026074.334   113904554.414        2129.912          46.000  
E21  29709062.585   156122177.751       -1759.048          44.000    29709052.141   116584702.760       -1313.676          46.000  
E24  29115478.292   153002872.086        1402.462          44.000    29115465.514   114255341.031        1047.280          46.000  
E31  25851649.607   135851334.610         535.100          45.000    25851634.326   101447367.129         399.288          47.000  
E01  26315726.035   138290072.890       -1057.708          45.000    26315710.044   103268499.238        -790.029          47.000  
E04  27053150.772   142165265.349       -2646.866          45.000    27053138.617   106162325.205       -1976.553          47.000  
E05  29641732.792   155768373.234        1409.797          44.000    29641720.676   116320477.751        1052.714          46.000  
E26  27352137.588   143736463.624        -424.158          45.000                                                                  
> 2023 01 08 09 47 05.0040000  0 16                     
G07  21474180.070   112847578.028         606.172          44.000    21474162.009    84269223.070         452.582          48.000  
G01  23564284.138   123831150.937        2767.292          44.000    23564267.154    92471244.815        2066.449          47.000  
G21  22743110.915   119515856.391         419.622          44.000    22743093.671    89248782.651         313.234          48.000  
G09  24228115.975   127319611.127       -3198.826          43.000    24228099.853    95076268.251       -2388.687          47.000  
G27  25945451.788   136344270.709       -3822.645          43.000    25945437.221   101815468.018       -2854.640          46.000  
G04  26057192.660   136931473.312       -3679.084          43.000    26057178.151   102253962.474       -2747.460          46.000  
G14  24124967.240   126777561.816        1647.313          43.000    24124951.267    94671491.043        1229.985          47.000  
G17  24286436.214   127626089.529        2761.465          43.000    24286420.712    95305131.365        2061.969          47.000  
E12  29025538.218   152530237.060        2852.403          44.000    29025531.641   113902424.580        2129.879          46.000  
E21  29709397.350   156123936.935       -1759.105          44.000    29709386.811   116586016.421       -1313.422          46.000  
E24  29115211.266   153001469.620        1402.708          44.000    29115198.754   114254293.736        1047.602          46.000  
E31  25851547.834   135850799.693         534.908          45.000    25851532.662   101446967.672         399.476          47.000  
E01  26315927.447   138291130.767       -1057.760          45.000    26315911.386   103269289.210        -789.969          47.000  
E04  27053654.443   142167912.306       -2646.958          45.000    27053642.446   106164301.823       -1976.573          47.000  
E05  29641464.688   155766963.753        1409.590          44.000    29641452.497   116319425.218        1052.502          46.000  
E26  27352218.245   143736888.216        -424.766          45.000    27352202.510                        -317.349          47.000  
> 2023 01 08 09 47 06.0040000  0 16                     
G07  21474064.832   112846972.143         605.563          44.000    21474046.652    84268770.619         452.188          48.000  
G01  23563757.481   123828383.782        2766.836          44.000    23563740.565    92469178.433        2066.148          47.000  
G21  22743031.109   119515437.167         418.766          44.000    22743013.813    89248469.589         312.749          48.000  
G09  24228724.763   127322810.108       -3199.078          44.000    24228708.558    95078657.091       -2388.932          47.000  
G27  25946179.143   136348093.237       -3822.572          43.000    25946164.601   101818322.507       -2854.677          46.000  
G04  26057892.770   136935152.337       -3679.052          43.000    26057878.363   102256709.796       -2747.362          46.000  
G14  24124653.720   126775914.619        1646.981          43.000    24124637.799    94670260.988        1229.947          47.000  
G17  24285910.864   127623328.386        2760.975          43.000    24285895.277    95303069.473        2061.730          47.000  
E12  29024995.668   152527384.712        2852.238          44.000    29024988.805   113900294.575        2130.063          46.000  
E21  29709732.148   156125695.992       -1759.250          44.000    29709721.566   116587330.004       -1313.529          46.000  
E24  29114944.411   153000067.010        1402.539          44.000    29114931.720   114253246.336        1047.409          46.000  
E31  25851446.042   135850264.631         534.928          45.000    25851430.828   101446568.115         399.489          47.000  
E01  26316128.489   138292188.524       -1057.735          45.000    26316112.624   103270079.092        -789.983          47.000  
E04  27054158.228   142170559.266       -2647.175          45.000    27054146.076   106166278.435       -1976.459          47.000  
E05  29641196.565   155765554.490        1409.090          44.000    29641184.397   116318372.846        1052.290          46.000  
E26  27352298.969   143737313.123        -425.127          45.000    27352282.818   107336232.8881       -317.463          47.000  
> 2023 01 08 09 47 07.0040000  0 16                     
G07  21473949.634   112846366.755         605.005          45.000    21473931.541    84268318.537         451.840          48.000  
G01  23563230.960   123825616.923        2766.852          44.000    23563214.080    92467112.270        2066.198          47.000  
G21  22742951.482   119515018.551         418.334          44.000    22742934.148    89248156.984         312.422          48.000  
G09  24229333.617   127326009.250       -3199.315          43.000    24229317.293    95081046.057       -2388.902          47.000  
G27  25946906.604   136351915.759       -3822.599          43.000    25946892.036   101821176.970       -2854.446          47.000  
G04  26058592.934   136938831.237       -3678.744          43.000    26058578.496   102259457.020       -2747.136          46.000  
G14  24124340.293   126774267.473        1647.112          43.000    24124324.481    94669030.980        1229.979          47.000  
G17  24285385.577   127620567.555        2760.518          43.000    24285369.959    95301007.806        2061.529          47.000  
E12  29024452.841   152524532.261        2852.588          44.000    29024446.045   113898164.512        2130.040          46.000  
E21  29710066.984   156127455.028       -1759.031          44.000    29710056.268   116588643.582       -1313.578          46.000  
E24  29114677.548   152998664.371        1402.677          44.000    29114664.784   114252198.919        1047.433          46.000  
E31  25851344.175   135849729.602         534.968          45.000    25851328.981   101446168.574         399.490          47.000  
E01  26316330.041   138293246.312       -1057.812          45.000    26316313.948   103270869.000        -790.014          47.000  
E04  27054661.801   142173206.366       -2647.091          45.000    27054649.626   106168255.163       -1976.595          47.000  
E05  29640928.467   155764145.576        1408.785          44.000    29640916.244   116317320.737        1051.993          46.000  
E26  27352379.903   143737738.503        -425.534          45.000    27352363.473   107336550.546        -317.886          47.000  
> 2023 01 08 09 47 08.0040000  0 16                     
G07  21473834.473   112845761.843         604.512          44.000    21473816.364    84267866.818         451.556          48.000  
G01  23562704.576   123822850.385        2766.185          44.000    23562687.588    92465046.351        2065.669          47.000  
G21  22742871.900   119514600.548         417.554          44.000    22742854.595    89247844.839         311.821          48.000  
G09  24229942.498   127329208.545       -3199.417          43.000    24229926.145    95083435.141       -2389.094          47.000  
G27  25947633.873   136355738.238       -3822.559          43.000    25947619.461   101824031.429       -2854.596          46.000  
G04  26059293.004   136942510.012       -3678.885          43.000    26059278.414   102262204.150       -2747.143          46.000  
G14  24124026.808   126772620.395        1646.964          43.000    24124010.961    94667801.023        1229.913          47.000  
G17  24284860.330   127617807.009        2760.269          43.000    24284844.702    95298946.367        2061.284          47.000  
E12  29023910.070   152521679.727        2852.432          44.000    29023903.171   113896034.377        2130.129          46.000  
E21  29710401.614   156129214.071       -1759.081          44.000    29710391.084   116589957.145       -1313.512          46.000  
E24  29114410.742   152997261.700        1402.651          44.000    29114397.892   114251151.475        1047.357          46.000  
E31  25851242.329   135849194.559         534.988          45.000    25851227.117   101445769.031         399.492          47.000  
E01  26316531.336   138294304.115       -1057.958          45.000    26316515.063   103271658.912        -790.092          47.000  
E04  27055165.817   142175853.595       -2647.517          45.000    27055153.500   106170231.987       -1976.874          47.000  
E05  29640660.392   155762737.007        1408.318          44.000    29640648.223   116316268.889        1051.624          46.000  
E26  27352460.993   143738164.346        -426.220          45.000    27352444.831   107336868.543        -318.326          47.000  
> 2023 01 08 09 47 09.0040000  0 16                     
G07  21473719.594   112845157.358         604.386          44.000    21473701.439    84267415.416         451.373          48.000  
G01  23562178.142   123820084.072        2766.310          44.000    23562161.240    92462980.600        2065.912          47.000  
G21  22742792.505   119514183.087         417.351          44.000    22742775.160    89247533.110         311.491          48.000  
G09  24230551.251   127332407.948       -3199.281          43.000    24230534.866    95085824.308       -2389.071          47.000  
G27  25948361.244   136359560.651       -3822.251          43.000    25948346.853   101826885.826       -2854.292          46.000  
G04  26059993.032   136946188.583       -3678.220          43.000    26059978.526   102264951.140       -2746.818          46.000  
G14  24123713.289   126770973.329        1647.108          43.000    24123697.567    94666571.067        1230.027          47.000  
G17  24284334.992   127615046.714        2760.294          43.000    24284319.310    95296885.113        2061.210          47.000  
E12  29023367.080   152518827.033        2852.865          44.000    29023360.419   113893904.134        2130.211          46.000  
E21  29710736.365   156130973.043       -1758.766          44.000    29710725.702   116591270.670       -1313.514          46.000  
E24  29114143.746   152995858.945        1402.844          44.000    29114130.838   114250103.971        1047.442          46.000  
E31  25851140.488   135848659.477         535.211          45.000    25851125.346   101445369.455         399.767          47.000  
E01  26316732.520   138295361.870       -1057.626          45.000    26316716.460   103272448.792        -789.694          47.000  
E04  27055669.404   142178500.894       -2647.186          45.000    27055657.295   106172208.866       -1976.878          47.000  
E05  29640392.244   155761328.728        1408.255          44.000    29640380.162   116315217.247        1051.581          46.000  
E26  27352542.079   143738590.587        -426.369          45.000    27352525.851   107337186.834        -318.249          47.000  
> 2023 01 08 09 47 10.0040000  0 16                     
G07  21473604.572   112844553.366         603.662          45.000    21473586.370    84266964.387         450.852          48.000  
G01  23561651.740   123817318.084        2765.720          44.000    23561634.895    92460915.089        2065.404          47.000  
G21  22742713.188   119513766.245         416.548          44.000    22742695.874    89247221.824         311.062          48.000  
G09  24231160.100   127335607.519       -3199.517          43.000    24231143.743    95088213.595       -2389.265          47.000  
G27  25949088.670   136363383.038       -3822.212          43.000    25949074.199   101829740.201       -2854.229          46.000  
G04  26060692.889   136949867.043       -3678.343          43.000    26060678.457   102267698.038       -2746.902          46.000  
G14  24123399.844   126769326.320        1647.026          43.000    24123384.142    94665341.166        1229.869          47.000  
G17  24283809.753   127612286.728        2759.761          43.000    24283794.120    95294824.079        2061.060          47.000  
E12  29022824.307   152515974.271        2852.744          44.000    29022817.506   113891773.816        2130.435          46.000  
E21  29711071.058   156132732.027       -1758.988          44.000    29711060.424   116592584.182       -1313.442          46.000  
E24  29113876.567   152994456.154        1402.838          44.000    29113863.970   114249056.434        1047.474          46.000  
E31  25851038.689   135848124.390         535.250          45.000    25851023.467   101444969.889         399.571          47.000  
E01  26316933.910   138296419.648       -1057.833          45.000    26316917.781   103273238.682        -789.730          47.000  
E04  27056173.123   142181148.328       -2647.414          45.000    27056161.069   106174185.842       -1977.023          47.000  
E05  29640124.337   155759920.792        1407.873          44.000    29640112.321   116314165.869        1051.253          46.000  
E26  27352623.416   143739017.294        -426.877          45.000    27352607.005   107337505.483        -318.714          47.000  
> 2023 01 08 09 47 11.0040000  0 16                     
G07  21473489.753   112843949.885         603.258          45.000    21473471.526    84266513.735         450.355          48.000  
G01  23561125.524   123814552.423        2765.424          44.000    23561108.628    92458849.826        2065.113          47.000  
G21  22742634.035   119513350.033         415.822          44.000    22742616.593    89246911.020         310.460          48.000  
G09  24231769.045   127338807.274       -3199.781          43.000    24231752.649    95090603.029       -2389.644          47.000  
G27  25949816.004   136367205.442       -3822.653          43.000    25949801.578   101832594.586       -2854.479          47.000  
G04  26061392.862   136953545.388       -3678.257          43.000    26061378.468   102270444.854       -2746.834          46.000  
G14  24123086.518   126767679.404        1646.891          43.000    24123070.762    94664111.324        1229.729          47.000  
G17  24283284.589   127609527.065        2759.457          43.000    24283268.938    95292763.298        2060.767          47.000  
E12  29022281.415   152513121.425        2852.872          44.000    29022274.608   113889643.456        2130.364          46.000  
E21  29711405.834   156134491.011       -1758.943          44.000    29711395.178   116593897.707       -1313.441          46.000  
E24  29113609.828   152993053.370        1402.707          44.000    29113597.071   114248008.908        1047.379          46.000  
E31  25850937.087   135847589.347         535.074          45.000    25850921.657   101444570.344         399.354          47.000  
E01  26317135.052   138297477.456       -1057.728          45.000    26317119.082   103274028.616        -789.956          47.000  
E04  27056676.923   142183795.926       -2647.802          45.000    27056664.809   106176162.936       -1977.107          47.000  
E05  29639856.534   155758513.221        1407.418          44.000    29639844.391   116313114.769        1050.838          46.000  
E26  27352704.716   143739444.499        -427.508          45.000    27352688.422   107337824.498        -319.172          47.000  
> 2023 01 08 09 47 12.0040000  0 16                     
G07  21473374.955   112843346.857         602.723          44.000    21473356.854    84266063.423         450.125          48.000  
G01  23560599.295   123811787.014        2765.294          44.000    23560582.374    92456784.754        2065.067          47.000  
G21  22742554.931   119512934.404         415.234          44.000    22742537.548    89246600.646         310.148          48.000  
G09  24232377.906   127342007.150       -3199.768          43.000    24232361.732    95092992.548       -2389.661          47.000  
G27  25950543.475   136371027.779       -3822.538          43.000    25950528.850   101835448.930       -2854.407          46.000  
G04  26062092.903   136957223.581       -3678.186          43.000    26062078.382   102273191.545       -2746.583          46.000  
G14  24122773.043   126766032.525        1646.737          43.000    24122757.316    94662881.514        1229.636          47.000  
G17  24282759.489   127606767.688        2759.156          43.000    24282743.906    95290702.726        2060.462          47.000  
E12  29021738.648   152510268.467        2852.972          44.000    29021731.753   113887513.001        2130.600          46.000  
E21  29711740.532   156136249.975       -1759.066          44.000    29711729.888   116595211.219       -1313.449          46.000  
E24  29113342.853   152991650.517        1402.802          44.000    29113330.142   114246961.316        1047.707          46.000  
E31  25850835.314   135847054.277         535.144          45.000    25850819.852   101444170.772         399.643          47.000  
E01  26317336.553   138298535.263       -1057.785          45.000    26317320.303   103274818.532        -789.846          47.000  
E04  27057181.018   142186443.623       -2647.819          45.000    27057168.667   106178140.106       -1977.164          47.000  
E05  29639588.903   155757105.984        1406.949          44.000    29639576.602   116312063.906        1050.584          46.000  
E26  27352785.999   143739872.122        -427.806          45.000    27352769.698   107338143.842        -319.709          47.000  
> 2023 01 08 09 47 13.0040000  0 16                     
G07  21473260.363   112842744.330         602.037          44.000    21473242.217    84265613.483         449.679          48.000  
G01  23560073.033   123809021.944        2764.724          44.000    23560056.255    92454719.925        2064.839          47.000  
G21  22742475.899   119512519.386         414.664          44.000    22742458.584    89246290.730         309.702          48.000  
G09  24232986.919   127345207.224       -3200.185          43.000    24232970.651    95095382.198       -2389.678          47.000  
G27  25951270.755   136374850.098       -3822.438          43.000    25951256.364   101838303.261       -2854.372          46.000  
G04  26062792.754   136960901.644       -3678.116          43.000    26062778.297   102275938.155       -2746.556          46.000  
G14  24122459.695   126764385.717        1646.520          43.000    24122443.895    94661651.744        1229.681          47.000  
G17  24282234.450   127604008.608        2758.927          43.000    24282218.908    95288642.379        2060.297          47.000  
E12  29021195.613   152507415.414        2853.127          44.000    29021188.860   113885382.500        2130.429          46.000  
E21  29712075.108   156138008.936       -1759.069          44.000    29712064.613   116596524.730       -1313.594          46.000  
E24  29113075.766   152990247.645        1402.793          44.000    29113063.103   114245913.733        1047.529          46.000  
E31  25850733.540   135846519.231         534.975          45.000    25850717.965   101443771.226         399.512          47.000  
E01  26317537.884   138299593.091       -1057.857          45.000    26317521.607   103275608.471        -789.939          47.000  
E04  27057684.483   142189091.455       -2647.896          45.000    27057672.598   106180117.389       -1977.504          47.000  
E05  29639320.981   155755699.091        1406.623          44.000    29639308.836   116311013.301        1050.510          46.000  
E26  27352867.475   143740300.223        -428.413          45.000    27352851.167   107338463.517        -319.870          47.000  
> 2023 01 08 09 47 14.0040000  0 16                     
G07  21473145.794   112842142.303         601.806          44.000    21473127.626    84265163.920         449.337          48.000  
G01  23559546.926   123806257.182        2764.748          44.000    23559530.037    92452655.337        2064.565          47.000  
G21  22742397.074   119512105.015         413.843          44.000    22742379.768    89245981.292         309.258          48.000  
G09  24233595.871   127348407.467       -3200.569          43.000    24233579.543    95097771.986       -2389.832          47.000  
G27  25951998.028   136378672.419       -3822.295          43.000    25951983.643   101841157.595       -2854.457          47.000  
G04  26063492.612   136964579.607       -3677.894          43.000    26063478.295   102278684.687       -2746.626          46.000  
G14  24122146.245   126762738.982        1646.643          43.000    24122130.530    94660422.058        1229.606          47.000  
G17  24281709.422   127601249.861        2758.693          43.000    24281693.855    95286582.284        2059.889          47.000  
E12  29020652.849   152504562.324        2853.086          44.000    29020645.851   113883251.938        2130.555          46.000  
E21  29712409.792   156139767.910       -1758.939          44.000    29712399.386   116597838.258       -1313.672          46.000  
E24  29112808.841   152988844.773        1402.862          44.000    29112796.011   114244866.140        1047.455          46.000  
E31  25850631.635   135845984.206         534.996          45.000    25850616.074   101443371.697         399.414          47.000  
E01  26317739.100   138300650.967       -1057.885          45.000    26317722.943   103276398.441        -789.993          47.000  
E04  27058188.430   142191739.448       -2648.018          45.000    27058176.539   106182094.771       -1977.361          47.000  
E05  29639053.343   155754292.572        1406.129          44.000    29639041.354   116309962.972        1050.222          46.000  
E26  27352948.921   143740728.812        -428.857          45.000    27352932.761   107338783.570        -320.298          47.000  
> 2023 01 08 09 47 15.0040000  0 16                     
G07  21473031.328   112841540.691         601.243          44.000    21473013.157    84264714.665         449.085          48.000  
G01  23559020.829   123803492.655        2764.474          44.000    23559003.999    92450590.921        2064.347          47.000  
G21  22742318.333   119511691.151         413.586          44.000    22742300.956    89245672.256         308.761          48.000  
G09  24234204.828   127351607.784       -3200.558          43.000    24234188.549    95100161.834       -2389.937          47.000  
G27  25952725.383   136382494.643       -3822.162          43.000    25952710.972   101844011.850       -2854.243          47.000  
G04  26064192.413   136968257.355       -3677.831          43.000    26064178.120   102281431.054       -2746.387          46.000  
G14  24121832.852   126761092.247        1646.677          43.000    24121817.257    94659192.352        1229.658          47.000  
G17  24281184.468   127598491.338        2758.465          43.000    24281168.899    95284522.351        2059.846          47.000  
E12  29020109.757   152501709.041        2853.211          44.000    29020102.933   113881121.253        2130.747          46.000  
E21  29712744.587   156141526.814       -1758.978          44.000    29712734.033   116599151.711       -1313.376          46.000  
E24  29112541.984   152987441.792        1402.777          44.000    29112529.098   114243818.459        1047.719          46.000  
E31  25850529.619   135845449.105         534.949          45.000    25850514.447   101442972.107         399.669          47.000  
E01  26317940.107   138301708.776       -1057.938          45.000    26317924.295   103277188.360        -789.825          47.000  
E04  27058692.470   142194387.499       -2648.183          45.000    27058680.339   106184072.204       -1977.491          47.000  
E05  29638785.674   155752886.299        1406.149          44.000    29638773.662   116308912.859        1049.817          46.000  
E26  27353030.554   143741157.782        -429.268          45.000    27353014.272   107339103.903        -320.514          47.000  
> 2023 01 08 09 47 16.0040000  0 16                     
G07  21472917.025   112840939.589         600.728          44.000    21472898.785    84264265.785         448.648          48.000  
G01  23558494.761   123800728.461        2763.852          44.000    23558478.019    92448526.749        2064.026          47.000  
G21  22742239.608   119511277.939         412.815          44.000    22742222.333    89245363.684         308.188          48.000  
G09  24234813.908   127354808.283       -3200.671          43.000    24234797.525    95102551.812       -2389.992          47.000  
G27  25953452.785   136386316.865       -3822.187          43.000    25953438.311   101846866.102       -2854.254          46.000  
G04  26064892.347   136971934.987       -3677.549          43.000    26064877.903   102284177.334       -2746.228          46.000  
G14  24121519.523   126759445.593        1646.403          43.000    24121503.810    94657962.700        1229.732          47.000  
G17  24280659.653   127595733.144        2758.015          43.000    24280644.097    95282462.663        2059.480          47.000  
E12  29019566.761   152498855.689        2853.432          44.000    29019559.953   113878990.511        2130.764          46.000  
E21  29713079.352   156143285.726       -1758.996          44.000    29713068.877   116600465.181       -1313.538          46.000  
E24  29112274.865   152986038.794        1402.803          44.000    29112262.099   114242770.776        1047.562          46.000  
E31  25850427.972   135844914.036         535.061          45.000    25850412.553   101442572.545         399.607          47.000  
E01  26318141.434   138302766.617       -1057.879          45.000    26318125.514   103277978.306        -790.012          47.000  
E04  27059196.381   142197035.690       -2648.302          45.000    27059184.415   106186049.748       -1977.553          47.000  
E05  29638518.333   155751480.410        1405.763          44.000    29638506.196   116307862.990        1049.786          46.000  
E26  27353112.323   143741587.230        -429.688          45.000    27353095.951   107339424.593        -320.859          47.000  
> 2023 01 08 09 47 17.0040000  0 16                     
G07  21472802.751   112840338.961         600.363          44.000    21472784.484    84263817.275         448.189          48.000  
G01  23557968.817   123797964.558        2763.690          44.000    23557951.967    92446462.796        2063.915          47.000  
G21  22742160.987   119510865.316         412.369          44.000    22742143.855    89245055.559         307.838          48.000  
G09  24235422.994   127358008.945       -3200.778          43.000    24235406.622    95104941.923       -2390.195          47.000  
G27  25954180.123   136390139.058       -3822.252          43.000    25954165.715   101849720.332       -2854.090          46.000  
G04  26065592.198   136975612.494       -3677.288          43.000    26065577.691   102286923.526       -2746.283          47.000  
G14  24121206.164   126757798.990        1646.586          43.000    24121190.527    94656733.110        1229.495          47.000  
G17  24280134.763   127592975.244        2757.848          43.000    24280119.212    95280403.194        2059.347          47.000  
E12  29019023.822   152496002.257        2853.419          44.000    29019016.914   113876859.705        2130.764          46.000  
E21  29713413.955   156145044.616       -1758.780          44.000    29713403.536   116601778.649       -1313.541          46.000  
E24  29112007.938   152984635.765        1402.985          44.000    29111995.213   114241723.061        1047.754          46.000  
E31  25850326.105   135844378.969         535.061          45.000    25850310.743   101442172.988         399.490          47.000  
E01  26318342.842   138303824.474       -1057.837          45.000    26318326.801   103278768.263        -789.922          47.000  
E04  27059700.364   142199684.021       -2648.521          45.000    27059688.240   106188027.393       -1977.714          47.000  
E05  29638250.950   155750074.857        1405.479          44.000    29638238.640   116306813.402        1049.409          46.000  
E26  27353194.223   143742017.143        -430.193          45.000    27353177.809   107339745.638        -321.256          47.000  
> 2023 01 08 09 47 18.0040000  0 16                     
G07  21472688.581   112839738.882         599.925          44.000    21472670.209    84263369.159         448.022          48.000  
G01  23557442.839   123795201.020        2763.488          44.000    23557426.104    92444399.120        2063.594          47.000  
G21  22742082.630   119510453.375         411.681          44.000    22742065.424    89244747.933         307.557          48.000  
G09  24236032.112   127361209.826       -3200.836          43.000    24236015.735    95107332.192       -2390.323          47.000  
G27  25954907.564   136393961.287       -3821.995          43.000    25954893.038   101852574.594       -2854.076          46.000  
G04  26066292.010   136979289.931       -3677.305          43.000    26066277.421   102289669.658       -2745.953          46.000  
G14  24120892.944   126756152.516        1646.584          43.000    24120877.198    94655503.594        1229.641          47.000  
G17  24279609.999   127590217.717        2757.443          43.000    24279594.382    95278344.010        2059.119          47.000  
E12  29018480.811   152493148.779        2853.650          44.000    29018473.955   113874728.870        2131.074          46.000  
E21  29713748.785   156146803.582       -1758.848          44.000    29713738.311   116603092.148       -1313.455          46.000  
E24  29111740.890   152983232.769        1403.015          44.000    29111728.121   114240675.373        1047.740          46.000  
E31  25850224.280   135843843.972         535.099          45.000    25850208.933   101441773.470         399.523          47.000  
E01  26318544.147   138304882.401       -1057.671          45.000    26318528.172   103279558.284        -789.915          47.000  
E04  27060204.367   142202332.536       -2648.478          45.000    27060192.395   106190005.173       -1977.717          47.000  
E05  29637983.264   155748669.711        1405.165          44.000    29637971.381   116305764.106        1049.217          46.000  
E26  27353275.986   143742447.570        -430.478          45.000    27353259.709   107340067.065        -321.471          47.000  
> 2023 01 08 09 47 19.0040000  0 16                     
G07  21472574.521   112839139.288         599.067          44.000    21472556.140    84262921.405         447.478          48.000  
G01  23556917.160   123792437.781        2762.797          44.000    23556900.304    92442335.662        2063.229          47.000  
G21  22742004.333   119510042.037         410.844          44.000    22741987.216    89244440.767         306.840          48.000  
G09  24236641.236   127364410.853       -3201.153          43.000    24236624.971    95109722.564       -2390.537          47.000  
G27  25955634.903   136397783.491       -3822.428          43.000    25955620.482   101855428.829       -2854.302          46.000  
G04  26066991.756   136982967.222       -3677.441          43.000    26066977.277   102292415.687       -2746.146          46.000  
G14  24120579.691   126754506.098        1646.174          43.000    24120563.942    94654274.130        1229.250          47.000  
G17  24279085.361   127587460.481        2756.791          43.000    24279069.897    95276285.026        2058.749          47.000  
E12  29017937.735   152490295.215        2853.393          44.000    29017930.937   113872597.964        2130.754          46.000  
E21  29714083.553   156148562.525       -1759.154          44.000    29714072.960   116604405.637       -1313.643          46.000  
E24  29111473.756   152981829.726        1402.972          44.000    29111461.252   114239627.655        1047.529          46.000  
E31  25850122.413   135843308.958         534.982          45.000    25850107.093   101441373.950         399.451          47.000  
E01  26318745.428   138305940.351       -1058.068          45.000    26318729.505   103280348.305        -790.220          47.000  
E04  27060708.552   142204981.165       -2648.750          45.000    27060696.358   106191983.048       -1977.972          47.000  
E05  29637715.963   155747264.904        1404.520          44.000    29637704.033   116304715.063        1048.650          46.000  
E26  27353358.127   143742878.461        -431.316          45.000    27353341.786   107340388.831        -321.979          47.000  
> 2023 01 08 09 47 20.0040000  0 16                     
G07  21472460.523   112838540.224         598.908          44.000    21472442.165    84262474.055         447.292          48.000  
G01  23556391.425   123789674.892        2762.907          44.000    23556374.516    92440272.477        2063.088          47.000  
G21  22741926.223   119509631.350         410.510          44.000    22741909.017    89244134.088         306.509          48.000  
G09  24237250.332   127367612.111       -3201.394          43.000    24237234.108    95112113.111       -2390.641          47.000  
G27  25956362.279   136401605.706       -3822.012          43.000    25956347.748   101858283.092       -2854.220          46.000  
G04  26067691.444   136986644.434       -3676.849          43.000    26067676.987   102295161.658       -2745.841          46.000  
G14  24120266.407   126752859.798        1646.267          43.000    24120250.562    94653044.743        1229.551          47.000  
G17  24278560.751   127584703.606        2756.675          43.000    24278545.121    95274226.326        2058.612          47.000  
E12  29017394.698   152487441.610        2853.732          44.000    29017387.884   113870467.034        2131.069          46.000  
E21  29714418.259   156150321.517       -1758.924          44.000    29714407.717   116605719.172       -1313.482          46.000  
E24  29111206.841   152980426.721        1403.104          44.000    29111194.172   114238579.955        1047.707          46.000  
E31  25850020.566   135842774.020         535.030          45.000    25850005.326   101440974.480         399.662          47.000  
E01  26318946.603   138306998.370       -1058.058          45.000    26318930.839   103281138.375        -789.974          47.000  
E04  27061212.339   142207630.004       -2648.898          45.000    27061200.390   106193961.066       -1978.066          47.000  
E05  29637448.883   155745860.499        1404.239          44.000    29637436.813   116303666.308        1048.770          46.000  
E26  27353440.045   143743309.869        -431.513          45.000    27353423.972   107340710.984        -322.273          47.000  
> 2023 01 08 09 47 21.0040000  0 16                     
G07  21472346.572   112837941.654         598.188          44.000    21472328.217    84262027.070         446.824          48.000  
G01  23555865.672   123786912.314        2762.500          44.000    23555848.862    92438209.513        2062.705          47.000  
G21  22741848.149   119509221.265         409.928          44.000    22741830.829    89243827.862         306.006          48.000  
G09  24237859.576   127370813.516       -3201.641          43.000    24237843.322    95114503.762       -2390.731          47.000  
G27  25957089.650   136405427.914       -3822.041          43.000    25957075.088   101861137.337       -2854.414          46.000  
G04  26068391.229   136990321.524       -3676.913          43.000    26068376.704   102297907.530       -2745.845          46.000  
G14  24119953.160   126751213.554        1646.131          43.000    24119937.371    94651815.412        1229.288          47.000  
G17  24278036.076   127581947.019        2756.426          43.000    24278020.616    95272167.843        2058.317          47.000  
E12  29016851.629   152484587.905        2853.778          44.000    29016844.787   113868336.029        2131.004          46.000  
E21  29714752.977   156152080.491       -1758.886          44.000    29714742.400   116607032.695       -1313.433          46.000  
E24  29110939.762   152979023.674        1403.120          44.000    29110927.205   114237532.240        1047.673          46.000  
E31  25849918.837   135842239.082         534.978          45.000    25849903.535   101440575.025         399.323          47.000  
E01  26319148.121   138308056.391       -1057.991          45.000    26319132.140   103281928.458        -790.058          47.000  
E04  27061716.583   142210278.956       -2649.030          45.000    27061704.408   106195939.178       -1978.243          47.000  
E05  29637181.523   155744456.435        1403.887          44.000    29637169.494   116302617.828        1048.341          46.000  
E26  27353522.327   143743741.730        -432.235          45.000    27353506.129   107341033.481        -322.651          47.000  
> 2023 01 08 09 47 22.0040000  0 16                     
G07  21472232.802   112837343.516         597.880          44.000    21472214.523    84261580.407         446.469          48.000  
G01  23555340.157   123784149.985        2762.359          44.000    23555323.237    92436146.735        2062.822          47.000  
G21  22741770.213   119508811.759         409.196          44.000    22741753.072    89243522.061         305.581          48.000  
G09  24238468.784   127374015.021       -3201.464          43.000    24238452.464    95116894.503       -2390.761          47.000  
G27  25957816.892   136409250.050       -3822.189          43.000    25957802.423   101863991.523       -2854.241          46.000  
G04  26069090.882   136993998.422       -3676.739          43.000    26069076.414   102300653.264       -2745.631          46.000  
G14  24119639.857   126749567.318        1646.326          43.000    24119624.161    94650586.089        1229.300          47.000  
G17  24277511.685   127579190.685        2756.438          43.000    24277496.090    95270109.548        2058.250          47.000  
E12  29016308.580   152481734.067        2853.979          44.000    29016301.759   113866204.922        2131.255          46.000  
E21  29715087.781   156153839.422       -1758.822          44.000    29715076.995   116608346.183       -1313.420          46.000  
E24  29110672.972   152977620.553        1403.236          44.000    29110660.168   114236484.453        1047.809          46.000  
E31  25849816.999   135841704.097         535.063          45.000    25849801.724   101440175.514         399.606          47.000  
E01  26319349.525   138309114.382       -1057.889          45.000    26319333.430   103282718.509        -789.863          47.000  
E04  27062220.700   142212927.980       -2648.947          45.000    27062208.589   106197917.348       -1978.327          47.000  
E05  29636914.350   155743052.667        1403.548          44.000    29636902.405   116301569.559        1048.249          46.000  
E26  27353604.559   143744174.007        -432.646          45.000    27353588.312   107341356.275        -322.740          47.000  
> 2023 01 08 09 47 23.0040000  0 16                     
G07  21472119.052   112836745.832         597.483          45.000    21472100.779    84261134.094         446.216          48.000  
G01  23554814.647   123781387.952        2761.927          44.000    23554797.639    92434084.177        2062.468          47.000  
G21  22741692.303   119508402.841         408.446          44.000    22741675.212    89243216.689         305.243          48.000  
G09  24239078.018   127377216.666       -3201.521          43.000    24239061.706    95119285.345       -2390.934          47.000  
G27  25958544.174   136413072.138       -3822.125          43.000    25958529.681   101866845.668       -2854.075          46.000  
G04  26069790.651   136997675.185       -3676.803          43.000    26069776.076   102303398.884       -2745.559          46.000  
G14  24119326.606   126747921.143        1646.060          43.000    24119310.920    94649356.797        1229.259          47.000  
G17  24276987.136   127576434.654        2755.874          43.000    24276971.754    95268051.469        2057.958          47.000  
E12  29015765.614   152478880.119        2854.061          44.000    29015758.669   113864073.733        2131.295          46.000  
E21  29715422.485   156155598.321       -1758.884          44.000    29715411.722   116609659.644       -1313.369          46.000  
E24  29110405.898   152976217.381        1403.201          44.000    29110393.073   114235436.630        1047.935          46.000  
E31  25849715.084   135841169.101         535.063          45.000    25849699.945   101439776.009         399.504          47.000  
E01  26319550.777   138310172.375       -1058.054          45.000    26319534.805   103283508.580        -790.161          47.000  
E04  27062724.810   142215577.131       -2649.272          45.000    27062712.703   106199895.594       -1978.253          47.000  
E05  29636647.228   155741649.227        1403.263          44.000    29636635.261   116300521.534        1047.871          46.000  
E26  27353686.808   143744606.723        -432.943          45.000    27353670.641   107341679.412        -323.262          47.000  
> 2023 01 08 09 47 24.0040000  0 16                     
G07  21472005.360   112836148.616         596.866          44.000    21471987.037    84260688.121         445.607          48.000  
G01  23554289.045   123778626.175        2761.527          44.000    23554272.104    92432021.819        2062.114          47.000  
G21  22741614.646   119507994.473         407.937          44.000    22741597.446    89242911.754         304.572          48.000  
G09  24239687.305   127380418.448       -3201.902          43.000    24239671.015    95121676.274       -2390.973          47.000  
G27  25959271.436   136416894.154       -3822.126          43.000    25959257.018   101869699.770       -2854.016          46.000  
G04  26070490.195   137001351.759       -3676.615          43.000    26070475.652   102306144.374       -2745.295          46.000  
G14  24119013.355   126746274.975        1646.082          43.000    24118997.508    94648127.519        1229.166          47.000  
G17  24276462.709   127573678.882        2755.508          43.000    24276447.245    95265993.588        2057.610          47.000  
E12  29015222.147   152476026.045        2854.101          44.000    29015215.641   113861942.454        2131.233          46.000  
E21  29715757.062   156157357.182       -1758.942          44.000    29715746.445   116610973.073       -1313.558          46.000  
E24  29110138.766   152974814.132        1403.339          44.000    29110126.067   114234388.762        1047.742          46.000  
E31  25849613.483   135840634.072         535.012          45.000    25849598.197   101439376.470         399.486          47.000  
E01  26319752.129   138311230.333       -1058.001          45.000    26319736.156   103284298.617        -790.083          47.000  
E04  27063228.929   142218226.356       -2649.222          45.000    27063216.834   106201873.919       -1978.534          47.000  
E05  29636380.198   155740246.081        1402.948          44.000    29636368.332   116299473.738        1047.556          46.000  
E26  27353769.237   143745039.851        -433.399          45.000    27353752.992   107342002.861        -323.617          47.000  
> 2023 01 08 09 47 26.0040000  0 16                     
G07  21471778.231   112834955.476         596.270          44.000    21471759.979    84259797.140         445.213          48.000  
G01  23553238.207   123773103.397        2761.262          44.000    23553221.079    92427897.671        2061.903          47.000  
G21  22741459.653   119507179.446         407.059          44.000    22741442.352    89242303.119         304.036          48.000  
G09  24240905.796   127386822.337       -3202.155          43.000    24240889.615    95126458.396       -2391.192          47.000  
G27  25960726.043   136424537.978       -3821.887          43.000    25960711.574   101875407.816       -2853.882          46.000  
G04  26071889.178   137008704.361       -3675.927          43.000    26071874.927   102311634.971       -2745.186          46.000  
G14  24118386.905   126742982.696        1645.967          43.000    24118371.152    94645669.002        1229.143          47.000  
G17  24275414.108   127568168.092        2755.109          43.000    24275398.568    95261878.394        2057.481          47.000  
E12  29014136.003   152470317.473        2854.571          44.000    29014129.237   113857679.568        2131.673          46.000  
E21  29716426.546   156160874.739       -1758.684          44.000    29716415.873   116613599.821       -1313.302          46.000  
E24  29109604.681   152972007.422        1403.398          44.000    29109592.032   114232292.850        1047.826          46.000  
E31  25849409.918   135839563.887         535.195          45.000    25849394.540   101438577.307         399.745          47.000  
E01  26320154.778   138313346.170       -1057.688          45.000    26320138.885   103285878.620        -789.940          47.000  
E04  27064237.216   142223525.080       -2649.290          45.000    27064225.252   106205830.738       -1978.479          47.000  
E05  29635846.629   155737440.697        1402.549          44.000    29635834.445   116297378.815        1047.328          46.000  
E26  27353934.473   143745907.372        -434.071          45.000    27353918.162   107342650.688        -324.210          47.000  
> 2023 01 08 09 47 27.0040000  0 16                     
G07  21471664.819   112834359.534         595.545          44.000    21471646.560    84259352.117         444.736          48.000  
G01  23552712.674   123770342.358        2760.827          44.000    23552695.669    92425835.856        2061.525          47.000  
G21  22741382.245   119506772.739         406.210          44.000    22741364.916    89241999.419         303.323          48.000  
G09  24241515.238   127390024.405       -3202.370          43.000    24241499.034    95128849.549       -2391.344          47.000  
G27  25961453.384   136428359.748       -3822.006          43.000    25961438.844   101878261.733       -2853.987          46.000  
G04  26072588.757   137012380.378       -3676.123          43.000    26072574.447   102314380.036       -2745.164          46.000  
G14  24118073.642   126741336.548        1645.803          43.000    24118057.826    94644439.727        1229.172          47.000  
G17  24274889.833   127565413.057        2754.536          43.000    24274874.239    95259821.056        2057.213          47.000  
E12  29013592.775   152467462.942        2854.537          44.000    29013586.047   113855547.955        2131.571          46.000  
E21  29716761.129   156162633.397       -1758.925          44.000    29716750.478   116614913.105       -1313.419          46.000  
E24  29109337.640   152970603.904        1403.426          44.000    29109324.985   114231244.768        1047.923          46.000  
E31  25849307.928   135839028.698         534.917          45.000    25849292.695   101438177.653         399.578          47.000  
E01  26320356.259   138314404.019       -1058.119          45.000    26320340.166   103286668.567        -790.089          47.000  
E04  27064741.411   142226174.536       -2649.874          45.000    27064729.364   106207809.220       -1978.649          47.000  
E05  29635579.807   155736038.425        1401.895          44.000    29635567.633   116296331.665        1046.856          46.000  
E26  27354017.220   143746341.720        -434.756          45.000    27354000.723   107342975.036        -324.562          47.000  
> 2023 01 08 09 47 28.0040000  0 16                     
G07  21471551.518   112833764.145         595.065          44.000    21471533.376    84258907.510         444.345          48.000  
G01  23552187.295   123767581.696        2760.515          44.000    23552170.346    92423774.322        2061.457          47.000  
G21  22741304.944   119506366.715         405.481          44.000    22741287.856    89241696.212         302.942          48.000  
G09  24242124.669   127393226.690       -3202.277          43.000    24242108.483    95131240.871       -2391.327          47.000  
G27  25962180.719   136432181.550       -3821.766          43.000    25962166.144   101881115.679       -2853.899          46.000  
G04  26073288.262   137016056.312       -3675.928          43.000    26073273.932   102317125.048       -2744.917          46.000  
G14  24117760.391   126739690.514        1645.811          43.000    24117744.601    94643210.562        1229.037          47.000  
G17  24274365.638   127562658.365        2754.532          43.000    24274350.203    95257763.999        2056.969          47.000  
E12  29013049.675   152464608.403        2854.449          44.000    29013042.751   113853416.319        2131.539          46.000  
E21  29717095.727   156164392.110       -1758.653          44.000    29717085.162   116616226.425       -1313.211          46.000  
E24  29109070.541   152969200.432        1403.445          44.000    29109057.918   114230196.736        1047.708          46.000  
E31  25849205.922   135838493.567         535.193          45.000    25849190.758   101437778.052         399.559          47.000  
E01  26320557.567   138315461.930       -1057.874          45.000    26320541.435   103287458.576        -790.121          47.000  
E04  27065245.657   142228824.169       -2649.684          45.000    27065233.446   106209787.846       -1978.681          47.000  
E05  29635312.903   155734636.548        1401.688          44.000    29635300.763   116295284.813        1046.628          46.000  
E26  27354099.581   143746776.585        -435.035          45.000    27354083.578   107343299.779        -324.916          47.000  
> 2023 01 08 09 47 29.0040000  0 16                     
G07  21471438.232   112833169.304         594.684          44.000    21471420.113    84258463.312         443.954          48.000  
G01  23551662.061   123764821.402        2760.032          44.000    23551645.003    92421713.062        2061.172          47.000  
G21  22741227.846   119505961.344         404.954          44.000    22741210.681    89241393.509         302.433          48.000  
G09  24242734.059   127396429.218       -3202.736          43.000    24242717.889    95133632.367       -2391.675          47.000  
G27  25962908.083   136436003.395       -3821.746          43.000    25962893.250   101883969.658       -2854.053          46.000  
G04  26073987.770   137019732.192       -3676.106          43.000    26073973.395   102319870.010       -2745.020          46.000  
G14  24117447.132   126738044.615        1645.657          43.000    24117431.424    94641981.479        1229.059          47.000  
G17  24273841.492   127559904.061        2754.215          43.000    24273825.880    95255707.218        2056.650          47.000  
E12  29012506.411   152461753.814        2854.646          44.000    29012499.525   113851284.663        2131.520          46.000  
E21  29717430.308   156166150.900       -1758.887          44.000    29717419.816   116617539.810       -1313.573          46.000  
E24  29108803.429   152967796.983        1403.396          44.000    29108790.820   114229148.701        1047.984          46.000  
E31  25849104.335   135837958.523         534.996          45.000    25849088.953   101437378.504         399.527          47.000  
E01  26320758.614   138316519.930       -1058.014          45.000    26320742.808   103288248.628        -789.961          47.000  
E04  27065749.944   142231474.017       -2650.055          45.000    27065737.724   106211766.620       -1978.859          47.000  
E05  29635046.059   155733235.088        1401.385          44.000    29635034.105   116294238.276        1046.241          46.000  
E26  27354182.750   143747211.986        -435.571          45.000    27354166.398   107343624.921        -325.406          47.000  
> 2023 01 08 09 47 30.0040000  0 16                     
G07  21471325.161   112832574.949         593.991          44.000    21471306.965    84258019.469         443.563          48.000  
G01  23551136.764   123762061.402        2759.639          44.000    23551119.790    92419652.033        2060.689          47.000  
G21  22741150.796   119505556.598         404.058          44.000    22741133.614    89241091.263         301.793          48.000  
G09  24243343.603   127399631.887       -3202.823          43.000    24243327.358    95136023.969       -2391.828          47.000  
G27  25963635.312   136439825.221       -3822.127          43.000    25963620.652   101886823.620       -2854.283          46.000  
G04  26074687.219   137023407.923       -3676.102          43.000    26074672.880   102322614.875       -2744.991          46.000  
G14  24117134.002   126736398.771        1645.640          43.000    24117118.225    94640752.451        1228.644          47.000  
G17  24273317.491   127557150.057        2753.649          43.000    24273301.959    95253650.656        2056.268          47.000  
E12  29011963.389   152458899.148        2854.501          44.000    29011956.298   113849152.922        2131.703          46.000  
E21  29717765.130   156167909.669       -1758.970          44.000    29717754.597   116618853.172       -1313.657          46.000  
E24  29108536.299   152966393.509        1403.231          44.000    29108523.753   114228100.659        1047.742          46.000  
E31  25849002.673   135837423.481         534.697          45.000    25848987.208   101436978.948         399.505          47.000  
E01  26320960.155   138317577.943       -1058.174          45.000    26320944.155   103289038.708        -790.337          47.000  
E04  27066254.253   142234123.979       -2650.400          45.000    27066242.119   106213745.484       -1979.190          47.000  
E05  29634779.674   155731833.976        1400.759          44.000    29634767.479   116293191.982        1046.020          46.000  
E26  27354265.862   143747647.849        -436.320          45.000    27354249.288   107343950.396        -325.855          47.000  
> 2023 01 08 09 47 31.0040000  0 16                     
G07  21471212.172   112831981.043         593.769          44.000    21471193.926    84257575.973         443.314          48.000  
G01  23550611.695   123759301.690        2759.417          44.000    23550594.733    92417591.197        2060.828          47.000  
G21  22741073.870   119505152.405         404.113          44.000    22741056.587    89240789.439         301.615          48.000  
G09  24243952.962   127402834.677       -3202.621          43.000    24243936.746    95138415.660       -2391.645          47.000  
G27  25964362.582   136443646.967       -3821.538          43.000    25964348.050   101889677.520       -2853.814          46.000  
G04  26075386.601   137027083.463       -3675.329          43.000    26075372.368   102325359.606       -2744.546          46.000  
G14  24116820.771   126734752.957        1645.943          43.000    24116805.094    94639523.421        1229.197          47.000  
G17  24272793.555   127554396.326        2753.580          43.000    24272777.981    95251594.295        2056.354          47.000  
E12  29011419.910   152456044.349        2854.966          44.000    29011413.123   113847021.097        2132.077          46.000  
E21  29718099.850   156169668.397       -1758.657          44.000    29718089.243   116620166.506       -1313.294          46.000  
E24  29108269.341   152964989.964        1403.572          44.000    29108256.760   114227052.552        1048.303          46.000  
E31  25848900.782   135836888.398         535.101          45.000    25848885.472   101436579.381         399.646          47.000  
E01  26321161.542   138318635.932       -1057.942          45.000    26321145.531   103289828.759        -789.979          47.000  
E04  27066758.428   142236774.029       -2650.000          45.000    27066746.399   106215724.414       -1978.927          47.000  
E05  29634513.056   155730433.166        1400.786          44.000    29634501.024   116292145.926        1045.988          46.000  
E26  27354348.761   143748084.128        -436.419          45.000    27354332.466   107344276.192        -325.942          47.000  
> 2023 01 08 09 47 32.0040000  0 16                     
G07  21471099.172   112831387.606         592.889          44.000    21471081.036    84257132.815         442.825          48.000  
G01  23550086.576   123756542.237        2759.168          44.000    23550069.603    92415530.579        2060.388          47.000  
G21  22740997.150   119504748.822         403.013          44.000    22740979.699    89240488.052         300.955          48.000  
G09  24244562.605   127406037.613       -3203.066          43.000    24244546.249    95140807.462       -2392.112          47.000  
G27  25965089.922   136447468.683       -3821.897          43.000    25965075.236   101892531.393       -2853.975          46.000  
G04  26076085.992   137030758.880       -3675.625          43.000    26076071.759   102328104.230       -2744.871          46.000  
G14  24116507.689   126733107.174        1645.702          43.000    24116491.838    94638294.439        1228.912          47.000  
G17  24272269.533   127551642.865        2753.044          43.000    24272253.927    95249538.149        2055.860          47.000  
E12  29010876.776   152453189.443        2854.758          44.000    29010869.854   113844889.197        2131.806          46.000  
E21  29718434.434   156171427.093       -1758.803          44.000    29718423.832   116621479.816       -1313.530          46.000  
E24  29108002.232   152963586.364        1403.363          44.000    29107989.681   114226004.417        1048.157          46.000  
E31  25848798.914   135836353.298         534.951          45.000    25848783.489   101436179.801         399.361          47.000  
E01  26321362.836   138319693.912       -1058.016          45.000    26321346.828   103290618.809        -790.173          47.000  
E04  27067262.827   142239424.198       -2650.361          45.000    27067250.653   106217703.424       -1979.161          47.000  
E05  29634246.533   155729032.685        1400.146          44.000    29634234.507   116291100.105        1045.612          46.000  
E26  27354431.876   143748520.846        -437.094          45.000    27354415.494   107344602.317        -326.613          47.000  
> 2023 01 08 09 47 33.0040000  0 16                     
G07  21470986.158   112830794.732         592.867          44.000    21470968.267    84256690.090         442.462          48.000  
G01  23549561.541   123753783.194        2758.820          44.000    23549544.574    92413470.247        2060.323          47.000  
G21  22740920.497   119504345.925         402.571          44.000    22740903.072    89240187.184         300.713          48.000  
G09  24245172.050   127409240.785       -3203.089          43.000    24245155.813    95143199.441       -2391.962          47.000  
G27  25965817.198   136451290.456       -3821.742          43.000    25965802.567   101895385.312       -2853.914          46.000  
G04  26076785.318   137034434.244       -3675.412          43.000    26076771.133   102330848.809       -2744.540          46.000  
G14  24116194.552   126731461.570        1645.445          43.000    24116178.648    94637065.564        1228.853          47.000  
G17  24271745.656   127548889.793        2753.103          43.000    24271730.033    95247482.278        2055.902          47.000  
E12  29010333.553   152450334.535        2854.957          44.000    29010326.502   113842757.298        2131.795          46.000  
E21  29718769.407   156173185.879       -1758.844          44.000    29718758.652   116622793.188       -1313.391          46.000  
E24  29107735.080   152962182.821        1403.678          44.000    29107722.344   114224956.334        1048.002          46.000  
E31  25848697.040   135835818.293         535.169          45.000    25848681.652   101435780.292         399.319          47.000  
E01  26321564.170   138320752.005       -1058.116          45.000    26321548.068   103291408.945        -790.220          47.000  
E04  27067767.317   142242074.575       -2650.371          45.000    27067755.122   106219682.607       -1979.315          47.000  
E05  29633980.226   155727632.643        1399.891          44.000    29633968.048   116290054.613        1045.413          46.000  
E26  27354515.044   143748958.124        -437.584          45.000    27354498.716   107344928.850        -326.813          47.000  
> 2023 01 08 09 47 34.0040000  0 16                     
G07  21470873.447   112830202.368         592.019          44.000    21470855.596    84256247.739         442.056          48.000  
G01  23549036.576   123751024.463        2758.431          44.000    23549019.600    92411410.169        2059.824          47.000  
G21  22740843.981   119503943.648         401.704          44.000    22740826.580    89239886.792         299.894          48.000  
G09  24245781.670   127412444.142       -3203.595          43.000    24245765.406    95145591.554       -2392.334          47.000  
G27  25966544.447   136455112.226       -3821.989          43.000    25966529.742   101898239.226       -2854.097          46.000  
G04  26077484.694   137038109.481       -3675.382          43.000    26077470.470   102333593.308       -2744.493          46.000  
G14  24115881.353   126729816.015        1645.325          43.000    24115865.506    94635836.751        1228.817          47.000  
G17  24271221.821   127546137.046        2752.554          43.000    24271206.140    95245426.664        2055.466          47.000  
E12  29009790.123   152447479.550        2854.869          44.000    29009783.296   113840625.335        2131.798          46.000  
E21  29719104.047   156174944.663       -1758.688          44.000    29719093.219   116624106.568       -1313.482          46.000  
E24  29107468.098   152960779.268        1403.441          44.000    29107455.419   114223908.222        1048.030          46.000  
E31  25848595.154   135835283.318         534.815          45.000    25848579.929   101435380.789         399.318          47.000  
E01  26321765.677   138321810.123       -1058.232          45.000    26321749.424   103292199.104        -790.401          47.000  
E04  27068271.860   142244725.111       -2650.877          45.000    27068259.555   106221661.878       -1979.248          47.000  
E05  29633713.588   155726232.947        1399.300          44.000    29633701.660   116289009.390        1045.107          46.000  
E26  27354598.458   143749395.862        -437.840          45.000    27354581.999   107345255.735        -327.083          47.000  
> 2023 01 08 09 47 35.0040000  0 16                     
G07  21470760.892   112829610.539         591.691          44.000    21470742.952    84255805.791         441.819          48.000  
G01  23548511.681   123748266.095        2758.204          44.000    23548494.700    92409350.348        2059.764          47.000  
G21  22740767.594   119503542.046         401.290          44.000    22740750.304    89239586.883         299.824          48.000  
G09  24246391.269   127415647.706       -3203.564          43.000    24246374.942    95147983.818       -2392.192          47.000  
G27  25967271.686   136458934.008       -3821.536          43.000    25967256.831   101901093.162       -2853.932          46.000  
G04  26078183.990   137041784.643       -3675.083          43.000    26078169.932   102336337.746       -2744.381          46.000  
G14  24115568.328   126728170.585        1645.338          43.000    24115552.321    94634608.025        1228.691          47.000  
G17  24270698.119   127543384.667        2752.206          43.000    24270682.363    95243371.312        2055.302          47.000  
E12  29009246.798   152444624.518        2855.215          44.000    29009239.987   113838493.348        2131.875          46.000  
E21  29719438.631   156176703.501       -1758.662          44.000    29719427.975   116625419.993       -1313.468          46.000  
E24  29107201.027   152959375.724        1403.795          44.000    29107188.150   114222860.122        1048.325          46.000  
E31  25848493.452   135834748.389         534.983          45.000    25848478.160   101434981.336         399.276          47.000  
E01  26321966.686   138322868.318       -1058.099          45.000    26321950.842   103292989.302        -790.110          47.000  
E04  27068776.017   142247375.812       -2650.657          45.000    27068763.836   106223641.306       -1979.332          47.000  
E05  29633447.490   155724833.656        1399.079          44.000    29633435.438   116287964.473        1044.971          46.000  
E26  27354681.728   143749834.124        -438.253          45.000    27354665.303   107345583.013        -327.469          47.000  
> 2023 01 08 09 47 36.0040000  0 16                     
G07  21470648.365   112829019.149         591.048          44.000    21470630.261    84255364.166         441.416          48.000  
G01  23547986.820   123745507.976        2757.934          44.000    23547969.804    92407290.713        2059.507          47.000  
G21  22740691.417   119503140.982         400.614          44.000    22740673.913    89239287.394         299.270          48.000  
G09  24247000.999   127418851.364       -3203.631          43.000    24246984.660    95150376.167       -2392.620          47.000  
G27  25967998.906   136462755.716       -3821.710          43.000    25967984.184   101903947.032       -2853.980          46.000  
G04  26078883.307   137045459.615       -3675.001          43.000    26078869.249   102339082.046       -2744.361          46.000  
G14  24115255.173   126726525.155        1645.332          43.000    24115239.352    94633379.302        1228.559          47.000  
G17  24270174.316   127540632.514        2752.024          43.000    24270158.705    95241316.149        2054.926          47.000  
E12  29008703.619   152441769.347        2855.245          44.000    29008696.682   113836361.241        2131.997          46.000  
E21  29719773.297   156178462.272       -1758.677          44.000    29719762.682   116626733.353       -1313.441          46.000  
E24  29106934.136   152957972.112        1403.597          44.000    29106921.236   114221811.975        1048.177          46.000  
E31  25848391.761   135834213.409         534.993          45.000    25848376.364   101434581.839         399.354          47.000  
E01  26322168.017   138323926.449       -1057.942          45.000    26322152.165   103293779.476        -790.223          47.000  
E04  27069280.598   142250026.596       -2650.858          45.000    27069268.303   106225620.786       -1979.677          47.000  
E05  29633181.350   155723434.651        1398.779          44.000    29633169.224   116286919.761        1044.495          46.000  
E26  27354765.341   143750272.791        -438.874          45.000    27354748.745   107345910.591        -327.779          47.000  
> 2023 01 08 09 47 37.0040000  0 16                     
G07  21470535.898   112828428.217         590.490          44.000    21470517.898    84254922.883         441.023          48.000  
G01  23547462.006   123742750.139        2757.579          44.000    23547445.079    92405231.292        2059.263          47.000  
G21  22740615.115   119502740.497         400.153          44.000    22740597.769    89238988.339         298.652          48.000  
G09  24247610.636   127422055.157       -3203.922          43.000    24247594.347    95152768.603       -2392.526          47.000  
G27  25968726.020   136466577.367       -3821.513          43.000    25968711.410   101906800.854       -2853.890          46.000  
G04  26079582.516   137049134.420       -3674.799          43.000    26079568.541   102341826.220       -2744.334          46.000  
G14  24114942.158   126724879.760        1645.333          43.000    24114926.183    94632150.595        1228.519          47.000  
G17  24269650.567   127537880.649        2751.819          43.000    24269635.161    95239261.181        2054.861          47.000  
E12  29008160.230   152438914.061        2855.317          44.000    29008153.301   113834229.054        2132.076          46.000  
E21  29720107.820   156180221.015       -1758.638          44.000    29720097.252   116628046.703       -1313.505          46.000  
E24  29106666.876   152956568.425        1403.712          44.000    29106654.123   114220763.780        1048.248          46.000  
E31  25848289.698   135833678.422         534.895          45.000    25848274.507   101434182.326         399.478          47.000  
E01  26322369.541   138324984.593       -1058.213          45.000    26322353.570   103294569.638        -790.261          47.000  
E04  27069784.979   142252677.479       -2651.092          45.000    27069772.706   106227600.337       -1979.717          47.000  
E05  29632915.097   155722035.956        1398.623          44.000    29632903.077   116285875.285        1044.345          46.000  
E26  27354848.849   143750711.886        -439.163          45.000    27354832.326   107346238.488        -328.160          47.000  
> 2023 01 08 09 47 38.0040000  0 16                     
G07  21470423.512   112827837.642         590.122          44.000    21470405.440    84254481.880         440.730          48.000  
G01  23546937.229   123739992.476        2757.432          44.000    23546920.269    92403172.007        2059.159          47.000  
G21  22740539.072   119502340.520         399.546          44.000    22740521.567    89238689.641         298.524          48.000  
G09  24248220.323   127425258.982       -3203.898          43.000    24248204.073    95155161.062       -2392.460          47.000  
G27  25969453.272   136470398.885       -3821.575          43.000    25969438.629   101909654.575       -2853.697          46.000  
G04  26080281.801   137052808.983       -3674.554          43.000    26080267.700   102344570.202       -2743.880          46.000  
G14  24114629.034   126723234.318        1645.343          43.000    24114613.027    94630921.849        1228.725          47.000  
G17  24269126.942   127535128.975        2751.382          43.000    24269111.360    95237206.354        2054.745          47.000  
E12  29007616.839   152436058.570        2855.506          44.000    29007610.006   113832096.701        2132.445          46.000  
E21  29720442.630   156181979.642       -1758.664          44.000    29720431.981   116629359.948       -1313.213          46.000  
E24  29106399.607   152955164.590        1403.951          44.000    29106387.001   114219715.467        1048.318          46.000  
E31  25848187.994   135833143.309         534.944          45.000    25848172.668   101433782.728         399.611          47.000  
E01  26322570.979   138326042.630       -1058.060          45.000    26322554.959   103295359.734        -790.134          47.000  
E04  27070289.427   142255328.368       -2650.953          45.000    27070277.179   106229579.885       -1979.564          47.000  
E05  29632649.107   155720637.510        1398.163          44.000    29632636.903   116284830.984        1044.293          46.000  
E26  27354932.443   143751151.331        -439.664          45.000    27354915.961   107346566.645        -328.286          47.000  
> 2023 01 08 09 47 39.0040000  0 16                     
G07  21470311.215   112827247.583         589.357          44.000    21470293.167    84254041.241         440.292          48.000  
G01  23546412.537   123737235.158        2756.824          44.000    23546395.553    92401112.976        2058.557          47.000  
G21  22740463.106   119501941.163         398.676          44.000    22740445.577    89238391.437         297.645          48.000  
G09  24248829.971   127428462.993       -3204.398          43.000    24248813.715    95157553.666       -2392.809          47.000  
G27  25970180.426   136474220.392       -3821.866          43.000    25970165.822   101912508.296       -2853.847          46.000  
G04  26080980.966   137056483.429       -3674.637          43.000    26080966.890   102347314.106       -2744.151          46.000  
G14  24114315.967   126721588.938        1645.079          43.000    24114299.985    94629693.171        1228.404          47.000  
G17  24268603.384   127532377.616        2750.850          43.000    24268587.907    95235151.781        2054.221          47.000  
E12  29007073.396   152433203.007        2855.336          44.000    29007066.494   113829964.313        2132.247          46.000  
E21  29720777.264   156183738.272       -1758.934          44.000    29720766.657   116630673.212       -1313.456          46.000  
E24  29106132.589   152953760.764        1403.554          44.000    29106119.774   114218667.155        1048.024          46.000  
E31  25848086.115   135832608.220         534.883          45.000    25848070.882   101433383.157         399.315          47.000  
E01  26322772.237   138327100.696       -1058.367          45.000    26322756.223   103296149.844        -790.332          47.000  
E04  27070793.777   142257979.415       -2651.478          45.000    27070781.671   106231559.561       -1979.965          47.000  
E05  29632383.060   155719239.407        1397.702          44.000    29632370.790   116283786.962        1043.609          46.000  
E26  27355016.177   143751591.258        -440.471          45.000    27354999.798   107346895.154        -328.888          47.000  
> 2023 01 08 09 47 40.0040000  0 16                     
G07  21470198.925   112826658.100         589.230          44.000    21470181.066    84253601.050         440.076          48.000  
G01  23545887.890   123734478.225        2757.042          44.000    23545871.081    92399054.228        2058.668          47.000  
G21  22740387.170   119501542.505         398.370          44.000    22740369.699    89238093.737         297.465          48.000  
G09  24249439.717   127431667.252       -3204.367          43.000    24249423.426    95159946.461       -2392.894          47.000  
G27  25970907.611   136478041.958       -3821.495          43.000    25970893.065   101915362.067       -2853.742          46.000  
G04  26081680.114   137060157.827       -3674.281          43.000    26081666.201   102350057.976       -2743.785          46.000  
G14  24114002.952   126719943.730        1645.296          43.000    24113986.964    94628464.602        1228.656          47.000  
G17  24268079.968   127529626.654        2750.860          43.000    24268064.379    95233097.497        2054.103          47.000  
E12  29006530.158   152430347.443        2855.769          44.000    29006523.096   113827831.918        2132.578          46.000  
E21  29721111.987   156185496.991       -1758.636          44.000    29721101.310   116631986.541       -1313.266          46.000  
E24  29105865.315   152952356.985        1403.848          44.000    29105852.675   114217618.878        1048.421          46.000  
E31  25847984.495   135832073.242         534.969          45.000    25847969.120   101432983.660         399.567          47.000  
E01  26322973.456   138328158.876       -1058.002          45.000    26322957.545   103296940.043        -789.988          47.000  
E04  27071298.295   142260630.678       -2651.252          45.000    27071286.201   106233539.401       -1979.834          47.000  
E05  29632117.002   155717841.763        1397.542          44.000    29632104.953   116282743.258        1043.598          46.000  
E26  27355099.903   143752031.733        -440.617          45.000    27355083.476   107347224.096        -329.152          47.000  
> 2023 01 08 09 47 41.0040000  0 16                     
G07  21470086.891   112826069.062         588.761          44.000    21470068.933    84253161.179         439.752          48.000  
G01  23545363.314   123731721.572        2756.354          43.000    23545346.365    92396995.684        2058.407          47.000  
G21  22740311.415   119501144.415         397.690          44.000    22740293.990    89237796.465         296.948          48.000  
G09  24250049.512   127434871.623       -3204.672          43.000    24250033.205    95162339.331       -2392.989          47.000  
G27  25971634.842   136481863.450       -3821.514          43.000    25971620.243   101918215.783       -2853.752          46.000  
G04  26082379.319   137063832.049       -3674.156          43.000    26082365.443   102352801.715       -2743.648          46.000  
G14  24113689.880   126718298.544        1645.002          43.000    24113673.843    94627236.053        1228.488          47.000  
G17  24267556.515   127526875.955        2750.505          43.000    24267540.902    95231043.396        2053.976          47.000  
E12  29005986.523   152427491.754        2855.666          44.000    29005979.668   113825699.425        2132.539          46.000  
E21  29721446.503   156187255.665       -1758.807          44.000    29721436.049   116633299.834       -1313.313          46.000  
E24  29105598.247   152950953.126        1403.832          44.000    29105585.473   114216570.554        1048.313          46.000  
E31  25847882.721   135831538.219         534.781          45.000    25847867.280   101432584.122         399.512          47.000  
E01  26323174.830   138329217.028       -1058.150          45.000    26323158.888   103297730.221        -790.170          47.000  
E04  27071802.813   142263282.033       -2651.620          45.000    27071790.587   106235519.291       -1979.824          47.000  
E05  29631851.107   155716444.413        1396.965          44.000    29631838.980   116281699.787        1043.295          46.000  
E26  27355183.878   143752472.635        -441.265          45.000    27355167.511   107347553.326        -329.484          47.000  
> 2023 01 08 09 47 42.0040000  0 16                     
G07  21469974.939   112825480.577         587.939          44.000    21469956.959    84252721.723         439.181          48.000  
G01  23544838.760   123728965.273        2756.081          43.000    23544821.773    92394937.406        2058.112          47.000  
G21  22740235.754   119500746.987         397.133          44.000    22740218.384    89237499.684         296.544          48.000  
G09  24250659.316   127438076.192       -3204.405          43.000    24250643.009    95164732.360       -2393.085          47.000  
G27  25972362.121   136485684.987       -3821.604          43.000    25972347.513   101921069.514       -2853.661          46.000  
G04  26083078.427   137067506.202       -3674.141          43.000    26083064.584   102355545.388       -2743.526          46.000  
G14  24113376.819   126716653.467        1644.998          43.000    24113360.844    94626007.588        1228.428          47.000  
G17  24267033.180   127524125.609        2750.124          43.000    24267017.518    95228989.581        2053.639          47.000  
E12  29005443.148   152424636.013        2855.790          44.000    29005436.156   113823566.910        2132.613          46.000  
E21  29721781.214   156189014.380       -1758.767          44.000    29721770.821   116634613.164       -1313.510          46.000  
E24  29105331.080   152949549.298        1403.775          44.000    29105318.389   114215522.243        1048.253          46.000  
E31  25847780.747   135831003.244         535.027          45.000    25847765.443   101432184.629         399.651          47.000  
E01  26323376.408   138330275.246       -1058.242          45.000    26323360.327   103298520.457        -790.198          47.000  
E04  27072307.340   142265933.543       -2651.492          45.000    27072295.408   106237499.328       -1980.125          47.000  
E05  29631585.339   155715047.450        1396.866          44.000    29631573.130   116280656.603        1043.056          46.000  
E26  27355267.900   143752914.042        -441.738          45.000    27355251.484   107347882.958        -329.874          47.000  
> 2023 01 08 09 47 44.0040000  0 16                     
G07  21469751.286   112824304.964         587.321          44.000    21469733.197    84251843.846         438.417          48.000  
G01  23543789.820   123723453.504        2755.810          44.000    23543772.968    92390821.494        2057.726          47.000  
G21  22740084.828   119499953.906         395.885          44.000    22740067.425    89236907.444         295.643          48.000  
G09  24251879.000   127444485.758       -3204.857          43.000    24251862.680    95169518.717       -2393.324          47.000  
G27  25973816.401   136493327.891       -3821.507          43.000    25973801.994   101926776.882       -2853.667          46.000  
G04  26084476.738   137074854.021       -3673.795          43.000    26084462.732   102361032.393       -2743.490          46.000  
G14  24112750.874   126713363.428        1644.901          43.000    24112734.747    94623550.744        1228.373          47.000  
G17  24265986.791   127518625.771        2749.556          43.000    24265970.948    95224882.560        2053.263          47.000  
E12  29004356.343   152418924.217        2856.118          44.000    29004349.296   113819301.612        2132.917          46.000  
E21  29722450.497   156192531.728       -1758.727          44.000    29722439.970   116637239.743       -1313.237          46.000  
E24  29104796.788   152946741.466        1404.007          44.000    29104783.971   114213425.499        1048.526          46.000  
E31  25847576.982   135829933.271         534.860          45.000    25847561.759   101431385.624         399.479          47.000  
E01  26323779.216   138332391.664       -1058.179          45.000    26323763.106   103300100.891        -790.194          47.000  
E04  27073316.623   142271236.936       -2651.830          45.000    27073304.520   106241459.642       -1980.247          47.000  
E05  29631053.846   155712254.518        1396.098          44.000    29631041.641   116278570.977        1042.589          46.000  
E26  27355436.119   143753798.178        -442.530          45.000    27355419.757   107348543.189        -330.527          47.000  
> 2023 01 08 09 47 45.0040000  0 16                     
G07  21469639.610   112823717.824         586.956          44.000    21469621.609    84251405.397         438.219          48.000  
G01  23543265.428   123720698.028        2755.275          44.000    23543248.591    92388763.829        2057.549          47.000  
G21  22740009.473   119499558.196         395.443          44.000    22739992.073    89236611.951         295.385          48.000  
G09  24252488.767   127447690.708       -3205.017          43.000    24252472.685    95171912.019       -2393.309          47.000  
G27  25974543.539   136497149.240       -3821.431          43.000    25974529.183   101929630.482       -2853.594          46.000  
G04  26085175.784   137078527.657       -3673.527          43.000    26085161.920   102363775.685       -2743.104          46.000  
G14  24112437.934   126711718.435        1644.927          43.000    24112421.665    94622322.341        1228.457          47.000  
G17  24265463.569   127515876.237        2749.430          43.000    24265447.733    95222829.351        2053.025          47.000  
E12  29003812.740   152416068.119        2856.255          44.000    29003805.845   113817168.830        2132.835          46.000  
E21  29722785.278   156194290.325       -1758.678          44.000    29722774.618   116638552.985       -1313.225          46.000  
E24  29104529.656   152945337.446        1404.100          44.000    29104516.872   114212377.042        1048.624          46.000  
E31  25847475.172   135829398.221         534.812          45.000    25847460.042   101430986.072         399.629          47.000  
E01  26323980.466   138333449.838       -1058.177          45.000    26323964.408   103300891.084        -790.219          47.000  
E04  27073821.233   142273888.753       -2651.927          45.000    27073809.178   106243439.889       -1980.487          47.000  
E05  29630788.139   155710858.508        1395.704          44.000    29630776.018   116277528.494        1042.416          46.000  
E26  27355520.278   143754240.870        -442.942          45.000    27355503.905   107348873.767        -330.720          47.000  
> 2023 01 08 09 47 46.0040000  0 16                     
G07  21469528.018   112823131.140         586.480          44.000    21469509.887    84250967.287         437.857          48.000  
G01  23542741.077   123717942.810        2755.333          44.000    23542724.305    92386706.362        2057.407          47.000  
G21  22739934.244   119499163.070         395.012          44.000    22739916.921    89236316.898         294.814          48.000  
G09  24253098.693   127450895.768       -3204.979          43.000    24253082.566    95174305.412       -2393.408          47.000  
G27  25975270.650   136500970.514       -3821.130          43.000    25975256.256   101932484.029       -2853.353          46.000  
G04  26085874.858   137082201.124       -3673.454          43.000    26085860.839   102366518.862       -2742.987          46.000  
G14  24112124.895   126710073.459        1644.899          43.000    24112108.603    94621093.957        1228.468          47.000  
G17  24264940.464   127513126.968        2749.327          43.000    24264924.524    95220776.320        2053.098          47.000  
E12  29003269.162   152413211.894        2856.374          44.000    29003262.297   113815035.937        2132.979          46.000  
E21  29723119.968   156196048.887       -1758.710          44.000    29723109.284   116639866.178       -1312.880          46.000  
E24  29104262.497   152943933.350        1404.176          44.000    29104249.668   114211328.529        1048.781          46.000  
E31  25847373.193   135828863.129         535.106          45.000    25847358.254   101430586.505         399.468          47.000  
E01  26324181.690   138334507.986       -1058.165          45.000    26324165.898   103301681.250        -790.101          47.000  
E04  27074326.021   142276540.653       -2651.884          45.000    27074313.808   106245420.196       -1980.374          47.000  
E05  29630522.482   155709462.793        1395.578          44.000    29630510.403   116276486.252        1042.098          46.000  
E26  27355604.586   143754683.987        -443.367          45.000    27355588.169   107349204.662        -330.907          47.000  
> 2023 01 08 09 47 47.0040000  0 16                     
G07  21469416.517   112822545.006         585.764          44.000    21469398.278    84250529.584         437.380          48.000  
G01  23542216.808   123715187.980        2754.469          43.000    23542200.129    92384649.176        2056.956          47.000  
G21  22739859.170   119498768.622         394.012          44.000    22739841.891    89236022.335         294.127          48.000  
G09  24253708.539   127454101.063       -3205.595          43.000    24253692.347    95176698.963       -2393.705          47.000  
G27  25975997.819   136504791.849       -3821.594          43.000    25975983.447   101935337.617       -2853.771          46.000  
G04  26086573.806   137085874.529       -3673.564          42.000    26086559.904   102369261.981       -2743.123          46.000  
G14  24111811.880   126708428.615        1644.661          43.000    24111795.639    94619865.662        1228.233          47.000  
G17  24264417.452   127510378.077        2748.647          43.000    24264401.373    95218723.584        2052.385          47.000  
E12  29002725.622   152410355.652        2856.057          44.000    29002718.662   113812903.029        2132.628          46.000  
E21  29723454.728   156197807.494       -1758.870          44.000    29723443.965   116641179.426       -1313.213          46.000  
E24  29103995.256   152942529.294        1403.898          44.000    29103982.411   114210280.054        1048.369          46.000  
E31  25847271.765   135828328.112         534.858          45.000    25847256.338   101430186.978         399.268          47.000  
E01  26324383.240   138335566.212       -1058.399          45.000    26324367.036   103302471.485        -790.247          47.000  
E04  27074830.647   142279192.760       -2652.465          45.000    27074818.480   106247400.653       -1980.523          47.000  
E05  29630256.932   155708067.499        1394.783          44.000    29630244.823   116275444.311        1041.724          46.000  
E26  27355689.059   143755127.628        -444.129          45.000    27355672.696   107349535.961        -331.625          47.000  
> 2023 01 08 09 47 48.0040000  0 16                     
G07  21469305.148   112821959.478         585.346          44.000    21469286.950    84250092.348         436.960          48.000  
G01  23541692.680   123712433.562        2754.252          43.000    23541675.941    92382592.317        2056.607          47.000  
G21  22739784.326   119498374.905         393.368          44.000    22739767.006    89235728.322         293.816          48.000  
G09  24254318.536   127457306.622       -3205.526          43.000    24254302.280    95179092.737       -2393.993          47.000  
G27  25976724.991   136508613.248       -3821.408          43.000    25976710.629   101938191.269       -2853.719          46.000  
G04  26087272.924   137089547.911       -3673.463          43.000    26087258.942   102372005.092       -2743.031          46.000  
G14  24111498.890   126706783.965        1644.471          43.000    24111482.744    94618637.512        1228.231          47.000  
G17  24263894.433   127507629.616        2748.335          43.000    24263878.452    95216671.160        2052.192          47.000  
E12  29002182.087   152407499.427        2856.151          44.000    29002175.127   113810770.149        2132.785          46.000  
E21  29723789.184   156199566.223       -1758.740          44.000    29723778.630   116642492.777       -1313.495          46.000  
E24  29103728.179   152941125.323        1403.892          44.000    29103715.315   114209231.636        1048.298          46.000  
E31  25847169.802   135827793.226         534.831          45.000    25847154.618   101429787.542         399.520          47.000  
E01  26324584.697   138336624.577       -1058.525          45.000    26324568.651   103303261.823        -790.428          47.000  
E04  27075335.289   142281845.105       -2652.487          45.000    27075323.243   106249381.305       -1980.908          47.000  
E05  29629991.433   155706672.668        1394.558          44.000    29629979.457   116274402.728        1041.349          46.000  
E26  27355773.482   143755571.853        -444.589          45.000    27355757.190   107349867.690        -331.940          47.000  
> 2023 01 08 09 47 49.0040000  0 16                     
G07  21469193.741   112821374.335         584.892          44.000    21469175.615    84249655.379         436.778          48.000  
G01  23541168.564   123709679.342        2754.163          44.000    23541151.803    92380535.604        2056.512          47.000  
G21  22739709.481   119497981.678         392.957          44.000    22739692.104    89235434.679         293.450          48.000  
G09  24254928.530   127460512.242       -3205.859          43.000    24254912.481    95181486.532       -2393.956          47.000  
G27  25977452.163   136512434.535       -3821.418          42.000    25977437.926   101941044.817       -2853.553          46.000  
G04  26087972.023   137093221.043       -3672.822          43.000    26087957.960   102374748.019       -2742.818          46.000  
G14  24111185.878   126705139.256        1644.773          43.000    24111169.628    94617409.328        1228.130          47.000  
G17  24263371.469   127504881.343        2748.137          43.000    24263355.385    95214618.876        2052.203          47.000  
E12  29001638.670   152404643.011        2856.313          44.000    29001631.583   113808637.114        2133.012          46.000  
E21  29724124.056   156201324.834       -1758.643          44.000    29724113.428   116643806.021       -1313.174          46.000  
E24  29103460.867   152939721.209        1404.179          44.000    29103448.165   114208183.120        1048.509          46.000  
E31  25847068.112   135827258.235         535.059          45.000    25847052.682   101429388.037         399.575          47.000  
E01  26324786.013   138337682.847       -1058.348          45.000    26324769.993   103304052.087        -790.228          47.000  
E04  27075839.894   142284497.469       -2652.470          45.000    27075827.970   106251361.962       -1980.902          47.000  
E05  29629726.185   155705278.067        1394.549          44.000    29629714.109   116273361.311        1041.244          46.000  
E26  27355858.139   143756016.425        -444.753          45.000    27355841.785   107350199.672        -332.093          47.000  
