     3.04           OBSERVATION DATA    M                   RINEX VERSION / TYPE
sbf2rin-15.6.1                          20230215 131540 UTC PGM / RUN BY / DATE 
SEPT                                                        MARKER NAME         
Unknown                                                     MARKER NUMBER       
INS                 Institute of Navigaion                  OBSERVER / AGENCY   
3046472             SEPT POLARX5TR      5.4.0               REC # / TYPE / VERS 
Unknown             Unknown                                 ANT # / TYPE        
  -481819.0360  5507216.7370  3170372.1008                  APPROX POSITION XYZ 
        0.0000        0.0000        0.0000                  ANTENNA: DELTA H/E/N
G   18 C1C L1C D1C S1C C1W S1W C2W L2W D2W S2W C2L L2L D2L  SYS / # / OBS TYPES 
       S2L C5Q L5Q D5Q S5Q                                  SYS / # / OBS TYPES 
E   16 C1C L1C D1C S1C C5Q L5Q D5Q S5Q C7Q L7Q D7Q S7Q C8Q  SYS / # / OBS TYPES 
       L8Q D8Q S8Q                                          SYS / # / OBS TYPES 
SEPTENTRIO RECEIVERS OUTPUT ALIGNED CARRIER PHASES.         COMMENT             
NO FURTHER PHASE SHIFT APPLIED IN THE RINEX ENCODER.        COMMENT             
G L1C                                                       SYS / PHASE SHIFT   
G L2W                                                       SYS / PHASE SHIFT   
G L2L  0.00000                                              SYS / PHASE SHIFT   
G L5Q  0.00000                                              SYS / PHASE SHIFT   
E L1C  0.00000                                              SYS / PHASE SHIFT   
E L5Q  0.00000                                              SYS / PHASE SHIFT   
E L7Q  0.00000                                              SYS / PHASE SHIFT   
E L8Q  0.00000                                              SYS / PHASE SHIFT   
     1.000                                                  INTERVAL            
  2023     1     8    10    00    0.0000000     GPS         TIME OF FIRST OBS   
  2023     1     8    14    00    0.0000000     GPS         TIME OF LAST OBS    
    32                                                      # OF SATELLITES     
DBHZ                                                        SIGNAL STRENGTH UNIT
    18                                                      LEAP SECONDS        
                                                            END OF HEADER       
> 2023 01 08 10 00  0.0000000  0 19
E01  25272610.866 7 132808466.60207      -908.674 7        44.438    25272610.727 9  99175153.06309      -678.532 9        54.563    25272609.632 9 101762326.28609      -696.241 9        56.938    25272610.228 9 100468739.74709      -687.386 9        58.875
E04  26249974.441 7 137944547.20907     -2560.196 7        44.063    26249973.649 9 103010535.11109     -1911.854 9        54.250    26249972.571 9 105697761.77409     -1961.728 9        56.563    26249973.151 9 104354148.51509     -1936.795 9        58.500
E05  28253414.804 7 148472696.82407      1296.817 7        43.375    28253415.504 8 110872471.31908       968.414 8        53.563    28253414.435 9 113764791.97009       993.697 9        55.938    28253415.011 9 112318631.71809       981.061 9        57.938
E09  26068678.469 7 136991830.19207      -863.507 7        44.188    26068678.849 9 102299095.36809      -644.866 9        54.375    26068677.760 9 104967762.73209      -661.628 9        56.688    26068678.360 9 103633429.12309      -653.238 9        58.625
E12  27400205.571 7 143989050.95607      3068.578 7        43.625    27400202.856 8 107524281.69908      2291.479 8        53.875    27400201.785 9 110329258.27809      2351.244 9        56.250    27400202.387 9 108926771.06309      2321.363 9        58.125
E14  20692228.542 7 108738395.02507     -1538.401 7        45.563    20692227.545 9  81200745.71009     -1148.794 9        55.750    20692226.477 9  83319021.34309     -1178.755 9        58.188    20692227.070 9  82259883.60009     -1163.775 9        60.063
E24  27705957.338 7 145595788.36207      1596.548 7        43.750    27705956.601 8 108724124.92608      1192.235 8        53.813    27705955.503 9 111560401.76209      1223.321 9        56.250    27705956.089 9 110142263.41709      1207.778 9        58.188
E26  26240725.302 7 137895941.11707      -614.692 7        44.188    26240724.006 9 102974236.58409      -459.059 9        54.375    26240722.936 9 105660517.35509      -471.074 9        56.813    26240723.518 9 104317377.54209      -465.070 9        58.688
E31  24572511.291 7 129129418.13407       696.860 7        44.688    24572512.220 9  96427816.24109       520.374 9        54.875    24572511.142 9  98943319.80409       533.925 9        57.250    24572511.734 9  97685568.09509       527.150 9        59.125
E33  24877788.548 7 130733661.51807      1839.930 7        44.625    24877787.547 9  97625782.15509      1374.068 9        54.750    24877786.476 9 100172537.00509      1409.857 9        57.063    24877787.062 9  98899159.65309      1391.959 9        59.000
G01  21974938.491 7 115479081.17607      2659.836 7        43.188    21974938.513 6        41.063    21974939.254 6  89983704.51906      2072.600 6        41.063    21974939.420 8  89983699.52308      2072.592 8        48.750    21974938.411 9  86234378.16509      1986.253 9        55.188
G07  20213045.665 7 106220271.73007       376.670 7        43.813    20213045.687 7        42.563    20213043.571 7  82769035.01107       293.514 7        42.563    20213043.658 8  82769032.01208       293.608 8        49.500    20213045.757 9  79320332.89109       281.335 9        55.875
G08  22382114.082 7 117618803.30907     -2972.500 7        42.875    22382114.122 6        40.875    22382115.177 6  91651021.61106     -2316.234 6        40.875    22382115.209 8  91651018.61508     -2316.213 8        48.625    22382114.194 9  87832223.35809     -2219.689 9        55.063
G09  23506950.027 7 123529852.69007     -3123.267 7        42.625    23506950.058 6        40.125    23506949.664 6  96257029.78806     -2433.715 6        40.125    23506949.707 8  96257027.79008     -2433.715 8        48.250    23506949.500 9  92246318.67209     -2332.286 9        54.688
G13  24924811.071 6 130980766.98506      2436.697 6        41.875    24924811.054 6        38.813    24924808.681 6 102062924.48706      1898.729 6        38.813    24924808.771 7 102062922.49007      1898.667 7        47.688    24924810.951 9  97810311.62309      1819.501 9        54.063
G14  22685065.281 7 119210822.60407      1766.811 7        42.688    22685065.298 6        40.625    22685063.847 6  92891544.77506      1376.736 6        40.625    22685063.908 8  92891542.77808      1376.777 8        48.500    22685065.391 9  89021068.93709      1319.376 9        54.938
G17  22696841.746 7 119272707.80407      2677.010 7        42.688    22696841.781 6        40.438    22696839.373 6  92939762.64306      2085.982 6        40.438    22696839.448 8  92939762.64208      2086.035 8        48.375    22696841.573 9  89067281.16409      1999.078 9        54.875
G21  21516143.544 7 113068096.70207       102.867 7        43.313    21516143.566 6        41.438    21516141.116 6  88105000.70306        80.156 6        41.438    21516141.214 8  88105000.70708        80.128 8        48.938    21516143.144 9  84433966.93009        76.836 9        55.375
G30  21588831.177 7 113450070.68207      2305.163 7        43.375    21588831.208 6        41.625    21588831.435 6  88402656.41706      1796.231 6        41.625    21588831.513 8  88402654.41408      1796.321 8        49.000    21588830.752 9  84719208.73009      1721.427 9        55.438
> 2023 01 08 10 05  0.0000000  0 19
E01  25324848.785 7 133082978.77607      -922.190 7        44.563    25324848.653 9  99380145.92209      -688.621 9        54.250    25324847.563 9 101972666.78209      -706.561 9        57.500    25324848.166 9 100676406.42509      -697.587 9        59.000
E04  26396797.683 7 138716107.29007     -2582.766 7        44.063    26396796.635 8 103586700.11208     -1928.830 8        53.875    26396795.548 9 106288957.16309     -1979.035 9        57.063    26396796.155 9 104937828.71009     -1953.917 9        58.563
E05  28182707.237 7 148101126.23807      1179.393 7        43.500    28182707.971 8 110594999.78008       880.723 8        53.250    28182706.890 9 113480082.04109       903.695 9        56.500    28182707.489 9 112037540.98409       892.207 9        58.000
E09  26121368.984 7 137268720.60407      -982.145 7        44.250    26121369.341 9 102505864.18209      -733.448 9        54.000    26121368.248 9 105179925.51609      -752.573 9        57.250    26121368.849 9 103842894.92209      -743.002 9        58.688
E12  27224869.740 7 143067654.96507      3072.530 7        43.813    27224867.051 8 106836226.25708      2294.410 8        53.625    27224865.966 9 109623253.55309      2354.341 9        56.813    27224866.565 9 108229740.97809      2324.377 9        58.313
E14  20787783.405 7 109240539.40707     -1808.820 7        45.625    20787782.473 9  81575723.65909     -1350.817 9        55.375    20787781.378 9  83703781.32509     -1386.035 9        58.688    20787781.974 9  82639752.56509     -1368.420 9        60.188
E24  27614552.100 7 145115450.72207      1605.455 7        43.750    27614551.388 8 108365431.24708      1198.867 8        53.500    27614550.310 9 111192350.85109      1230.194 9        56.750    27614550.892 9 109778891.12209      1214.532 9        58.250
E26  26279815.140 7 138101359.58407      -754.865 7        44.250    26279813.851 9 103127633.48909      -563.694 9        54.063    26279812.758 9 105817915.91709      -578.359 9        57.313    26279813.361 9 104472775.27609      -571.023 9        58.750
E31  24532889.717 7 128921205.54707       690.832 7        44.750    24532890.698 9  96272332.81709       515.822 9        54.500    24532889.608 9  98783780.29009       529.262 9        57.813    24532890.216 9  97528056.62709       522.542 9        59.250
E33  24775878.744 7 130198121.91607      1728.912 7        44.625    24775877.742 9  97225866.22309      1291.043 9        54.438    24775876.668 9  99762188.47709      1324.759 9        57.688    24775877.264 9  98494027.42309      1307.903 9        59.125
G01  21826758.003 7 114700386.26807      2529.196 7        43.250    21826758.034 6        41.250    21826758.564 6  89376929.26506      1970.802 6        41.250    21826758.695 8  89376924.26408      1970.827 8        48.625    21826757.714 9  85652885.21309      1888.658 9        55.125
G07  20196257.146 7 106132046.18407       210.170 7        43.875    20196257.172 7        42.563    20196254.802 7  82700287.83507       163.769 7        42.563    20196254.937 8  82700284.83408       163.773 8        49.313    20196256.996 9  79254450.18009       156.953 9        55.875
G08  22553315.700 7 118518469.90407     -3024.310 7        42.875    22553315.753 6        40.750    22553316.013 6  92352060.52006     -2356.605 6        40.750    22553316.088 8  92352057.52508     -2356.658 8        48.375    22553315.063 9  88504052.31309     -2258.488 9        54.875
G09  23685882.158 7 124470150.60707     -3144.109 7        42.438    23685882.180 6        39.938    23685882.378 6  96989729.46806     -2449.955 6        39.938    23685882.572 8  96989727.47408     -2449.979 8        48.000    23685882.231 9  92948489.19909     -2347.858 9        54.500
G13  24789497.916 6 130269691.28506      2302.347 6        41.875    24789497.924 6        38.938    24789495.464 6 101508839.53106      1794.036 6        38.938    24789495.534 7 101508837.53107      1793.991 7        47.500    24789497.755 9  97279313.53809      1719.250 9        54.063
G14  22584800.318 7 118683925.90607      1745.471 7        42.875    22584800.344 6        40.625    22584798.712 6  92480975.92006      1360.111 6        40.625    22584798.819 8  92480973.92108      1360.086 8        48.375    22584800.276 9  88627607.11709      1303.424 9        54.875
G17  22547084.962 7 118485731.82707      2568.367 7        42.750    22547084.988 6        40.625    22547082.834 6  92326534.60506      2001.325 6        40.625    22547082.928 8  92326534.60508      2001.415 8        48.313    22547084.997 9  88479604.29509      1917.952 9        54.750
G21  21515822.506 7 113066410.02807       -92.273 7        43.250    21515822.523 6        41.500    21515820.166 6  88103686.41506       -71.901 6        41.500    21515820.281 8  88103686.41308       -71.913 8        48.750    21515822.192 9  84432707.40309       -68.933 9        55.250
G30  21460249.418 7 112774369.14807      2197.635 7        43.375    21460249.444 6        41.750    21460249.723 6  87876135.74106      1712.447 6        41.750    21460249.810 8  87876133.73908      1712.504 8        48.938    21460249.032 9  84214626.41709      1641.087 9        55.375
> 2023 01 08 10 10  0.0000000  0 19
E01  25377907.209 7 133361802.44807      -937.561 7        44.688    25377907.039 9  99588358.40909      -700.182 9        54.375    25377905.945 9 102186310.89809      -718.411 9        56.938    25377906.543 9 100887334.72609      -709.299 9        58.813
E04  26544720.464 7 139493447.44607     -2598.946 7        44.313    26544719.596 8 104167181.39008     -1940.756 8        53.938    26544718.480 9 106884581.43509     -1991.368 9        56.438    26544719.075 9 105525881.48609     -1966.062 9        58.313
E05  28118781.103 7 147765191.43707      1059.110 7        43.750    28118781.700 8 110344139.36908       790.957 8        53.375    28118780.621 9 113222677.45209       811.538 9        56.000    28118781.218 9 111783408.48409       801.242 9        57.875
E09  26180718.481 7 137580604.52607     -1096.978 7        44.313    26180718.873 9 102738764.51109      -819.196 9        54.188    26180717.780 9 105418901.50009      -840.465 9        56.750    26180718.384 9 104078833.07809      -829.817 9        58.563
E12  27049493.484 7 142146046.03507      3069.823 7        44.063    27049490.671 8 106148011.79208      2292.369 8        53.875    27049489.610 9 108917085.67709      2352.170 9        56.438    27049490.217 9 107532549.80809      2322.266 9        58.188
E14  20898635.798 7 109823072.63807     -2074.331 7        45.875    20898634.846 9  82010732.23809     -1548.986 9        55.438    20898633.762 9  84150137.95709     -1589.394 9        58.125    20898634.362 9  83080435.17009     -1569.186 9        59.938
E24  27522608.473 7 144632283.47007      1615.219 7        44.000    27522607.733 8 108004624.53008      1206.147 8        53.625    27522606.632 9 110822131.78509      1237.599 9        56.375    27522607.204 9 109413378.23109      1221.871 9        58.188
E26  26326853.156 7 138348546.15507      -893.361 7        44.438    26326851.879 9 103312220.86209      -667.124 9        54.250    26326850.811 9 106007318.61409      -684.536 9        56.813    26326851.397 9 104659770.31109      -675.830 9        58.625
E31  24493630.589 7 128714897.41107       683.917 7        44.875    24493631.589 9  96118271.54609       510.721 9        54.688    24493630.493 9  98625700.02909       523.984 9        57.313    24493631.082 9  97371985.86009       517.351 9        59.063
E33  24680468.991 7 129696740.52507      1612.093 7        44.813    24680468.039 9  96851458.03609      1203.918 9        54.625    24680466.981 9  99378013.12509      1235.276 9        57.250    24680467.560 9  98114735.65509      1219.589 9        59.063
G01  21686355.169 7 113962565.51207      2387.058 7        42.938    21686355.195 6        41.063    21686355.953 6  88802003.99906      1860.045 6        41.063    21686356.086 8  88801998.99308      1860.115 8        48.938    21686355.079 9  85101915.15909      1782.602 9        55.063
G07  20189106.835 7 106094470.09007        39.008 7        43.750    20189106.870 7        42.313    20189104.276 7  82671007.76007        30.396 7        42.313    20189104.368 8  82671004.76708        30.363 8        49.563    20189106.500 9  79226390.11309        29.102 9        55.688
G08  22727253.559 7 119432523.28007     -3068.599 7        42.625    22727253.603 6        40.313    22727254.601 6  93064309.90406     -2391.116 6        40.313    22727254.641 8  93064306.90408     -2391.116 8        48.500    22727253.645 9  89186624.63409     -2291.522 9        54.688
G09  23865721.821 7 125415213.06507     -3155.307 7        42.375    23865721.843 6        39.563    23865721.773 6  97726141.77506     -2458.681 6        39.563    23865721.889 8  97726139.77908     -2458.701 8        48.125    23865721.641 9  93654217.66009     -2356.224 9        54.250
G13  24662047.862 7 129599936.38207      2161.039 7        42.000    24662047.884 6        38.688    24662045.337 6 100986952.58806      1683.926 6        38.688    24662045.353 7 100986950.59307      1683.873 7        47.813    24662047.628 8  96779171.89008      1613.696 8        53.938
G14  22485750.363 7 118163416.68607      1723.909 7        42.688    22485750.380 6        40.438    22485749.106 6  92075384.31806      1343.306 6        40.438    22485749.217 8  92075382.32008      1343.367 8        48.625    22485750.679 9  88238915.16409      1287.362 9        54.750
G17  22403638.325 7 117731914.95307      2455.873 7        42.750    22403638.365 6        40.375    22403636.250 6  91739144.83406      1913.667 6        40.375    22403636.374 8  91739144.84308      1913.663 8        48.563    22403638.427 9  87916689.10509      1833.899 9        54.750
G21  21526675.598 7 113123444.17307      -288.491 7        43.125    21526675.620 6        41.188    21526673.372 6  88148128.60206      -224.798 6        41.188    21526673.462 8  88148128.61608      -224.941 8        49.000    21526675.419 9  84475297.84509      -215.577 9        55.125
G30  21338046.596 7 112132189.96207      2081.572 7        43.250    21338046.613 6        41.500    21338047.107 6  87375736.38106      1622.004 6        41.500    21338047.165 8  87375734.38608      1621.955 8        49.125    21338046.370 9  83735077.03209      1554.425 9        55.313
> 2023 01 08 10 15  0.0000000  0 19
E01  25431886.500 7 133645466.10707      -954.020 7        44.438    25431886.430 9  99800185.16709      -712.457 9        54.625    25431885.352 9 102403663.57509      -731.083 9        57.250    25431885.941 9 101101924.44309      -721.766 9        59.063
E04  26693355.749 7 140274531.16807     -2607.512 7        43.938    26693354.855 9 104750458.19609     -1947.152 9        54.188    26693353.771 9 107483074.15809     -1997.927 9        56.750    26693354.360 9 106116766.25109     -1972.542 9        58.563
E05  28061767.577 7 147465583.84807       937.745 7        43.500    28061768.283 8 110120406.43708       700.190 8        53.750    28061767.206 9 112993108.00509       718.411 9        56.313    28061767.794 9 111556757.29409       709.295 9        58.188
E09  26246474.934 7 137926157.07307     -1206.278 7        44.188    26246475.342 9 102996806.99609      -900.752 9        54.375    26246474.245 9 105683675.53409      -924.275 9        56.938    26246474.842 9 104340241.33809      -912.509 9        58.750
E12  26874445.785 7 141226164.91807      3061.405 7        43.938    26874443.149 9 105461087.58809      2286.087 9        54.125    26874442.067 9 108212241.70709      2345.732 9        56.688    26874442.663 9 106836665.72009      2315.917 9        58.500
E14  21024441.460 7 110484184.98507     -2332.164 7        45.438    21024440.355 9  82504420.02609     -1741.598 9        55.750    21024439.252 9  84656704.55609     -1787.027 9        58.313    21024439.860 9  83580562.36409     -1764.314 9        60.188
E24  27430066.669 7 144145973.22307      1626.812 7        43.813    27430065.939 9 107641470.77009      1214.780 9        54.063    27430064.836 9 110449504.45609      1246.470 9        56.625    27430065.459 9 109045487.68609      1230.629 9        58.375
E26  26381721.254 7 138636880.29907     -1028.852 7        44.250    26381720.073 9 103527535.31709      -768.212 9        54.438    26381718.997 9 106228249.96409      -788.216 9        57.000    26381719.579 9 104877893.21309      -778.212 9        58.813
E31  24454765.705 7 128510661.53707       677.127 7        44.813    24454766.773 9  95965757.74109       505.745 9        54.938    24454765.677 9  98469207.59909       518.938 9        57.563    24454766.279 9  97217482.74209       512.346 9        59.375
E33  24591852.951 7 129231059.45507      1491.279 7        44.688    24591851.884 9  96503709.19009      1113.645 9        54.938    24591850.805 9  99021192.56609      1142.672 9        57.563    24591851.395 9  97762450.95109      1128.155 9        59.313
G01  21554352.656 7 113268887.07007      2235.245 7        43.250    21554352.696 6        41.313    21554353.333 6  88261475.34306      1741.749 6        41.313    21554353.433 8  88261470.33808      1741.819 8        48.875    21554352.467 9  84583908.53509      1669.180 9        55.063
G07  20191824.590 7 106108751.60107      -135.117 7        43.813    20191824.616 7        42.438    20191821.990 7  82682136.21307      -105.286 7        42.438    20191822.068 8  82682133.21108      -105.266 8        49.438    20191824.179 9  79237054.87809      -100.860 9        55.688
G08  22903481.277 7 120358604.70807     -3104.244 7        42.688    22903481.317 6        40.250    22903482.038 6  93785931.79406     -2418.892 6        40.250    22903482.087 8  93785928.79908     -2418.932 8        48.375    22903481.067 9  89878178.95009     -2318.144 9        54.563
G09  24045902.752 7 126362069.51007     -3155.770 7        42.313    24045902.778 6        39.500    24045902.598 6  98463951.98706     -2459.042 6        39.500    24045902.665 8  98463949.99308     -2459.091 8        48.000    24045902.418 9  94361285.78209     -2356.577 9        54.188
G13  24542836.815 7 128973478.78907      2014.150 7        42.125    24542836.837 6        38.938    24542834.411 6 100498803.81706      1569.468 6        38.938    24542834.474 7 100498801.82107      1569.439 7        47.750    24542836.717 8  96311362.64708      1504.026 8        53.938
G14  22387911.894 7 117649269.71707      1703.309 7        42.813    22387911.898 6        40.625    22387910.188 6  91674750.31806      1327.254 6        40.625    22387910.298 8  91674748.32208      1327.258 8        48.563    22387911.767 9  87854974.25009      1271.952 9        54.750
G17  22266693.396 7 117012263.10207      2341.071 7        42.875    22266693.436 6        40.563    22266691.048 6  91178377.15806      1824.215 6        40.563    22266691.127 8  91178377.16008      1824.203 8        48.500    22266693.228 9  87379286.74109      1748.167 9        54.750
G21  21548727.653 7 113239330.24207      -484.068 7        43.125    21548727.675 6        41.313    21548725.784 6  88238429.43606      -377.196 6        41.313    21548725.925 8  88238429.44208      -377.261 8        48.875    21548727.781 9  84561836.13209      -361.518 9        55.063
G30  21222688.413 7 111525977.69307      1958.305 7        43.375    21222688.430 6        41.750    21222688.734 6  86903363.17906      1525.952 6        41.750    21222688.818 8  86903361.18808      1525.882 8        49.063    21222688.015 9  83282386.04909      1462.315 9        55.313
> 2023 01 08 10 20  0.0000000  0 19
E01  25486894.709 7 133934535.46107      -973.464 7        44.188    25486894.505 9 100016048.64509      -726.906 9        54.500    25486893.402 9 102625158.26709      -745.816 9        57.188    25486894.013 9 101320603.52909      -736.351 9        58.938
E04  26842320.864 7 141057348.39407     -2610.181 7        43.688    26842320.006 9 105335029.49809     -1949.173 9        54.000    26842318.929 9 108082895.14709     -2000.062 9        56.625    26842319.521 9 106708962.39609     -1974.625 9        58.438
E05  28011777.855 7 147202886.69007       813.474 7        43.188    28011778.680 8 109924236.47708       607.472 8        53.625    28011777.591 9 112791820.56909       623.295 9        56.313    28011778.185 9 111358028.59609       615.384 9        58.125
E09  26318367.731 7 138303956.45907     -1311.552 7        43.875    26318368.162 9 103278929.91609      -979.406 9        54.250    26318367.091 9 105973158.18309     -1004.939 9        56.875    26318367.680 9 104626044.12309      -992.168 9        58.688
E12  26700101.023 7 140309977.57107      3045.482 7        43.688    26700098.496 9 104776921.70809      2274.208 9        54.063    26700097.399 9 107510228.02309      2333.527 9        56.750    26700098.003 9 106143575.93909      2303.868 9        58.500
E14  21164790.273 7 111221723.34107     -2583.265 7        45.125    21164789.218 9  83055179.19109     -1929.077 9        55.563    21164788.143 9  85221831.35209     -1979.409 9        58.250    21164788.742 9  84138505.34509     -1954.243 9        60.063
E24  27336876.232 7 143656254.97907      1638.157 7        43.563    27336875.645 8 107275772.08408      1223.276 8        53.938    27336874.588 9 110074265.79609      1255.272 9        56.625    27336875.168 9 108675019.01209      1239.283 9        58.438
E26  26444277.610 7 138965615.64307     -1162.288 7        43.938    26444276.298 9 103773019.50309      -867.922 9        54.313    26444275.200 9 106480138.09609      -890.632 9        57.000    26444275.809 9 105126579.37309      -879.279 9        58.750
E31  24416340.660 7 128308736.14207       668.777 7        44.438    24416341.650 9  95814969.30309       499.419 9        55.000    24416340.567 9  98314485.55209       512.443 9        57.563    24416341.166 9  97064727.50009       505.929 9        59.313
E33  24510304.192 7 128802518.19007      1364.943 7        44.438    24510303.192 9  96183694.60609      1019.268 9        54.813    24510302.110 9  98692829.77909      1045.809 9        57.563    24510302.710 9  97438262.26509      1032.535 9        59.313
G01  21431349.774 7 112622503.71807      2072.234 7        43.188    21431349.809 6        41.563    21431350.669 6  87757800.00506      1614.732 6        41.563    21431350.796 8  87757795.00708      1614.724 8        48.875    21431349.808 9  84101219.67109      1547.459 9        55.438
G07  20204604.535 7 106175910.48807      -313.100 7        43.625    20204604.575 7        42.625    20204601.898 7  82734467.81107      -243.970 7        42.625    20204602.040 8  82734464.81408      -243.974 8        49.500    20204604.083 9  79287205.99209      -233.793 9        56.000
G08  23081567.713 7 121294455.12607     -3133.509 7        42.438    23081567.753 6        40.313    23081568.449 6  94515165.88806     -2441.696 6        40.313    23081568.545 8  94515162.90108     -2441.708 8        48.313    23081567.492 9  90577028.29409     -2339.935 9        54.813
G09  24225873.153 7 127307821.25607     -3147.698 7        42.250    24225873.193 6        39.625    24225873.154 6  99200901.40406     -2452.748 6        39.625    24225873.264 7  99200899.40407     -2452.670 7        47.938    24225873.025 9  95067528.96709     -2350.495 9        54.438
G13  24432214.389 7 128392154.53607      1860.440 7        42.000    24432214.397 6        39.250    24432212.091 6 100045823.88106      1449.694 6        39.250    24432212.198 7 100045821.88807      1449.649 7        47.750    24432214.386 9  95877256.87409      1389.317 9        54.313
G14  22291292.382 7 117141530.83007      1681.522 7        42.813    22291292.399 6        41.000    22291290.686 6  91279109.62706      1310.281 6        41.000    22291290.789 8  91279107.62708      1310.301 8        48.563    22291292.277 9  87475818.58509      1255.674 9        55.188
G17  22136416.375 7 116327651.95907      2222.633 7        42.875    22136416.415 6        40.875    22136413.880 6  90644913.93006      1731.926 6        40.875    22136413.983 8  90644913.92708      1731.987 8        48.563    22136416.070 9  86868051.14709      1659.758 9        55.125
G21  21581953.519 7 113413932.20607      -679.628 7        43.125    21581953.554 6        41.438    21581951.420 6  88374482.91406      -529.577 6        41.438    21581951.500 8  88374482.92308      -529.581 8        48.875    21581953.444 9  84692220.71909      -507.491 9        55.375
G30  21114633.632 7 110958147.52707      1826.062 7        43.375    21114633.649 7        42.063    21114634.238 7  86460898.11607      1422.909 7        42.063    21114634.409 8  86460896.12208      1422.844 8        49.125    21114633.552 9  82858357.03209      1363.539 9        55.688
> 2023 01 08 10 25  0.0000000  0 21
E01  25543040.933 7 134229585.65007      -993.927 7        44.125    25543040.680 8 100236378.32908      -742.222 8        53.938    25543039.584 9 102851235.68509      -761.572 9        56.813    25543040.193 9 101543807.08009      -751.887 9        58.500
E04  26991234.984 7 141839896.89107     -2605.730 7        43.688    26991234.047 8 105919400.12708     -1945.767 8        53.375    26991232.953 9 108682510.22709     -1996.538 9        56.313    26991233.545 9 107300955.25009     -1971.151 9        58.000
E05  27968897.282 7 146977546.76507       688.625 7        43.375    27968897.921 8 109755963.16008       514.323 8        53.000    27968896.820 9 112619157.50609       527.684 9        56.000    27968897.422 9 111187560.40509       521.000 9        57.625
E09  26396104.974 7 138712467.61507     -1410.888 7        43.813    26396105.263 8 103583986.94208     -1053.589 8        53.625    26396104.190 9 106286173.22009     -1081.078 9        56.563    26396104.760 9 104935080.15409     -1067.339 9        58.188
E10  28563154.848 7 150100391.55107      3082.283 7        43.188    28563154.739 8 112087954.59608      2301.705 8        52.875    28563153.657 9 115011983.50809      2361.733 9        55.875    28563154.245 9 113549969.12609      2331.711 9        57.500
E12  26526832.776 7 139399446.10507      3023.642 7        43.813    26526830.098 8 104096979.37808      2257.938 8        53.563    26526829.053 9 106812548.06409      2316.857 9        56.500    26526829.627 9 105454764.79309      2287.398 9        58.125
E14  21319207.841 7 112033193.29307     -2824.902 7        45.125    21319206.825 9  83661147.01109     -2109.521 9        54.875    21319205.733 9  85843607.02609     -2164.539 9        57.875    21319206.346 9  84752377.09109     -2137.024 9        59.500
E24  27242992.333 7 143162891.16407      1651.027 7        43.563    27242991.627 8 106907351.04808      1232.902 8        53.375    27242990.579 9 109696233.78309      1265.045 9        56.313    27242991.163 9 108301792.48909      1248.975 9        58.000
E26  26514352.511 7 139333862.25907     -1292.056 7        43.938    26514351.304 8 104048008.85908      -964.866 8        53.688    26514350.229 9 106762301.08209      -989.992 9        56.625    26514350.821 9 105405155.54409      -977.428 9        58.313
E31  24378409.424 7 128109405.98207       659.927 7        44.563    24378410.381 9  95666118.85309       492.834 9        54.313    24378409.292 9  98161752.04709       505.695 9        57.250    24378409.890 9  96913935.52309       499.267 9        58.875
E33  24436071.365 7 128412421.52607      1235.007 7        44.500    24436070.279 9  95892388.65109       922.312 9        54.250    24436069.177 9  98393924.53509       946.372 9        57.250    24436069.774 9  97143156.66609       934.342 9        58.813
G01  21317916.225 7 112026404.66507      1900.116 7        43.125    21317916.265 6        41.188    21317916.798 6  87293307.23506      1480.610 6        41.188    21317916.829 8  87293302.23208      1480.679 8        48.375    21317915.919 9  83656080.76309      1418.980 9        54.938
G07  20227597.946 7 106296742.05707      -492.754 7        43.625    20227597.977 7        42.125    20227595.375 7  82828622.27907      -383.964 7        42.125    20227595.503 8  82828619.28508      -384.005 8        48.875    20227597.573 9  79377437.35809      -367.946 9        55.438
G08  23261098.978 7 122237897.12807     -3155.050 7        42.500    23261099.013 6        39.750    23261099.484 6  95250315.50006     -2458.484 6        39.750    23261099.610 7  95250312.50207     -2458.382 7        47.688    23261098.525 9  91281546.66609     -2355.953 9        54.250
G09  24405092.256 7 128249625.08007     -3129.473 7        42.000    24405092.278 6        38.938    24405092.468 6  99934774.50706     -2438.551 6        38.938    24405092.539 7  99934772.50207     -2438.501 7        47.313    24405092.314 8  95770824.02408     -2336.944 8        53.875
G13  24330496.568 7 127857620.31207      1702.206 7        42.125    24330496.581 6        38.813    24330493.602 6  99629303.70506      1326.390 6        38.813    24330493.697 7  99629301.70807      1326.480 7        47.313    24330495.925 8  95478091.70408      1271.171 8        53.813
G14  22195910.810 7 116640296.96107      1659.961 7        42.813    22195910.823 6        40.500    22195909.081 6  90888537.78106      1293.472 6        40.500    22195909.118 8  90888535.78808      1293.468 8        48.125    22195910.617 9  87101520.56609      1239.612 9        54.688
G17  22012943.729 7 115678799.27407      2102.755 7        42.813    22012943.755 6        40.500    22012941.319 6  90139314.43106      1638.506 6        40.500    22012941.385 8  90139314.43708      1638.502 8        48.063    22012943.531 9  86383518.29609      1570.243 9        54.625
G19  25350865.029 6 133219695.10806      3255.847 6        41.563    25350865.042 6        38.125    25350862.160 6 103807541.40306      2537.015 6        38.125    25350862.291 7 103807541.41307      2536.995 7        46.875    25350865.190 8  99482240.96308      2431.267 8        53.438
G21  21626271.685 7 113646827.58207      -872.567 7        43.063    21626271.729 6        41.000    21626269.936 6  88555959.83106      -679.927 6        41.000    21626269.997 8  88555959.83508      -679.947 8        48.375    21626271.962 9  84866136.09709      -651.592 9        54.813
G30  21014329.031 7 110431043.65607      1686.761 7        43.313    21014329.066 6        41.625    21014329.704 6  86050167.82706      1314.359 6        41.625    21014329.800 8  86050165.82908      1314.310 8        48.688    21014329.002 9  82464740.49809      1259.598 9        55.188
> 2023 01 08 10 30  0.0000000  0 21
E01  25600440.551 7 134531222.99007     -1017.622 7        44.500    25600440.360 9 100461626.98809      -759.928 9        54.000    25600439.273 9 103082360.40009      -779.752 9        56.875    25600439.872 9 101771993.76709      -769.840 9        58.500
E04  27139724.263 7 142620212.98607     -2595.630 7        43.813    27139723.267 8 106502103.70908     -1938.315 8        53.438    27139722.191 9 109280414.77509     -1988.920 9        56.250    27139722.760 9 107891259.31509     -1963.625 9        58.000
E05  27933188.570 7 146789896.73307       561.947 7        43.688    27933189.296 8 109615834.88708       419.565 8        53.125    27933188.224 9 112475373.71409       430.615 9        56.000    27933188.803 9 111045604.37409       425.097 9        57.688
E09  26479378.939 7 139150075.84707     -1505.888 7        44.188    26479379.332 8 103910772.31808     -1124.519 8        53.688    26479378.257 9 106621483.43109     -1153.854 9        56.563    26479378.844 9 105266127.94809     -1139.195 9        58.250
E10  28386535.217 7 149172249.42807      3104.128 7        43.500    28386535.175 8 111394861.45608      2317.994 8        53.000    28386534.063 9 114300809.67409      2378.432 9        55.938    28386534.674 9 112847835.63809      2348.205 9        57.563
E12  26355017.138 7 138496549.16207      2994.246 7        44.188    26355014.548 8 103422738.15208      2235.908 8        53.688    26355013.455 9 106120717.93809      2294.268 9        56.563    26355014.045 9 104771729.11809      2265.088 9        58.250
E14  21487165.109 7 112915814.67807     -3057.868 7        45.438    21487164.110 9  84320247.39209     -2283.454 9        54.875    21487163.019 9  86519901.33309     -2343.022 9        57.875    21487163.603 9  85420074.43509     -2313.234 9        59.500
E24  27148380.015 7 142665700.22207      1663.308 7        44.000    27148379.348 8 106536072.09608      1242.187 8        53.500    27148378.279 9 109315269.29209      1274.535 9        56.375    27148378.865 9 107925670.76709      1258.357 9        58.063
E26  26591755.882 7 139740619.21807     -1419.406 7        44.250    26591754.559 8 104351755.93408     -1059.860 8        53.750    26591753.512 9 107073971.99609     -1087.545 9        56.625    26591754.090 9 105712864.53909     -1073.708 9        58.313
E31  24341039.804 7 127913027.68107       648.692 7        44.875    24341040.812 9  95519472.71509       484.452 9        54.375    24341039.751 9  98011280.36609       497.018 9        57.250    24341040.339 9  96765376.61509       490.723 9        58.938
E33  24369380.306 7 128061957.80307      1100.504 7        44.875    24369379.245 9  95630678.73609       821.738 9        54.438    24369378.171 9  98125387.40609       843.187 9        57.250    24369378.766 9  96878033.14409       832.465 9        58.938
G01  21214588.946 7 111483416.91807      1717.934 7        43.063    21214588.981 6        41.375    21214589.657 6  86870199.90306      1338.650 6        41.375    21214589.747 8  86870194.90708      1338.687 8        48.563    21214588.780 9  83250602.91009      1282.869 9        54.938
G07  20260916.431 7 106471832.63207      -675.135 7        43.500    20260916.453 7        42.125    20260914.004 7  82965056.49407      -526.080 7        42.125    20260914.126 8  82965053.49508      -526.067 8        48.938    20260916.206 9  79508186.81009      -504.101 9        55.313
G08  23441681.123 7 123186865.47207     -3170.715 7        42.375    23441681.149 6        39.688    23441682.143 6  95989771.35306     -2470.687 6        39.688    23441682.232 7  95989768.35207     -2470.691 7        47.750    23441681.196 9  91990191.85509     -2367.754 9        54.125
G09  24583036.195 6 129184725.55406     -3103.256 6        41.938    24583036.230 6        38.875    24583036.193 6 100663424.23006     -2418.117 6        38.875    24583036.254 7 100663422.23907     -2418.216 7        47.313    24583036.024 8  96469113.35108     -2317.426 8        53.625
G13  24237964.804 6 127371364.99006      1538.391 6        41.938    24237964.839 6        39.000    24237962.295 6  99250403.45606      1198.746 6        39.000    24237962.355 7  99250401.45807      1198.787 7        47.250    24237964.588 8  95114978.96508      1148.798 8        53.750
G14  22101801.001 7 116145745.67507      1636.560 7        42.688    22101801.027 6        40.688    22101799.080 6  90503173.13806      1275.241 6        40.688    22101799.149 8  90503171.14208      1275.274 8        48.188    22101800.655 9  86732212.78709      1222.154 9        54.625
G17  21896386.838 7 115066287.71707      1980.055 7        42.813    21896386.873 6        40.688    21896384.243 6  89662032.70006      1542.904 6        40.688    21896384.346 8  89662032.70708      1542.880 8        48.250    21896386.436 9  85926123.30109      1478.652 9        54.625
G19  25166185.008 6 132249193.67106      3213.107 6        41.688    25166185.039 6        38.313    25166181.877 6 103051306.51406      2503.720 6        38.313    25166182.059 7 103051306.51507      2503.769 7        47.063    25166184.895 8  98757515.85208      2399.434 8        53.375
G21  21681555.169 7 113937340.35707     -1063.971 7        42.938    21681555.218 6        41.000    21681552.683 6  88782333.42106      -829.069 6        41.000    21681552.775 8  88782333.42308      -829.069 8        48.438    21681554.711 9  85083077.45109      -794.500 9        54.688
G30  20922208.425 7 109946946.53307      1538.906 7        43.375    20922208.438 6        41.813    20922209.106 6  85672949.29306      1199.147 6        41.813    20922209.203 8  85672947.29208      1199.217 8        48.750    20922208.363 9  82103239.40509      1149.246 9        55.125
> 2023 01 08 10 35  0.0000000  0 21
E01  25659211.703 7 134840067.32407     -1042.116 7        44.375    25659211.486 9 100692257.49709      -778.191 9        54.063    25659210.406 9 103319007.36009      -798.605 9        56.938    25659210.993 9 102005632.50209      -788.409 9        58.563
E04  27287420.394 7 143396362.72407     -2578.099 7        43.875    27287419.623 8 107081696.04208     -1925.141 8        53.438    27287418.572 9 109875126.90809     -1975.455 9        56.313    27287419.147 9 108478411.54909     -1950.303 9        58.000
E05  27904690.564 7 146640138.80707       435.889 7        43.813    27904691.313 8 109504002.66808       325.596 8        53.188    27904690.245 9 112360624.14209       334.013 9        56.125    27904690.813 9 110932313.47809       329.795 9        57.813
E09  26567866.675 7 139615081.60907     -1593.689 7        44.188    26567866.981 8 104258016.87908     -1190.116 8        53.750    26567865.920 9 106977786.54809     -1221.151 9        56.625    26567866.495 9 105617901.78709     -1205.635 9        58.313
E10  28208794.936 7 148238218.51607      3121.381 7        43.563    28208794.989 8 110697370.84008      2330.842 8        53.188    28208793.896 9 113585123.65109      2391.711 9        56.063    28208794.500 9 112141247.31809      2361.272 9        57.750
E12  26185030.463 7 137603262.72607      2959.447 7        44.313    26185027.768 8 102755673.60608      2210.000 8        53.875    26185026.724 9 105436251.71109      2267.652 9        56.688    26185027.295 9 104095963.73209      2238.822 9        58.375
E14  21668082.467 7 113866541.17707     -3278.948 7        45.313    21668081.328 9  85030205.49809     -2448.604 9        54.875    21668080.235 9  87248380.08109     -2512.457 9        57.813    21668080.829 9  86139292.86309     -2480.531 9        59.438
E24  27053013.548 7 142164545.85907      1677.260 7        44.188    27053012.856 8 106161833.45808      1252.452 8        53.563    27053011.789 9 108931267.89909      1285.157 9        56.500    27053012.369 9 107546550.75109      1268.817 9        58.188
E26  26676274.719 7 140184768.67307     -1541.460 7        44.250    26676273.411 8 104683425.99008     -1151.125 8        53.813    26676272.335 9 107414294.31009     -1181.110 9        56.688    26676272.930 9 106048860.72209     -1166.116 9        58.375
E31  24304310.856 7 127720015.68507       637.320 7        44.875    24304311.869 9  95375340.38609       475.925 9        54.500    24304310.782 9  97863388.05709       488.316 9        57.313    24304311.379 9  96619364.29409       482.117 9        59.000
E33  24310431.281 7 127752178.63407       963.737 7        44.813    24310430.218 9  95399350.13209       719.693 9        54.500    24310429.151 9  97888024.14309       738.460 9        57.375    24310429.733 9  96643687.20909       729.084 9        59.063
G01  21121868.461 7 110996167.87307      1528.516 7        43.188    21121868.487 6        41.688    21121869.258 6  86490525.32106      1191.052 6        41.688    21121869.308 8  86490520.33108      1191.080 8        48.563    21121868.391 9  82886748.10609      1141.436 9        54.938
G07  20304627.843 7 106701537.90907      -856.949 7        43.438    20304627.860 7        42.438    20304625.457 7  83144047.61707      -667.753 7        42.438    20304625.569 8  83144044.61908      -667.695 8        48.938    20304627.664 9  79679719.97209      -639.879 9        55.250
G08  23622942.110 7 124139397.49007     -3178.944 7        42.188    23622942.136 6        39.750    23622942.981 6  96732004.09206     -2477.095 6        39.750    23622943.060 7  96732001.09707     -2477.067 7        47.625    23622942.014 9  92701498.23709     -2373.903 9        54.000
G09  24759195.270 6 130110447.51906     -3067.233 6        41.813    24759195.301 6        39.000    24759195.196 6 101384766.02306     -2390.052 6        39.000    24759195.259 7 101384764.02307     -2390.019 7        47.188    24759195.063 8  97160399.23008     -2290.427 8        53.563
G13  24154866.844 6 126934682.95306      1371.796 6        41.875    24154866.870 6        39.250    24154864.493 6  98910131.73606      1068.936 6        39.250    24154864.592 7  98910129.74207      1068.874 7        47.313    24154866.772 8  94788885.23608      1024.346 8        53.750
G14  22009009.649 7 115658124.88307      1613.548 7        42.813    22009009.693 6        41.063    22009007.930 6  90123208.88506      1257.310 6        41.063    22009008.011 8  90123206.89308      1257.318 8        48.250    22009009.495 9  86368080.38209      1204.883 9        54.625
G17  21786827.064 7 114490549.58907      1857.571 7        42.688    21786827.099 6        41.000    21786824.903 6  89213405.59006      1447.458 6        41.000    21786825.044 8  89213405.59608      1447.388 8        48.188    21786827.133 9  85496188.99709      1387.065 9        54.625
G19  24984021.841 6 131291920.19306      3167.531 6        41.625    24984021.867 6        38.750    24984018.817 6 102305379.13006      2468.206 6        38.750    24984018.875 7 102305379.13807      2468.156 7        47.125    24984021.813 8  98042668.78308      2365.317 8        53.375
G21  21747624.373 7 114284537.35707     -1250.530 7        42.750    21747624.399 6        41.188    21747622.074 6  89052876.53406      -974.435 6        41.188    21747622.167 8  89052876.53808      -974.365 8        48.313    21747624.103 9  85342347.94009      -933.822 9        54.625
G30  20838687.728 7 109508040.55407      1385.453 7        43.188    20838687.754 7        42.125    20838688.060 7  85330944.62907      1079.578 7        42.125    20838688.133 8  85330942.63608      1079.492 8        48.750    20838687.382 9  81775484.93509      1034.533 9        55.125
> 2023 01 08 10 40  0.0000000  0 21
E01  25719474.286 7 135156749.85107     -1069.689 7        44.313    25719474.148 8 100928741.19708      -798.727 8        53.938    25719473.070 9 103561660.19809      -819.632 9        56.688    25719473.669 9 102245200.77209      -809.185 9        58.375
E04  27433962.907 7 144166448.13507     -2554.951 7        43.563    27433962.042 8 107656759.82608     -1907.969 8        53.250    27433960.952 9 110465192.35509     -1957.782 9        56.063    27433961.534 9 109060976.16509     -1932.883 9        57.813
E05  27883416.802 7 146528344.79507       309.222 7        43.438    27883417.606 8 109420520.12608       230.850 8        53.125    27883416.525 9 112274963.79409       236.920 9        55.938    27883417.123 9 110847742.03409       233.885 9        57.625
E09  26661230.208 7 140105710.91407     -1676.409 7        43.813    26661230.641 8 104624395.90108     -1251.832 8        53.625    26661229.561 9 107353723.28009     -1284.517 9        56.375    26661230.156 9 105989059.66309     -1268.180 9        58.125
E10  28030266.109 7 147300042.98607      3131.980 7        43.375    28030266.133 8 109996785.21708      2338.726 8        53.125    28030265.043 9 112866261.88009      2399.785 9        55.938    28030265.640 9 111431523.62209      2369.255 9        57.625
E12  26017247.324 7 136721556.18007      2917.280 7        44.063    26017244.603 8 102097256.37908      2178.469 8        53.813    26017243.521 9 104760658.38109      2235.315 9        56.500    26017244.115 9 103428958.45309      2206.892 9        58.313
E14  21861336.332 7 114882097.77907     -3489.701 7        45.000    21861335.318 9  85788575.68909     -2605.965 9        54.750    21861334.250 9  88026533.84509     -2673.931 9        57.500    21861334.837 9  86907554.84009     -2639.948 9        59.250
E24  26956876.355 7 141659341.66107      1690.471 7        44.000    26956875.688 8 105784570.57508      1262.392 8        53.563    26956874.600 9 108544163.37609      1295.336 9        56.313    26956875.189 9 107164367.04909      1278.862 9        58.063
E26  26767676.012 7 140665085.98307     -1660.208 7        44.000    26767674.748 8 105042104.49708     -1239.703 8        53.688    26767673.656 9 107782329.65109     -1272.095 9        56.438    26767674.273 9 106412217.64709     -1255.905 9        58.188
E31  24268312.616 7 127530843.37907       623.326 7        44.688    24268313.582 9  95234075.35209       465.475 9        54.438    24268312.497 9  97718437.84709       477.617 9        57.125    24268313.096 9  96476256.67309       471.550 9        58.875
E33  24259397.626 7 127483994.78007       823.422 7        44.688    24259396.545 9  95199082.96909       614.893 9        54.438    24259395.458 9  97682532.61709       630.946 9        57.188    24259396.045 9  96440807.86609       622.925 9        58.938
G01  21040212.566 7 110567063.98207      1330.628 7        43.063    21040212.588 6        41.500    21040213.510 6  86156158.65206      1036.853 6        41.500    21040213.612 8  86156153.65308      1036.902 8        48.563    21040212.633 9  82566313.37209       993.698 9        55.125
G07  20358755.185 7 106985979.16907     -1039.541 7        43.500    20358755.202 7        42.125    20358752.830 7  83365690.15707      -810.032 7        42.125    20358752.944 8  83365687.16508      -810.032 8        48.813    20358755.059 9  79892127.41509      -776.327 9        55.313
G08  23804528.063 7 125093638.04007     -3182.003 7        42.125    23804528.076 6        39.375    23804528.924 6  97475568.16006     -2479.483 6        39.375    23804528.983 7  97475565.16007     -2479.470 7        47.500    23804527.957 9  93414080.46409     -2376.155 9        54.063
G09  24933076.791 6 131024203.14106     -3023.401 6        41.813    24933076.808 6        38.563    24933077.105 6 102096783.38406     -2355.901 6        38.563    24933077.252 7 102096781.38407     -2355.835 7        47.000    24933076.956 8  97842749.20308     -2257.730 8        53.625
G13  24081409.849 7 126548664.13407      1201.070 7        42.063    24081409.880 6        39.000    24081407.513 6  98609337.85406       935.899 6        39.000    24081407.591 7  98609335.86407       935.784 7        47.250    24081409.818 8  94500624.43208       896.840 8        53.875
G14  21917598.865 7 115177757.84307      1588.461 7        42.750    21917598.882 6        40.813    21917597.149 6  89748896.90906      1237.761 6        40.813    21917597.183 8  89748894.91708      1237.635 8        48.250    21917598.689 9  86009364.73509      1186.121 9        54.750
G17  21684319.777 7 113951868.27307      1733.400 7        42.750    21684319.799 6        40.813    21684317.258 6  88793653.91606      1350.701 6        40.813    21684317.292 8  88793653.92308      1350.677 8        48.188    21684319.503 9  85093926.97309      1294.383 9        54.750
G19  24804616.891 6 130349140.12906      3116.714 6        41.750    24804616.940 6        38.563    24804613.694 6 101570745.32206      2428.609 6        38.563    24804613.847 7 101570745.32407      2428.703 7        47.125    24804616.741 8  97338644.71108      2327.515 8        53.625
G21  21824256.581 7 114687242.49107     -1433.673 7        42.813    21824256.603 6        40.813    21824254.319 6  89366672.74906     -1117.148 6        40.813    21824254.385 8  89366672.74708     -1117.152 8        48.250    21824256.339 9  85643069.30309     -1070.592 9        54.750
G30  20764160.269 7 109116396.90707      1224.213 7        43.375    20764160.295 6        41.938    20764160.726 6  85025767.76006       953.932 6        41.938    20764160.815 8  85025765.76108       953.977 8        48.750    20764160.056 9  81483023.77109       914.193 9        55.313
> 2023 01 08 10 45  0.0000000  0 21
E01  25781349.715 7 135481906.40007     -1098.376 7        44.500    25781349.418 8 101171552.91608      -820.275 8        53.938    25781348.307 9 103810806.13309      -841.641 9        56.750    25781348.915 9 102491179.59809      -830.958 9        58.438
E04  27578997.367 7 144928608.93007     -2524.992 7        43.813    27578996.429 8 108225905.88208     -1885.609 8        53.313    27578995.324 9 111049185.69409     -1934.750 9        56.063    27578995.919 9 109637545.86109     -1910.176 9        57.813
E05  27869355.656 7 146454452.52807       183.658 7        43.750    27869356.384 8 109365340.83708       137.120 8        53.188    27869355.310 9 112218345.04909       140.620 9        56.000    27869355.905 9 110791843.01709       138.865 9        57.750
E09  26759119.300 7 140620121.46807     -1751.950 7        44.188    26759119.719 8 105008533.65208     -1308.251 8        53.625    26759118.648 9 107747882.02109     -1342.439 9        56.375    26759119.233 9 106378207.91009     -1325.355 9        58.125
E10  27851284.184 7 146359485.97507      3137.487 7        43.813    27851284.082 8 109294421.21108      2342.925 8        53.313    27851282.999 9 112145575.33809      2404.053 9        56.063    27851283.590 9 110719998.34709      2373.489 9        57.750
E12  25852039.514 7 135853383.59607      2869.523 7        44.438    25852036.870 8 101448945.69008      2142.747 8        53.875    25852035.775 9 104095435.23709      2198.709 9        56.625    25852036.375 9 102772191.53709      2170.736 9        58.375
E14  22066267.088 7 115959015.42307     -3687.758 7        45.250    22066265.936 9  86592767.43009     -2753.810 9        54.688    22066264.856 9  88851704.50309     -2825.680 9        57.500    22066265.450 9  87722236.04009     -2789.745 9        59.188
E24  26859961.585 7 141150051.12307      1704.723 7        44.188    26859960.920 8 105404256.21408      1272.988 8        53.625    26859959.835 9 108153927.76909      1306.265 9        56.375    26859960.434 9 106779092.06509      1289.628 9        58.188
E26  26865707.752 7 141180245.85007     -1773.401 7        44.250    26865706.432 8 105426801.80508     -1324.360 8        53.688    26865705.351 9 108177062.53709     -1358.896 9        56.563    26865705.937 9 106801932.74309     -1341.626 9        58.188
E31  24233145.590 7 127346039.45107       608.439 7        44.938    24233146.534 9  95096072.42309       454.291 9        54.563    24233145.469 9  97576834.84509       466.142 9        57.250    24233146.074 9  96336453.70709       460.216 9        58.938
E33  24216424.334 7 127258168.67607       681.752 7        44.938    24216423.269 9  95030446.59509       509.018 9        54.563    24216422.186 9  97509497.03509       522.361 9        57.250    24216422.773 9  96269971.88809       515.697 9        59.063
G01  20970032.887 7 110198266.32707      1126.911 7        43.500    20970032.904 6        41.625    20970033.653 6  85868783.85806       878.116 6        41.625    20970033.687 8  85868778.86108       878.071 8        48.875    20970032.790 9  82290912.52809       841.501 9        54.875
G07  20423276.117 7 107325037.42707     -1220.582 7        43.813    20423276.134 7        42.125    20423273.484 7  83629891.40007      -951.099 7        42.125    20423273.586 8  83629888.40408      -951.131 8        49.063    20423275.658 9  80145320.26509      -911.481 9        55.125
G08  23986106.508 7 126047839.21907     -3178.440 7        42.438    23986106.539 6        39.375    23986107.359 6  98219101.54806     -2476.707 6        39.375    23986107.441 7  98219098.55007     -2476.686 7        47.750    23986106.400 8  94126633.29508     -2373.538 8        53.688
G09  25104206.572 7 131923494.10107     -2970.572 7        42.000    25104206.594 6        38.563    25104206.485 6 102797529.59006     -2314.723 6        38.563    25104206.554 7 102797527.59307     -2314.719 7        47.313    25104206.345 8  98514297.65208     -2218.308 8        53.313
G13  24017760.313 7 126214181.16607      1028.458 7        42.250    24017760.330 6        39.188    24017757.558 6  98348701.77706       801.400 6        39.188    24017757.673 7  98348699.77607       801.437 7        47.625    24017759.820 8  94250848.18408       768.067 8        53.688
G14  21827644.667 7 114705043.15107      1562.727 7        43.125    21827644.693 6        41.000    21827642.506 6  89380547.79806      1217.713 6        41.000    21827642.603 8  89380545.79808      1217.734 8        48.563    21827644.079 9  85656363.49609      1166.995 9        54.563
G17  21588888.769 7 113450376.30107      1609.927 7        43.188    21588888.804 6        41.000    21588886.488 6  88402880.94806      1254.493 6        41.000    21588886.611 8  88402880.95508      1254.485 8        48.563    21588888.726 9  84719436.21009      1202.195 9        54.563
G19  24628197.765 7 129422051.01007      3063.181 7        42.125    24628197.800 6        38.813    24628194.506 6 100848338.21006      2386.898 6        38.813    24628194.626 7 100848338.21207      2386.821 7        47.438    24628197.526 8  96646337.89708      2287.374 8        53.438
G21  21911183.955 7 115144048.60907     -1610.900 7        43.063    21911183.990 6        40.875    21911181.630 6  89722625.56706     -1255.246 6        40.875    21911181.728 8  89722625.56908     -1255.169 8        48.563    21911183.643 9  85984190.75609     -1202.893 9        54.500
G30  20698995.067 7 108773952.16207      1057.734 7        43.750    20698995.102 7        42.063    20698995.664 7  84758927.70307       824.212 7        42.063    20698995.740 8  84758925.70608       824.196 8        49.063    20698994.978 9  81227302.04509       789.901 9        55.063
> 2023 01 08 10 50  0.0000000  0 20
E01  25844960.442 7 135816184.20807     -1130.200 7        44.188    25844960.361 9 101421175.95409      -843.997 9        54.000    25844959.271 9 104066941.07109      -866.006 9        57.125    25844959.865 9 102744058.58609      -855.005 9        58.688
E04  27722179.647 7 145681037.17407     -2489.951 7        43.375    27722178.739 8 108787784.11108     -1859.383 8        53.375    27722177.667 9 111625721.61709     -1907.909 9        56.500    27722178.248 9 110206752.93609     -1883.640 9        58.125
E05  27862471.664 7 146418276.52307        57.968 7        43.375    27862472.323 8 109338326.28908        43.292 8        53.250    27862471.256 9 112190625.76709        44.409 9        56.438    27862471.838 9 110764476.10109        43.849 9        58.000
E09  26861174.138 7 141156422.34507     -1822.026 7        43.625    26861174.360 8 105409018.06908     -1360.604 8        53.688    26861173.302 9 108158813.85509     -1396.106 9        56.813    26861173.876 9 106783916.03609     -1378.355 9        58.375
E10  27672189.201 7 145418336.65607      3136.027 7        43.563    27672189.296 8 108591614.89708      2341.928 8        53.313    27672188.242 9 111424434.95009      2402.950 9        56.625    27672188.824 9 110008024.99809      2372.427 9        58.063
E12  25689777.008 7 135000688.29407      2814.376 7        44.063    25689774.322 9 100812192.70009      2101.597 9        54.000    25689773.262 9 103442071.30109      2156.438 9        57.188    25689773.848 9 102127133.07409      2129.018 9        58.813
E24  26762274.381 7 140636701.03807      1717.766 7        43.875    26762273.632 8 105020910.37108      1282.775 8        53.688    26762272.578 9 107760581.60609      1316.267 9        56.875    26762273.158 9 106390746.06309      1299.515 9        58.438
E26  26970102.154 7 141728842.27307     -1882.832 7        43.813    26970100.846 8 105836467.95408     -1405.948 8        53.750    26970099.788 9 108597415.63509     -1442.665 9        56.875    26970100.357 9 107216942.36809     -1424.314 9        58.438
E31  24198922.795 7 127166197.45707       590.403 7        44.688    24198923.742 9  94961774.81909       440.976 9        54.500    24198922.685 9  97439033.82709       452.415 9        57.750    24198923.271 9  96200404.39709       446.696 9        59.250
E33  24181629.669 7 127075321.28707       537.264 7        44.625    24181628.565 9  94893904.71009       401.176 9        54.500    24181627.489 9  97369393.18909       411.666 9        57.750    24181628.073 9  96131649.02309       406.421 9        59.250
G01  20911691.377 7 109891681.33107       916.263 7        43.438    20911691.408 6        41.625    20911692.488 6  85629886.45406       713.971 6        41.625    20911692.566 8  85629881.45408       714.036 8        48.875    20911691.601 9  82061969.18109       684.269 9        55.250
G07  20498123.341 7 107718363.42807     -1401.029 7        43.625    20498123.367 7        42.000    20498120.929 7  83936379.19007     -1091.711 7        42.000    20498121.014 8  83936376.19308     -1091.654 8        49.063    20498123.123 9  80439037.73209     -1046.200 9        55.438
G08  24167367.562 7 127000372.79907     -3170.668 7        42.313    24167367.579 6        39.063    24167368.438 6  98961335.50306     -2470.650 6        39.063    24167368.582 7  98961332.51107     -2470.671 7        47.688    24167367.518 9  94837940.84009     -2367.691 9        54.063
G09  25272127.754 6 132805926.61006     -2910.764 6        41.938    25272127.785 6        38.375    25272127.802 6 103485139.33806     -2268.128 6        38.375    25272127.900 7 103485137.34307     -2268.144 7        47.250    25272127.665 8  99173256.99208     -2173.650 8        53.688
G13  23964042.296 7 125931891.49407       853.292 7        42.250    23964042.322 6        39.125    23964039.604 6  98128735.79406       664.903 6        39.125    23964039.699 7  98128733.79407       664.980 7        47.750    23964041.899 9  94040047.45209       637.292 9        54.125
G14  21739238.317 7 114240467.72407      1534.381 7        43.250    21739238.334 6        41.000    21739236.735 6  89018540.97106      1195.622 6        41.000    21739236.809 8  89018538.97908      1195.544 8        48.563    21739238.312 9  85309440.29209      1145.796 9        55.000
G17  21500534.108 7 112986068.14407      1485.777 7        43.250    21500534.134 6        41.000    21500531.605 6  88041082.38806      1157.749 6        41.000    21500531.746 8  88041082.39208      1157.712 8        48.563    21500533.815 9  84372712.58709      1109.517 9        54.938
G19  24454980.868 7 128511789.65607      3004.887 7        42.125    24454980.894 6        38.875    24454977.589 6 100139043.65006      2341.467 6        38.875    24454977.672 7 100139043.65307      2341.528 7        47.500    24454980.577 8  95966597.28308      2243.878 8        53.875
G21  22008099.611 7 115653344.66507     -1783.239 7        43.125    22008099.646 6        40.688    22008097.440 6  90119479.63606     -1389.536 6        40.688    22008097.539 8  90119479.64508     -1389.594 8        48.500    22008099.478 9  86364509.24209     -1331.620 9        54.813
G30  20643533.772 7 108482500.59207       884.596 7        43.688    20643533.789 7        42.063    20643534.292 7  84531822.58207       689.295 7        42.063    20643534.323 8  84531820.58208       689.332 8        49.063    20643533.582 9  81009659.64109       660.587 9        55.500
> 2023 01 08 10 55  0.0000000  0 20
E01  25910428.869 7 136160222.66407     -1164.085 7        44.188    25910428.688 9 101678087.78909      -869.296 9        54.250    25910427.606 9 104330554.95809      -891.977 9        57.563    25910428.207 9 103004321.44609      -880.635 9        59.000
E04  27863173.620 7 146421965.92807     -2449.015 7        43.375    27863172.786 8 109341075.05908     -1828.794 8        53.625    27863171.711 9 112193446.24109     -1876.485 9        56.813    27863172.304 9 110767260.72309     -1852.640 9        58.313
E05  27862703.202 7 146419493.69607       -66.177 7        43.375    27862703.972 8 109339235.21408       -49.441 8        53.563    27862702.861 9 112191558.40309       -50.743 9        56.813    27862703.460 9 110765396.88309       -50.094 9        58.313
E09  26967023.939 7 141712667.68607     -1885.591 7        43.688    26967024.367 9 105824396.08409     -1407.985 9        54.000    26967023.268 9 108585027.82209     -1444.759 9        57.188    26967023.872 9 107204712.02709     -1426.378 9        58.688
E10  27493323.675 7 144478391.25907      3128.801 7        43.625    27493323.658 8 107889707.62908      2336.438 8        53.688    27493322.576 9 110704217.04809      2397.469 9        57.000    27493323.171 9 109296962.41109      2366.961 9        58.500
E12  25530823.390 7 134165381.21707      2753.040 7        44.188    25530820.681 9 100188424.43109      2055.771 9        54.375    25530819.608 9 102802030.81509      2109.399 9        57.625    25530820.204 9 101495228.69709      2082.589 9        59.125
E24  26663829.387 7 140119368.80907      1730.620 7        43.938    26663828.582 9 104634590.85109      1292.381 9        54.063    26663827.516 9 107364184.19009      1326.023 9        57.313    26663828.115 9 105999387.59409      1309.195 9        58.813
E26  27080575.307 7 142309382.89407     -1986.918 7        43.813    27080574.029 9 106269988.55609     -1483.769 9        54.063    27080572.960 9 109042245.46809     -1522.476 9        57.313    27080573.569 9 107656117.58609     -1503.123 9        58.750
E31  24165766.237 7 126991959.13707       570.361 7        44.563    24165767.304 9  94831661.79209       425.919 9        54.875    24165766.220 9  97305526.54209       437.074 9        58.125    24165766.829 9  96068594.24009       431.498 9        59.625
E33  24155101.404 7 126935914.13207       391.658 7        44.563    24155100.259 9  94789801.96709       292.385 9        54.875    24155099.176 9  97262574.72209       300.037 9        58.125    24155099.770 9  96026188.41809       296.215 9        59.625
G01  20865497.130 7 109648927.71107       700.953 7        43.188    20865497.147 6        41.625    20865497.977 6  85440727.79106       546.197 6        41.625    20865498.092 8  85440722.79208       546.173 8        48.625    20865497.123 9  81880692.12909       523.424 9        55.438
G07  20583184.856 7 108165364.24907     -1578.865 7        43.313    20583184.900 6        41.813    20583182.357 6  84284691.52106     -1230.280 6        41.813    20583182.423 8  84284688.52508     -1230.329 8        48.750    20583184.569 9  80772837.04909     -1179.011 9        55.500
G08  24348021.808 6 127949716.14606     -3157.908 6        41.938    24348021.812 6        38.875    24348022.504 6  99701083.56506     -2460.708 6        38.875    24348022.630 7  99701080.56607     -2460.671 7        47.313    24348021.563 9  95546866.05709     -2358.135 9        54.125
G09  25436403.072 6 133669199.99506     -2843.558 6        41.563    25436403.098 6        38.188    25436403.288 6 104157819.90106     -2215.759 6        38.188    25436403.385 7 104157817.90107     -2215.767 7        46.938    25436403.138 8  99817909.18908     -2123.377 8        53.750
G13  23920336.342 7 125702215.59507       677.174 7        42.000    23920336.368 6        39.125    23920333.738 6  97949767.56106       527.668 6        39.125    23920333.833 7  97949765.55807       527.799 7        47.438    23920336.033 9  93868536.22709       505.796 9        54.188
G14  21652488.824 7 113784593.50607      1504.044 7        43.000    21652488.859 6        40.938    21652486.748 6  88663314.31206      1171.986 6        40.938    21652486.861 8  88663312.31508      1171.978 8        48.375    21652488.347 9  84969014.74009      1123.165 9        55.063
G17  21419225.628 7 112558788.35707      1362.457 7        42.875    21419225.645 6        41.000    21419223.001 6  87708137.09706      1061.655 6        41.000    21419223.106 8  87708137.09508      1061.696 8        48.375    21419225.173 9  84053640.01209      1017.470 9        55.125
G19  24285167.398 6 127619413.99406      2943.345 6        41.750    24285167.442 6        38.938    24285164.141 6  99443685.99206      2293.516 6        38.938    24285164.208 7  99443685.99307      2293.512 7        47.313    24285167.130 9  95300212.85409      2197.969 9        54.125
G21  22114659.073 7 116213318.44707     -1949.166 7        42.625    22114659.095 6        40.625    22114656.936 6  90555822.84006     -1518.827 6        40.625    22114657.043 8  90555822.84808     -1518.864 8        48.188    22114658.933 9  86782671.48109     -1455.550 9        54.875
G30  20598084.029 7 108243661.30407       706.529 7        43.375    20598084.051 7        42.000    20598084.676 7  84345714.04707       550.542 7        42.000    20598084.786 8  84345712.04708       550.538 8        48.938    20598084.008 9  80831305.62909       527.536 9        55.625
> 2023 01 08 11 00  0.0000000  0 19
E01  25977875.460 7 136514657.75607     -1198.658 7        44.750    25977875.448 9 101942763.33709      -895.113 9        54.438    25977874.359 9 104602135.09109      -918.521 9        57.313    25977874.951 9 103272449.28809      -906.821 9        58.938
E04  28001653.169 7 147149681.16907     -2401.110 7        44.063    28001652.362 8 109884498.78308     -1793.080 8        53.750    28001651.307 9 112751046.23509     -1839.771 9        56.563    28001651.899 9 111317772.58209     -1816.416 9        58.313
E05  27869964.793 7 146457653.42907      -187.458 7        44.063    27869965.496 8 109367731.12208      -139.953 8        53.813    27869964.425 9 112220797.68009      -143.620 9        56.563    27869965.013 9 110794264.47409      -141.791 9        58.313
E09  27076291.943 7 142286873.96907     -1940.947 7        44.375    27076292.163 9 106253186.49709     -1449.452 9        54.125    27076291.094 9 109025004.06109     -1487.187 9        56.938    27076291.686 9 107639095.35109     -1468.314 9        58.625
E10  27315031.091 7 143541457.48107      3116.777 7        44.313    27315031.097 9 107190049.28209      2327.468 9        54.000    27315029.991 9 109986306.74609      2388.257 9        56.813    27315030.600 9 108588178.08809      2357.870 9        58.500
E12  25375536.431 7 133349342.72407      2686.710 7        44.875    25375533.729 9  99579045.03409      2006.318 9        54.563    25375532.652 9 102176754.56509      2058.685 9        57.500    25375533.238 9 100877900.87309      2032.503 9        59.125
E24  26564652.934 7 139598193.21107      1744.230 7        44.500    26564652.167 9 104245401.27909      1302.541 9        54.250    26564651.095 9 106964841.84109      1336.516 9        57.125    26564651.690 9 105605121.63309      1319.535 9        58.813
E26  27196830.294 7 142920307.14807     -2084.489 7        44.438    27196829.082 9 106726198.21809     -1556.587 9        54.125    27196828.012 9 109510356.24909     -1597.222 9        57.000    27196828.597 9 108118277.80709     -1576.914 9        58.688
E31  24133808.860 7 126824021.08907       549.230 7        45.375    24133809.763 9  94706253.51109       410.147 9        55.063    24133808.695 9  97176846.74009       420.855 9        57.938    24133809.274 9  95941550.19809       415.509 9        59.625
E33  24136898.219 7 126840256.07007       246.593 7        45.250    24136897.125 9  94718368.99609       184.097 9        55.063    24136896.057 9  97189278.28609       188.871 9        58.000    24136896.645 9  95953823.71509       186.478 9        59.625
G01  20831701.474 7 109471329.70107       482.932 7        43.563    20831701.496 7        42.313    20831702.214 7  85302339.73307       376.303 7        42.313    20831702.313 8  85302334.73308       376.356 8        49.188    20831701.326 9  81748070.24109       360.647 9        55.625
G07  20678303.529 7 108665215.91907     -1752.454 7        43.813    20678303.546 7        42.500    20678300.974 7  84674186.32807     -1365.557 7        42.500    20678301.056 8  84674183.32308     -1365.447 8        49.250    20678303.163 9  81146102.90209     -1308.584 9        55.688
G08  24527800.538 7 128894461.05907     -3139.253 7        42.313    24527800.546 6        39.625    24527801.482 6 100437248.43206     -2446.175 6        39.625    24527801.577 7 100437245.43907     -2446.179 7        47.813    24527800.525 9  96252357.39209     -2344.216 9        54.250
G13  23886677.949 7 125525340.61307       502.350 7        42.438    23886677.980 6        39.938    23886675.558 6  97811942.90406       391.433 6        39.938    23886675.586 8  97811940.90708       391.466 8        48.063    23886677.829 9  93736454.26709       375.171 9        54.375
G14  21567517.392 7 113338067.06907      1472.839 7        43.375    21567517.409 6        41.938    21567515.590 6  88315371.62806      1147.659 6        41.938    21567515.674 8  88315369.63608      1147.647 8        48.938    21567517.153 9  84635569.66909      1099.875 9        55.375
G17  21344907.024 7 112168244.35707      1241.839 7        43.500    21344907.037 6        41.875    21344904.921 6  87403817.09706       967.662 6        41.875    21344905.003 8  87403817.10408       967.584 8        48.938    21344907.122 9  83762000.01809       927.316 9        55.375
G19  24118944.933 7 126745908.58307      2879.964 7        42.375    24118944.941 6        39.875    24118941.536 6  98763032.42106      2244.120 6        39.875    24118941.655 7  98763032.41807      2244.181 7        47.938    24118944.593 9  94647919.84709      2150.619 9        54.313
G21  22230484.141 7 116821983.96307     -2106.891 7        43.000    22230484.154 6        41.250    22230482.129 6  91030107.66106     -1641.741 6        41.250    22230482.174 8  91030107.66508     -1641.778 8        48.625    22230484.139 9  87237194.43209     -1573.363 9        55.000
G30  20562919.495 7 108058869.96907       525.257 7        43.875    20562919.512 7        42.813    20562920.065 7  84201720.79707       409.283 7        42.813    20562920.142 8  84201718.80608       409.270 8        49.438    20562919.363 9  80693312.10209       392.194 9        55.875
> 2023 01 08 11 05  0.0000000  0 19
E01  26047418.555 7 136880108.73007     -1237.719 7        44.438    26047418.444 9 102215665.04309      -924.282 9        54.125    26047417.373 9 104882155.96409      -948.374 9        57.375    26047417.970 9 103548910.57709      -936.330 9        58.875
E04  28137301.141 7 147862515.78807     -2350.152 7        43.625    28137300.309 8 110416810.34208     -1754.877 8        53.375    28137299.241 9 113297244.18609     -1800.681 9        56.625    28137299.821 9 111857027.33709     -1777.783 9        58.125
E05  27884145.029 7 146532170.76607      -308.786 7        43.750    27884145.678 8 109423377.18608      -230.571 8        53.438    27884144.611 9 112277895.38109      -236.594 9        56.688    27884145.187 9 110850636.35709      -233.587 9        58.188
E09  27188592.702 7 142877019.31607     -1991.932 7        44.125    27188593.086 8 106693879.45008     -1487.529 8        53.750    27188592.018 9 109477193.35509     -1526.306 9        57.000    27188592.610 9 108085536.47609     -1506.919 9        58.500
E10  27137655.213 7 142609340.83307      3096.540 7        44.125    27137655.175 8 106493988.14708      2312.375 8        53.750    27137654.104 9 109272087.50609      2372.609 9        57.000    27137654.699 9 107883037.90109      2342.481 9        58.500
E12  25224265.019 7 132554406.42107      2612.215 7        44.625    25224262.377 9  98985423.77509      1950.586 9        54.375    25224261.292 9 101567647.53209      2001.519 9        57.625    25224261.892 9 100276536.72509      1976.056 9        59.125
E24  26464781.816 7 139073367.20907      1754.698 7        44.250    26464781.093 9 103853485.76109      1310.331 9        54.063    26464780.042 9 106562702.43709      1344.537 9        57.313    26464780.629 9 105208094.17209      1327.438 9        58.750
E26  27318557.273 7 143559986.57607     -2178.817 7        44.188    27318556.045 8 107203880.90908     -1626.995 8        53.813    27318554.948 9 110000500.23409     -1669.535 9        57.063    27318555.545 9 108602191.14609     -1648.273 9        58.563
E31  24103190.997 7 126663123.32507       523.223 7        45.188    24103191.937 9  94586102.58709       390.679 9        54.750    24103190.861 9  97053561.43909       400.955 9        58.063    24103191.449 9  95819832.08609       395.831 9        59.563
E33  24127048.185 7 126788493.44907        98.837 7        45.063    24127047.027 9  94679715.09009        73.775 9        54.750    24127045.955 9  97149616.01609        75.732 9        58.063    24127046.547 9  95914665.62609        74.761 9        59.563
G01  20810496.196 7 109359895.46307       259.840 7        43.750    20810496.218 7        42.125    20810496.981 7  85215507.85707       202.477 7        42.125    20810496.999 8  85215502.85808       202.465 8        49.250    20810496.095 9  81664856.36109       194.005 9        55.750
G07  20783277.637 7 109216860.38807     -1924.205 7        43.625    20783277.663 7        42.125    20783275.408 7  85104039.16007     -1499.376 7        42.125    20783275.481 8  85104036.16708     -1499.430 8        49.188    20783277.625 9  81558045.20509     -1436.973 9        55.813
G08  24706456.742 7 129833304.49107     -3118.843 7        42.188    24706456.773 6        39.125    24706457.461 6 101168814.74306     -2430.267 6        39.125    24706457.583 7 101168811.73807     -2430.218 7        47.625    24706456.483 9  96953441.76809     -2328.959 9        54.313
G13  23863056.614 7 125401208.49407       325.623 7        42.438    23863056.636 6        39.688    23863054.021 6  97715216.57406       253.736 6        39.688    23863054.069 8  97715214.57508       253.704 8        48.000    23863056.262 9  93643758.19909       243.191 9        54.563
G14  21484462.540 7 112901610.99707      1436.648 7        43.438    21484462.553 6        41.625    21484460.768 6  87975275.98906      1119.470 6        41.625    21484460.851 8  87975273.98408      1119.544 8        48.875    21484462.338 9  84309644.67709      1072.853 9        55.500
G17  21277497.591 7 111814002.77807      1120.410 7        43.438    21277497.608 6        41.563    21277494.997 6  87127784.69606       873.051 6        41.563    21277495.036 8  87127784.70208       872.990 8        48.938    21277497.195 9  83497468.96709       836.627 9        55.438
G19  23956484.291 7 125892172.90707      2811.402 7        42.438    23956484.313 6        39.688    23956481.067 6  98097783.84606      2190.707 6        39.688    23956481.128 7  98097783.84907      2190.731 7        47.938    23956484.099 9  94010389.96809      2099.416 9        54.500
G21  22355166.312 7 117477191.94007     -2259.502 7        43.063    22355166.325 6        40.875    22355164.069 6  91540659.33006     -1760.647 6        40.875    22355164.098 8  91540659.33408     -1760.750 8        48.500    22355166.052 9  87726473.11509     -1687.397 9        55.063
G30  20538273.635 7 107929354.11407       337.851 7        43.938    20538273.652 7        42.500    20538273.990 7  84100799.35207       263.265 7        42.500    20538274.067 8  84100797.34808       263.326 8        49.375    20538273.307 9  80596595.70909       252.307 9        56.000
> 2023 01 08 11 10  0.0000000  0 19
E01  26119175.942 7 137257196.11507     -1276.600 7        44.000    26119175.803 9 102497256.27009      -953.333 9        54.125    26119174.718 9 105171093.04709      -978.130 9        57.313    26119175.309 9 103834174.73109      -965.724 9        58.813
E04  28269813.938 7 148558874.50607     -2291.584 7        43.250    28269812.961 8 110936818.48108     -1711.240 8        53.438    28269811.908 9 113830817.75509     -1755.881 9        56.500    28269812.478 9 112383818.19209     -1733.565 9        58.125
E05  27905111.572 7 146642351.63807      -425.448 7        43.250    27905112.396 8 109505655.10408      -317.614 8        53.500    27905111.325 9 112362319.68209      -325.948 9        56.688    27905111.910 9 110933987.46609      -321.785 9        58.250
E09  27303540.672 7 143481073.92907     -2034.025 7        43.563    27303540.853 8 107144959.19808     -1518.946 8        53.813    27303539.786 9 109940040.39709     -1558.478 9        56.938    27303540.372 9 108542499.87009     -1538.703 9        58.438
E10  26961542.522 7 141683862.22307      3072.241 7        43.563    26961542.453 8 105802883.99108      2294.277 8        53.875    26961541.363 9 108562954.54409      2354.071 9        57.000    26961541.969 9 107182919.34109      2324.170 9        58.563
E12  25077352.076 7 131782374.19607      2533.636 7        44.375    25077349.528 9  98408906.19309      1892.103 9        54.500    25077348.474 9 100976090.36309      1941.454 9        57.625    25077349.040 9  99692499.35109      1916.779 9        59.188
E24  26364267.687 7 138545161.90707      1766.412 7        44.000    26364266.984 9 103459046.73809      1319.054 9        54.125    26364265.907 9 106157973.70309      1353.517 9        57.250    26364266.500 9 104808510.29409      1336.287 9        58.813
E26  27445439.480 7 144226756.63107     -2265.351 7        43.688    27445438.159 8 107701793.62008     -1691.690 8        53.813    27445437.062 9 110511401.96609     -1735.813 9        57.000    27445437.661 9 109106598.36509     -1713.751 9        58.500
E31  24074065.689 7 126510068.82907       496.506 7        44.625    24074066.641 9  94471808.63909       370.846 9        54.875    24074065.568 9  96936285.91709       380.565 9        58.063    24074066.153 9  95704047.35109       375.707 9        59.563
E33  24125552.217 7 126780632.70907       -46.370 7        44.688    24125551.182 9  94673845.05909       -34.690 9        54.813    24125550.111 9  97143592.85009       -35.531 9        58.063    24125550.700 9  95908719.02809       -35.107 9        59.563
G01  20802015.806 7 109315330.15807        37.037 7        43.188    20802015.828 6        41.875    20802016.483 6  85180781.64506        28.856 6        41.875    20802016.574 8  85180776.65008        28.836 8        49.125    20802015.600 9  81631577.07509        27.662 9        55.750
G07  20897867.947 7 109819036.07707     -2089.381 7        43.313    20897867.978 6        41.875    20897865.643 6  85573266.97006     -1628.089 6        41.875    20897865.750 8  85573263.97608     -1628.114 8        49.063    20897867.855 9  82007721.85709     -1560.323 9        55.688
G08  24883765.864 6 130765069.86906     -3092.447 6        41.750    24883765.904 6        38.750    24883766.502 6 101894865.68406     -2409.703 6        38.750    24883766.571 7 101894862.69007     -2409.715 7        47.688    24883765.545 9  97649240.59409     -2309.275 9        54.188
G13  23849417.881 7 125329537.29207       152.233 7        42.125    23849417.907 6        39.375    23849415.398 6  97659368.88506       118.623 6        39.375    23849415.486 7  97659366.88907       118.726 7        47.938    23849417.724 9  93590237.50109       113.810 9        54.500
G14  21403480.426 7 112476045.87307      1399.852 7        43.063    21403480.448 6        41.375    21403478.418 6  87643666.80206      1090.790 6        41.375    21403478.533 8  87643664.80608      1090.782 8        48.938    21403479.992 9  83991852.54209      1045.372 9        55.563
G17  21216891.601 7 111495517.97507      1003.165 7        43.000    21216891.618 6        41.375    21216889.349 6  86879614.72206       781.683 6        41.375    21216889.450 8  86879614.72508       781.704 8        48.938    21216891.562 9  83259639.40709       749.152 9        55.563
G19  23797944.365 7 125059041.46507      2742.409 7        42.125    23797944.382 6        39.375    23797941.429 6  97448590.51506      2136.942 6        39.375    23797941.456 8  97448590.51708      2136.954 8        48.000    23797944.437 9  93388246.35909      2047.871 9        54.563
G21  22488272.970 7 118176671.98707     -2402.266 7        42.625    22488272.992 6        40.563    22488270.648 6  92085708.71906     -1871.900 6        40.563    22488270.713 8  92085708.72208     -1871.945 8        48.438    22488272.675 9  88248812.11309     -1793.947 9        55.000
G30  20524341.372 7 107856141.22907       149.863 7        43.438    20524341.398 7        42.313    20524342.074 7  84043750.35007       116.768 7        42.313    20524342.139 8  84043748.36508       116.617 8        49.375    20524341.345 9  80541923.76209       111.766 9        56.000
> 2023 01 08 11 15  0.0000000  0 19
E01  26193257.615 7 137646498.13407     -1319.177 7        44.438    26193257.512 9 102787968.82309      -985.158 9        54.375    26193256.422 9 105469389.40709     -1010.830 9        57.375    26193257.025 9 104128679.18809      -997.992 9        59.000
E04  28398894.519 7 149237197.17407     -2229.854 7        43.563    28398893.475 8 111443358.13808     -1665.158 8        53.625    28398892.399 9 114350571.49109     -1708.633 9        56.563    28398892.987 9 112896964.88809     -1686.906 9        58.250
E05  27932705.268 7 146787357.24407      -540.901 7        43.813    27932706.021 8 109613938.51708      -403.931 8        53.813    27932704.966 9 112473427.88109      -414.513 9        56.750    27932705.555 9 111043683.27209      -409.224 9        58.375
E09  27420741.433 7 144096968.65407     -2071.104 7        44.000    27420741.740 9 107604880.58009     -1546.564 9        54.000    27420740.657 9 110411959.72909     -1586.841 9        56.938    27420741.255 9 109008420.22709     -1566.697 9        58.563
E10  26787033.978 7 140766813.51307      3040.201 7        44.063    26787033.878 9 105118074.89709      2270.245 9        54.125    26787032.813 9 107860280.85209      2329.569 9        57.125    26787033.402 9 106489177.94809      2299.912 9        58.750
E12  24935125.694 7 131034969.39907      2447.979 7        44.813    24935123.111 9  97850779.24509      1827.938 9        54.750    24935122.025 9 100403403.58309      1875.648 9        57.813    24935122.637 9  99127092.48809      1851.797 9        59.438
E24  26263169.811 7 138013888.69607      1775.041 7        44.500    26263169.035 9 103062316.74109      1325.498 9        54.438    26263167.961 9 105750894.22809      1360.116 9        57.375    26263168.565 9 104406605.55809      1342.811 9        59.000
E26  27577147.504 7 144918886.58207     -2347.976 7        44.125    27577146.114 9 108218643.91209     -1753.355 9        54.125    27577145.032 9 111041735.30709     -1799.070 9        57.000    27577145.624 9 109630190.18209     -1776.213 9        58.625
E31  24046589.605 7 126365681.13007       465.381 7        45.125    24046590.577 9  94363986.66309       347.438 9        55.063    24046589.500 9  96825651.19009       356.578 9        58.125    24046590.089 9  95594818.99909       352.014 9        59.750
E33  24132378.035 7 126816502.60207      -192.713 7        45.188    24132377.010 9  94700631.01409      -143.846 9        55.000    24132375.916 9  97171077.57109      -147.635 9        58.125    24132376.512 9  95935854.36509      -145.742 9        59.688
G01  20806327.712 7 109337991.02707      -188.325 7        43.313    20806327.738 7        42.063    20806328.698 7  85198439.46707      -146.747 7        42.063    20806328.761 8  85198434.46608      -146.677 8        49.063    20806327.814 9  81648499.15009      -140.546 9        55.625
G07  21021789.587 7 110470248.57007     -2251.115 7        43.313    21021789.613 6        41.875    21021787.246 6  86080705.27506     -1754.116 6        41.875    21021787.339 8  86080702.28508     -1754.206 8        49.000    21021789.468 9  82494016.89809     -1681.075 9        55.563
G08  25059520.565 6 131688666.59506     -3064.495 6        41.625    25059520.591 6        38.875    25059521.109 6 102614551.44606     -2387.922 6        38.875    25059521.250 7 102614548.44807     -2387.930 7        47.313    25059520.149 9  98338939.44509     -2288.417 9        54.063
G13  23845658.497 7 125309783.28607       -20.463 7        42.125    23845658.514 6        39.688    23845656.374 6  97643976.15306       -15.945 6        39.688    23845656.408 7  97643974.15007       -15.896 7        47.875    23845658.637 9  93575486.13209       -15.273 9        54.438
G14  21324737.488 7 112062250.11207      1358.138 7        43.125    21324737.510 6        41.688    21324735.707 6  87321228.54606      1058.285 6        41.688    21324735.776 8  87321226.54408      1058.273 8        48.875    21324737.285 9  83682849.21409      1014.127 9        55.438
G17  21162959.035 7 111212100.11007       886.588 7        43.125    21162959.052 6        41.625    21162956.730 6  86658769.63306       690.847 6        41.625    21162956.805 8  86658769.64008       690.835 8        48.813    21162958.928 9  83047996.20109       662.050 9        55.438
G19  23643464.731 7 124247242.51707      2669.180 7        42.313    23643464.748 6        39.813    23643461.224 6  96816019.90406      2079.880 6        39.813    23643461.331 7  96816019.90707      2079.823 7        47.938    23643464.256 9  92782032.85709      1993.168 9        54.438
G21  22629345.700 7 118918013.31707     -2538.645 7        42.563    22629345.726 6        40.563    22629343.235 6  92663377.28706     -1978.169 6        40.563    22629343.352 8  92663377.29608     -1978.234 8        48.313    22629345.260 9  88802411.15809     -1895.800 9        54.875
G30  20521271.425 7 107840007.44507       -42.645 7        43.625    20521271.451 7        42.500    20521271.912 7  84031178.57207       -33.230 7        42.500    20521271.949 8  84031176.57008       -33.205 8        49.250    20521271.224 9  80529875.79409       -31.810 9        55.875
> 2023 01 08 11 20  0.0000000  0 19
E01  26269773.296 7 138048590.27107     -1362.079 7        44.500    26269773.087 9 103088232.42409     -1017.133 9        54.250    26269772.022 9 105777485.97509     -1043.614 9        57.375    26269772.609 9 104432859.27409     -1030.372 9        58.938
E05  27966747.890 7 146966252.13107      -651.525 7        43.875    27966748.589 8 109747528.84808      -486.461 8        53.688    27966747.547 9 112610503.17909      -499.200 9        56.750    27966748.135 9 111179016.08609      -492.834 9        58.375
E09  27539803.782 7 144722646.16707     -2099.508 7        44.063    27539804.197 8 108072107.29008     -1567.740 8        53.938    27539803.122 9 110891374.96909     -1608.669 9        56.938    27539803.715 9 109481741.20209     -1588.208 9        58.563
E10  26614472.316 7 139859995.97707      3003.752 7        44.250    26614472.275 9 104440905.94809      2243.191 9        54.188    26614471.172 9 107165446.63409      2301.636 9        57.375    26614471.766 9 105803176.36509      2272.402 9        58.875
E12  24797905.902 7 130313873.18107      2358.134 7        44.875    24797903.079 9  97312298.29809      1760.948 9        54.750    24797902.002 9  99850875.30009      1806.938 9        57.938    24797902.591 9  98581587.87209      1783.949 9        59.500
E24  26161563.397 7 137479944.05707      1784.027 7        44.438    26161562.769 9 102663591.85209      1332.130 9        54.375    26161561.706 9 105341767.81909      1366.929 9        57.500    26161562.282 9 104002679.90909      1349.537 9        59.063
E26  27713349.296 7 145634632.28807     -2423.018 7        44.000    27713348.007 8 108753129.33608     -1809.404 8        53.938    27713346.900 9 111590163.83309     -1856.626 9        57.063    27713347.491 9 110171647.15709     -1833.013 9        58.625
E31  24020931.039 7 126230844.59907       432.705 7        45.250    24020932.029 9  94263297.04109       323.081 9        55.063    24020930.954 9  96722334.88609       331.557 9        58.188    24020931.552 9  95492816.03709       327.319 9        59.813
E33  24147467.909 7 126895800.43607      -336.044 7        45.125    24147466.869 9  94759846.93509      -251.001 9        55.000    24147465.804 9  97231838.25309      -257.504 9        58.188    24147466.379 9  95995842.66809      -254.251 9        59.750
G01  20823442.643 7 109427929.12507      -411.480 7        43.375    20823442.669 7        42.125    20823443.329 7  85268521.10007      -320.634 7        42.125    20823443.398 8  85268516.10808      -320.666 8        48.750    20823442.496 9  81715660.72309      -307.301 9        55.375
G03  25404965.862 6 133503995.75306      2291.090 6        41.625    25404965.866 6        38.688    25404965.922 6 104029089.28006      1785.265 6        38.688    25404966.088 7 104029085.28107      1785.323 7        47.000    25404965.620 8  99694541.64108      1710.934 8        53.688
G07  21154724.245 7 111168825.97707     -2405.251 7        43.125    21154724.280 6        41.813    21154722.142 6  86625051.30806     -1874.221 6        41.813    21154722.173 8  86625048.32208     -1874.303 8        48.688    21154724.331 9  83015681.85209     -1796.227 9        55.188
G08  25233537.021 6 132603131.93006     -3031.961 6        41.625    25233537.038 6        38.688    25233538.102 6 103327121.83806     -2362.567 6        38.688    25233538.181 7 103327118.83407     -2362.448 7        47.125    25233537.108 8  99021819.40108     -2264.052 8        53.750
G13  23851634.774 7 125341188.01807      -188.682 7        42.125    23851634.782 6        39.625    23851632.480 6  97668447.37306      -147.021 6        39.625    23851632.579 7  97668445.37807      -147.082 7        47.563    23851634.776 9  93598937.72209      -140.950 9        54.125
G14  21248420.410 7 111661201.90107      1314.636 7        43.063    21248420.432 6        41.813    21248418.767 6  87008723.44806      1024.392 6        41.813    21248418.872 8  87008721.45308      1024.363 8        48.625    21248420.341 9  83383365.16209       981.721 9        55.250
G17  21115550.724 7 110962966.97207       774.403 7        43.063    21115550.732 6        41.750    21115548.257 6  86464639.91506       603.435 6        41.750    21115548.388 8  86464639.91608       603.460 8        48.625    21115550.488 9  82861955.21809       578.319 9        55.188
G19  23493170.311 7 123457440.42207      2595.536 7        42.250    23493170.328 6        40.063    23493166.864 6  96200589.70506      2022.499 6        40.063    23493166.991 7  96200589.70907      2022.487 7        47.750    23493169.894 9  92192245.58209      1938.193 9        54.313
G21  22777910.734 7 119698728.22907     -2665.065 7        42.625    22777910.760 6        40.500    22777908.352 6  93271726.56606     -2076.674 6        40.500    22777908.407 8  93271726.57108     -2076.617 8        48.063    22777910.362 9  89385412.54709     -1990.075 9        54.563
G30  20529169.436 7 107881510.90307      -234.685 7        43.500    20529169.458 7        42.500    20529169.760 7  84063518.92707      -182.871 7        42.500    20529169.813 8  84063516.93008      -182.900 8        49.000    20529169.070 9  80560868.63309      -175.193 9        55.625
> 2023 01 08 11 25  0.0000000  0 19
E01  26348823.922 7 138464003.89507     -1408.560 7        44.188    26348823.721 9 103398443.90209     -1051.870 9        54.125    26348822.616 9 106095789.92609     -1079.286 9        57.375    26348823.200 9 104747116.98809     -1065.582 9        58.875
E05  28007036.606 7 147177971.93707      -760.325 7        43.500    28007037.562 8 109905631.29708      -567.677 8        53.500    28007036.478 9 112772730.03709      -582.546 9        56.750    28007037.066 9 111339180.74009      -575.117 9        58.313
E09  27660333.026 7 145356031.03307     -2122.835 7        43.750    27660333.345 8 108545089.50208     -1585.281 8        53.625    27660332.254 9 111376695.84109     -1626.616 9        57.063    27660332.858 9 109960892.74409     -1605.946 9        58.500
E10  26444194.138 7 138965177.53107      2959.720 7        44.250    26444193.969 9 103772697.37809      2210.184 9        54.063    26444192.890 9 106479806.53709      2267.805 9        57.313    26444193.474 9 105126252.03109      2238.993 9        58.875
E12  24665995.314 7 129620679.64807      2261.336 7        44.688    24665992.743 9  96794653.77209      1688.649 9        54.625    24665991.675 9  99319727.01109      1732.712 9        58.063    24665992.257 9  98057191.46509      1710.682 9        59.438
E24  26059533.563 7 136943773.38207      1789.345 7        44.250    26059532.888 9 102263204.65909      1336.148 9        54.250    26059531.812 9 104930935.74509      1371.044 9        57.563    26059532.403 9 103597070.27509      1353.596 9        59.063
E26  27853705.154 7 146372207.80907     -2494.035 7        43.750    27853703.935 8 109303916.25308     -1862.428 8        53.813    27853702.845 9 112155319.10309     -1911.026 9        57.063    27853703.451 9 110729618.25209     -1886.733 9        58.563
E31  23997262.195 7 126106463.42407       395.095 7        45.000    23997263.097 9  94170414.99309       295.030 9        54.875    23997262.013 9  96627029.82709       302.691 9        58.188    23997262.601 9  95398722.48209       298.859 9        59.750
E33  24170732.819 7 127018058.65607      -479.538 7        44.813    24170731.840 9  94851143.65909      -358.112 9        54.813    24170730.783 9  97325516.63309      -367.494 9        58.250    24170731.364 9  96088330.21909      -362.811 9        59.688
G01  20853304.409 7 109584854.08407      -635.150 7        43.188    20853304.426 6        41.875    20853305.174 6  85390800.29106      -494.914 6        41.875    20853305.194 8  85390795.29908      -494.955 8        48.938    20853304.303 9  81832844.94809      -474.336 9        55.750
G03  25273821.456 6 132814826.49806      2300.770 6        41.500    25273821.473 6        38.563    25273821.384 6 103492074.27606      1792.812 6        38.563    25273821.446 7 103492070.27407      1792.869 7        47.375    25273821.066 9  99179902.26009      1718.151 9        54.063
G07  21296316.413 7 111912894.90207     -2554.904 7        43.000    21296316.453 6        41.500    21296313.723 6  87204845.27406     -1990.830 6        41.500    21296313.829 8  87204842.27308     -1990.830 8        48.750    21296315.925 9  83571317.72509     -1907.871 9        55.500
G08  25405650.190 6 133507591.75206     -2998.292 6        41.438    25405650.225 6        38.563    25405651.064 6 104031895.72806     -2336.332 6        38.563    25405651.144 7 104031892.73607     -2336.417 7        47.250    25405650.107 9  99697227.72109     -2239.074 9        54.000
G13  23867155.025 7 125422746.59807      -355.335 7        42.000    23867155.047 6        39.563    23867152.539 6  97731999.51406      -276.884 6        39.563    23867152.616 7  97731997.51307      -276.815 7        47.688    23867154.846 9  93659841.84509      -265.257 9        54.500
G14  21174726.686 7 111273939.72507      1265.596 7        43.000    21174726.708 6        41.750    21174725.251 6  86706960.71706       986.183 6        41.750    21174725.330 8  86706958.72408       986.105 8        48.938    21174726.797 9  83094175.88009       945.092 9        55.688
G17  21074494.616 7 110747215.75907       663.517 7        43.063    21074494.629 6        41.625    21074492.153 6  86296522.08906       517.026 6        41.625    21074492.259 8  86296522.08708       517.079 8        48.938    21074494.384 9  82700842.29809       495.491 9        55.625
G19  23347168.794 7 122690197.60907      2518.255 7        42.313    23347168.807 6        39.875    23347165.401 6  95602738.16006      1962.281 6        39.875    23347165.549 8  95602738.16508      1962.244 8        48.000    23347168.441 9  91619304.51809      1880.484 9        54.688
G21  22933476.929 7 120516234.26307     -2784.486 7        42.375    22933476.960 6        40.313    22933474.568 6  93908744.25906     -2169.725 6        40.313    22933474.650 8  93908744.26708     -2169.778 8        48.188    22933476.618 9  89995887.84109     -2079.347 9        54.875
G30  20548091.581 7 107980947.04007      -429.210 7        43.375    20548091.589 7        42.375    20548091.830 7  84141001.63107      -334.445 7        42.375    20548091.893 8  84140999.63508      -334.454 8        49.188    20548091.121 9  80635122.89609      -320.487 9        56.000
> 2023 01 08 11 30  0.0000000  0 19
E01  26430506.581 7 138893250.01107     -1454.168 7        44.000    26430506.505 9 103718984.82909     -1085.838 9        54.125    26430505.439 9 106424692.79209     -1114.184 9        57.500    26430506.003 9 105071838.88409     -1100.017 9        58.938
E05  28053351.480 7 147421356.61707      -862.409 7        43.438    28053352.092 8 110087379.59808      -643.956 8        53.563    28053351.048 9 112959219.59909      -660.771 9        56.875    28053351.633 9 111523299.67209      -652.363 9        58.375
E09  27781937.020 7 145995064.20707     -2136.923 7        43.688    27781937.300 8 109022289.59408     -1595.798 8        53.688    27781936.247 9 111866344.63709     -1637.415 9        57.063    27781936.823 9 110444317.18909     -1616.604 9        58.500
E10  26276533.386 7 138084114.77307      2912.346 7        44.063    26276533.292 9 103114760.90209      2174.737 9        54.188    26276532.240 9 105804706.49409      2231.514 9        57.500    26276532.813 9 104459733.77009      2203.127 9        59.000
E12  24539685.348 7 128956916.16607      2162.226 7        44.625    24539682.746 9  96298986.24209      1614.614 9        54.688    24539681.672 9  98811129.01909      1656.759 9        58.188    24539682.254 9  97555058.70309      1635.690 9        59.563
E24  25957179.492 7 136405899.23807      1795.420 7        44.250    25957178.840 9 101861545.39609      1340.708 9        54.313    25957177.742 9 104518798.41009      1375.780 9        57.750    25957178.344 9 103190171.97509      1358.255 9        59.125
E26  27997874.356 7 147129821.57907     -2556.428 7        43.750    27997873.045 8 109869666.79308     -1909.036 8        53.688    27997871.981 9 112735828.35509     -1958.833 9        57.125    27997872.560 9 111302748.14709     -1933.933 9        58.563
E31  23975763.066 7 125993485.17107       356.838 7        44.938    23975764.024 9  94086048.11309       266.509 9        54.938    23975762.967 9  96540462.07409       273.421 9        58.375    23975763.550 9  95313255.16609       269.957 9        59.813
E33  24202058.569 7 127182677.21607      -618.239 7        44.750    24202057.681 9  94974073.09909      -461.676 9        54.875    24202056.646 9  97451652.92709      -473.696 9        58.313    24202057.227 9  96212863.08609      -467.682 9        59.750
G01  20895799.603 7 109808167.41407      -853.723 7        43.438    20895799.625 6        41.750    20895800.297 6  85564810.67806      -665.230 6        41.750    20895800.381 8  85564805.68008      -665.247 8        48.813    20895799.411 9  81999604.89809      -637.544 9        55.438
G03  25142331.618 6 132123844.20006      2303.403 6        41.750    25142331.644 6        38.688    25142331.847 6 102953646.51306      1794.863 6        38.688    25142331.989 7 102953642.51107      1794.818 7        47.313    25142331.531 8  98663908.98908      1719.999 8        53.938
G06  24879230.195 6 130741237.65306      3818.734 6        41.813    24879230.226 6        38.750    24879230.731 6 101876292.46206      2975.645 6        38.750    24879230.835 7 101876289.46207      2975.690 7        47.313    24879230.025 8  97631442.31508      2851.676 8        53.938
G07  21446177.581 7 112700422.20207     -2694.735 7        43.063    21446177.621 6        41.313    21446175.181 6  87818502.91206     -2099.789 6        41.313    21446175.271 8  87818499.90908     -2099.810 8        48.625    21446177.389 9  84159406.29609     -2012.373 9        55.188
G13  23891987.813 7 125553242.68307      -514.768 7        42.125    23891987.826 6        39.500    23891985.128 6  97833684.77706      -401.113 6        39.500    23891985.196 7  97833682.77707      -401.023 7        47.625    23891987.411 9  93757290.22709      -384.342 9        54.313
G14  21103870.437 7 110901586.81007      1215.274 7        43.250    21103870.468 6        41.750    21103868.841 6  86416815.58606       946.971 6        41.750    21103868.929 8  86416813.58508       947.000 8        48.750    21103870.392 9  82816120.12609       907.553 9        55.438
G17  21039603.008 7 110563860.38907       558.705 7        43.125    21039603.021 6        41.625    21039600.798 6  86153647.77406       435.363 6        41.625    21039600.889 8  86153647.77608       435.371 8        48.688    21039603.019 9  82563921.08009       417.226 9        55.313
G19  23205552.644 7 121946001.82507      2442.068 7        42.438    23205552.675 6        40.000    23205549.683 6  95022845.34306      1902.910 6        40.000    23205549.787 8  95022845.34508      1902.930 8        48.000    23205552.718 9  91063573.89609      1823.634 9        54.500
G21  23095543.649 7 121367900.64707     -2892.540 7        42.500    23095543.675 6        40.063    23095541.284 6  94572380.40106     -2253.923 6        40.063    23095541.452 8  94572380.40508     -2253.960 8        48.063    23095543.313 9  90631872.47609     -2159.982 9        54.563
G30  20578047.818 7 108138370.98207      -620.898 7        43.563    20578047.831 7        42.250    20578048.652 7  84263669.63907      -483.813 7        42.250    20578048.647 8  84263667.64508      -483.833 8        49.063    20578047.933 9  80752679.73709      -463.693 9        55.688
> 2023 01 08 11 35  0.0000000  0 20
E01  26514911.634 7 139336800.54207     -1502.299 7        44.313    26514911.354 8 104050207.63208     -1121.898 8        53.938    26514910.279 9 106764556.18809     -1151.136 9        56.813    26514910.875 9 105407381.98309     -1136.519 9        58.500
E05  28105451.040 7 147695141.71607      -961.251 7        43.750    28105451.688 8 110291829.51708      -717.892 8        53.313    28105450.619 9 113169002.99309      -736.591 9        56.188    28105451.201 9 111730416.32809      -727.240 9        57.938
E09  27904225.485 7 146637694.61307     -2145.368 7        43.813    27904225.793 8 109502175.93908     -1602.065 8        53.438    27904224.729 9 112358749.75409     -1643.829 9        56.313    27904225.317 9 110930462.91909     -1622.945 9        58.063
E10  26111818.497 7 137218532.12707      2857.998 7        44.438    26111818.390 9 102468384.24709      2134.310 9        54.063    26111817.320 9 105141467.84009      2189.951 9        56.875    26111817.895 9 103804926.11609      2162.129 9        58.625
E11  28316131.695 7 148802275.67807      3100.040 7        43.563    28316128.434 8 111118570.28608      2314.894 8        53.188    28316127.362 9 114017310.90809      2375.335 9        56.125    28316127.935 9 112567941.67009      2345.124 9        57.813
E12  24419249.436 7 128324021.24907      2057.141 7        44.938    24419246.832 9  95826369.90209      1536.236 9        54.625    24419245.758 9  98326183.55909      1576.275 9        57.500    24419246.350 9  97076277.80409      1556.250 9        59.188
E24  25854612.629 7 135866906.99107      1798.294 7        44.625    25854612.006 9 101459051.18009      1342.882 9        54.188    25854610.942 9 104105804.35109      1377.942 9        57.063    25854611.530 9 102782427.83909      1360.406 9        58.750
E26  28145513.147 7 147905669.74407     -2614.054 7        44.000    28145512.029 8 110449033.92808     -1952.089 8        53.500    28145510.975 9 113330309.41109     -2002.957 9        56.375    28145511.550 9 111889672.24209     -1977.519 9        58.125
E31  23956618.721 7 125892881.53507       314.151 7        45.188    23956619.811 9  94010922.02509       234.609 9        54.813    23956618.741 9  96463376.17509       240.693 9        57.688    23956619.309 9  95237149.17409       237.649 9        59.375
E33  24241304.439 7 127388914.51807      -755.375 7        45.000    24241303.360 9  95128081.47609      -564.090 9        54.688    24241302.299 9  97609678.91309      -578.814 9        57.563    24241302.871 9  96368880.26709      -571.456 9        59.250
G01  20950754.714 7 110096956.97107     -1070.020 7        43.313    20950754.745 6        41.500    20950755.131 6  85789841.50206      -833.782 6        41.500    20950755.184 8  85789836.50508      -833.818 8        48.438    20950754.238 9  82215259.43309      -798.998 9        55.250
G03  25011059.099 6 131434002.54606      2294.795 6        41.750    25011059.125 6        38.500    25011059.350 6 102416107.56306      1788.152 6        38.500    25011059.444 7 102416103.56607      1788.156 7        47.000    25011059.000 8  98148767.50008      1713.599 8        53.750
G06  24661250.542 6 129595745.07406      3817.184 6        41.813    24661250.550 6        38.500    24661250.739 6 100983700.84406      2974.429 6        38.500    24661250.828 7 100983697.84307      2974.466 7        47.000    24661250.053 8  96776042.01408      2850.534 8        53.813
G07  21603891.784 7 113529215.41507     -2828.402 7        43.000    21603891.824 6        41.000    21603889.311 6  88464315.80406     -2203.949 6        41.000    21603889.310 8  88464312.80508     -2203.855 8        48.188    21603891.503 9  84778310.32009     -2112.079 9        54.938
G13  23925859.620 7 125731243.02907      -670.232 7        42.188    23925859.633 6        39.125    23925857.486 6  97972386.34006      -522.259 6        39.125    23925857.530 7  97972384.33807      -522.255 7        47.313    23925859.773 9  93890212.56109      -500.514 9        54.063
G14  21036077.445 7 110545332.39707      1159.792 7        43.375    21036077.476 6        41.438    21036075.878 6  86139214.74606       903.734 6        41.438    21036075.988 8  86139212.75208       903.713 8        48.500    21036077.431 9  82550085.99409       866.062 9        55.250
G17  21010671.642 7 110411826.92707       456.347 7        43.188    21010671.673 6        41.313    21010669.794 6  86035180.13906       355.591 6        41.313    21010669.853 8  86035180.14608       355.567 8        48.438    21010672.023 9  82450389.60209       340.743 9        55.188
G19  23068398.530 7 121225251.56407      2363.599 7        42.625    23068398.561 6        39.813    23068395.459 6  94461221.76606      1841.766 6        39.813    23068395.534 7  94461221.77207      1841.713 7        47.625    23068398.484 9  90525351.30709      1765.006 9        54.375
G21  23263601.771 7 122251051.30007     -2992.885 7        42.438    23263601.815 6        39.750    23263599.291 6  95260549.73606     -2332.118 6        39.750    23263599.423 7  95260549.73507     -2332.032 7        47.563    23263601.294 9  91291368.08109     -2234.919 9        54.313
G30  20619001.052 7 108353580.17607      -812.781 7        43.500    20619001.053 7        42.000    20619001.526 7  84431365.11307      -633.336 7        42.000    20619001.691 8  84431363.11208      -633.266 8        48.688    20619000.848 9  80913387.89509      -606.880 9        55.500
> 2023 01 08 11 40  0.0000000  0 20
E01  26602118.965 7 139795079.29407     -1552.711 7        43.813    26602118.896 8 104392428.77508     -1159.488 8        53.813    26602117.826 9 107115704.84109     -1189.703 9        56.875    26602118.426 9 105754066.88209     -1174.596 9        58.438
E05  28163075.391 7 147997959.43707     -1056.215 7        43.188    28163075.970 8 110517959.63108      -788.799 8        53.188    28163074.909 9 113401032.15409      -809.372 9        56.313    28163075.499 9 111959495.96609      -799.083 9        57.938
E09  28026809.802 7 147281879.92907     -2147.764 7        43.313    28026810.196 8 109983223.41508     -1603.807 8        53.313    28026809.131 9 112852346.29209     -1645.649 9        56.500    28026809.716 9 111417784.92609     -1624.730 9        58.063
E10  25950369.211 7 136370110.47007      2797.571 7        44.000    25950369.114 9 101834822.62109      2089.075 9        54.000    25950368.038 9 104491378.52909      2143.541 9        57.063    25950368.635 9 103163100.64809      2116.308 9        58.688
E11  28139291.003 7 147872971.28007      3094.864 7        43.188    28139287.699 8 110424609.20208      2311.088 8        53.188    28139286.613 9 113305246.49709      2371.333 9        56.250    28139287.193 9 111864928.92309      2341.205 9        57.875
E12  24304942.170 7 127723332.00607      1947.096 7        44.500    24304939.474 9  95377803.26209      1454.020 9        54.500    24304938.414 9  97865915.18409      1491.943 9        57.688    24304938.996 9  96621860.29709      1472.973 9        59.250
E24  25751955.499 7 135327439.50907      1798.152 7        44.125    25751954.785 9 101056202.08609      1342.803 9        54.125    25751953.709 9 103692446.14909      1377.829 9        57.250    25751954.287 9 102374324.19009      1360.314 9        58.813
E26  28296276.987 7 148697938.47507     -2666.253 7        43.375    28296275.760 8 111040663.17708     -1991.139 8        53.313    28296274.680 9 113937372.46509     -2043.017 9        56.563    28296275.274 9 112489018.39409     -2017.074 9        58.063
E31  23940016.908 7 125805638.20807       267.392 7        44.625    23940017.938 9  93945772.79209       199.570 9        54.688    23940016.883 9  96396527.38909       204.897 9        57.813    23940017.476 9  95171150.16309       202.245 9        59.375
E33  24288302.055 7 127635888.69707      -890.214 7        44.500    24288300.986 9  95312510.24109      -664.738 9        54.563    24288299.914 9  97798918.86909      -682.079 9        57.688    24288300.496 9  96555714.62909      -673.409 9        59.250
G01  21017937.164 7 110450004.33607     -1282.481 7        43.688    21017937.190 6        41.500    21017937.804 6  86064943.34406      -999.340 6        41.500    21017937.885 8  86064938.34108      -999.295 8        48.813    21017936.921 9  82478898.69909      -957.658 9        55.313
G03  24880575.020 7 130748303.00507      2275.362 7        42.250    24880575.046 6        38.625    24880575.047 6 101881796.22706      1773.005 6        38.625    24880575.153 7 101881792.23307      1772.927 7        47.250    24880574.721 8  97636719.13708      1699.083 8        53.938
G06  24443609.907 7 128452038.63707      3806.506 7        42.313    24443609.915 6        38.750    24443610.658 6 100092501.01806      2966.104 6        38.750    24443610.753 7 100092498.02307      2966.039 7        47.313    24443609.963 9  95921975.52009      2842.438 9        54.000
G07  21769012.868 7 114396933.01507     -2954.707 7        43.313    21769012.917 6        40.875    21769010.453 6  89140459.38806     -2302.373 6        40.875    21769010.551 8  89140456.39108     -2302.303 8        48.375    21769012.679 9  85426281.24809     -2206.362 9        54.938
G13  23968459.038 7 125955102.80207      -820.658 7        42.438    23968459.046 6        39.125    23968456.592 6  98146822.52906      -639.482 6        39.125    23968456.656 7  98146820.54007      -639.580 7        47.563    23968458.866 9  94057380.57709      -612.892 9        54.125
G14  20971585.007 7 110206421.70007      1099.191 7        43.750    20971585.033 6        41.563    20971583.294 6  85875128.48806       856.508 6        41.563    20971583.364 8  85875126.48908       856.541 8        48.750    20971584.887 9  82297003.31909       820.906 9        55.375
G17  20987481.176 7 110289958.78607       357.174 7        43.688    20987481.207 6        41.375    20987479.048 6  85940217.95106       278.314 6        41.375    20987479.126 8  85940217.95408       278.318 8        48.688    20987481.269 9  82359384.17109       266.709 9        55.250
G19  22935763.641 7 120528251.46807      2283.334 7        42.875    22935763.663 6        40.000    22935760.735 6  93918104.80406      1779.217 6        40.000    22935760.814 8  93918104.80408      1779.320 8        48.000    22935763.780 9  90004864.21809      1705.138 9        54.500
G21  23437135.148 7 123162976.30107     -3084.632 7        42.625    23437135.188 6        39.625    23437132.808 6  95971140.65006     -2403.618 6        39.625    23437132.880 7  95971140.65807     -2403.769 7        47.813    23437134.865 9  91972351.05609     -2303.601 9        54.375
G30  20670861.557 7 108626109.05407     -1003.407 7        43.938    20670861.570 7        42.063    20670862.072 7  84643725.27807      -781.880 7        42.063    20670862.217 8  84643723.27508      -781.794 8        49.000    20670861.386 9  81116899.72109      -749.254 9        55.563
> 2023 01 08 11 45  0.0000000  0 20
E01  26692203.939 7 140268478.34407     -1602.975 7        44.063    26692203.746 8 104745941.05308     -1197.094 8        53.688    26692202.694 9 107478439.17409     -1228.262 9        56.938    26692203.269 9 106112190.18609     -1212.676 9        58.438
E05  28225949.352 7 148328365.37807     -1145.088 7        43.563    28225950.169 8 110764691.33408      -855.024 8        53.188    28225949.088 9 113654200.34109      -877.425 9        56.375    28225949.656 9 112209445.91109      -866.232 9        57.938
E09  28149308.126 7 147925612.13807     -2142.326 7        43.563    28149308.358 8 110463932.52008     -1599.714 8        53.250    28149307.281 9 113345595.64109     -1641.430 9        56.500    28149307.871 9 111904764.15509     -1620.572 9        58.000
E10  25792499.607 7 135540500.83407      2732.813 7        44.313    25792499.637 9 101215308.93009      2040.753 9        54.063    25792498.594 9 103855703.60809      2093.974 9        57.313    25792499.163 9 102535506.34209      2067.367 9        58.750
E11  27962866.419 7 146945853.26107      3085.589 7        43.563    27962862.984 8 109732280.82008      2304.126 8        53.188    27962861.935 9 112594857.36909      2364.242 9        56.438    27962862.513 9 111163570.16809      2334.188 9        58.000
E12  24197000.990 7 127156097.34307      1834.339 7        44.875    24196998.293 9  94954218.94009      1369.755 9        54.500    24196997.247 9  97431280.83209      1405.544 9        57.813    24196997.824 9  96192750.95909      1387.649 9        59.313
E24  25649344.915 7 134788216.90207      1796.523 7        44.438    25649344.118 9 100653535.85209      1341.709 9        54.125    25649343.066 9 103279275.57709      1376.718 9        57.375    25649343.633 9 101966405.78709      1359.217 9        58.813
E26  28449823.573 7 149504831.26607     -2711.420 7        43.563    28449822.367 8 111643212.99008     -2024.809 8        53.250    28449821.286 9 114555640.96809     -2077.577 9        56.500    28449821.868 9 113099427.55109     -2051.183 9        58.063
E31  23926150.511 7 125732769.71007       218.341 7        45.000    23926151.533 9  93891357.99709       163.079 9        54.688    23926150.469 9  96340693.08409       167.317 9        57.938    23926151.051 9  95116025.61409       165.198 9        59.438
E33  24342862.357 7 127922604.93307     -1020.265 7        44.750    24342861.296 9  95526616.51909      -761.871 9        54.500    24342860.203 9  98018610.52109      -781.665 9        57.750    24342860.794 9  96772613.59409      -771.764 9        59.250
G01  21097064.669 7 110865820.49807     -1488.258 7        43.125    21097064.695 6        41.688    21097064.982 6  86388955.93406     -1159.677 6        41.688    21097065.090 8  86388950.94008     -1159.657 8        48.563    21097064.101 9  82789410.76709     -1111.322 9        55.063
G03  24751461.020 6 130069804.91806      2246.827 6        41.875    24751461.042 6        39.063    24751461.171 6 101353096.42506      1750.774 6        39.063    24751461.267 7 101353092.42807      1750.754 7        47.250    24751460.826 8  97130048.48908      1677.790 8        53.750
G06  24226803.691 6 127312714.02906      3788.245 6        41.875    24226803.722 6        39.250    24226804.383 6  99204715.61206      2951.879 6        39.250    24226804.432 7  99204712.62007      2951.805 7        47.375    24226803.691 8  95071181.17408      2828.802 8        53.875
G07  21941073.769 7 115301120.41407     -3071.363 7        42.688    21941073.818 6        40.938    21941071.626 6  89845021.00006     -2393.270 6        40.938    21941071.716 8  89845017.99908     -2393.229 8        48.250    21941073.797 9  86101486.12709     -2293.531 9        54.750
G13  24019437.860 6 126222997.92406      -963.532 6        41.875    24019437.864 6        39.438    24019435.316 6  98355571.97306      -750.804 6        39.438    24019435.341 7  98355569.97307      -750.874 7        47.438    24019437.612 9  94257432.12209      -719.528 9        54.000
G14  20910643.058 7 109886170.16407      1035.536 7        43.125    20910643.071 6        41.938    20910641.459 6  85625581.83206       806.911 6        41.938    20910641.594 8  85625579.84108       806.879 8        48.625    20910643.037 9  82057854.45409       773.223 9        55.188
G17  20969800.745 7 110197047.61807       263.424 7        43.313    20969800.776 6        41.688    20969798.646 6  85867819.64106       205.266 6        41.688    20969798.799 8  85867819.64408       205.307 8        48.563    20969800.860 9  82290002.45409       196.717 9        55.063
G19  22807692.782 7 119855233.52007      2203.767 7        42.438    22807692.813 6        40.375    22807689.700 6  93393675.23206      1717.221 6        40.375    22807689.773 7  93393675.24707      1717.258 7        47.875    22807692.706 9  89502285.88309      1645.706 9        54.375
G21  23615629.072 7 124100967.78507     -3166.474 7        42.125    23615629.103 6        39.750    23615626.682 6  96702043.10506     -2467.382 6        39.750    23615626.814 7  96702043.11807     -2467.440 7        47.563    23615628.720 9  92672799.23709     -2364.602 9        54.063
G30  20733495.220 7 108955251.74407     -1189.924 7        43.375    20733495.246 7        42.250    20733495.867 7  84900200.10307      -927.209 7        42.250    20733495.928 8  84900198.10808      -927.226 8        48.813    20733495.137 9  81362688.09909      -888.603 9        55.313
> 2023 01 08 11 50  0.0000000  0 20
E01  26785229.860 7 140757332.92407     -1655.546 7        44.188    26785229.699 8 105110994.79608     -1236.308 8        53.688    26785228.587 9 107853016.06209     -1268.531 9        57.000    26785229.197 9 106482005.50309     -1252.418 9        58.438
E05  28293781.100 7 148684823.84407     -1229.852 7        43.500    28293781.938 8 111030877.85808      -918.408 8        53.063    28293780.860 9 113927330.85109      -942.289 9        56.438    28293781.448 9 112479104.42709      -930.343 9        57.938
E09  28271341.398 7 148566900.97607     -2131.474 7        43.625    28271341.572 8 110942817.04608     -1591.556 8        53.188    28271340.482 9 113836972.80209     -1633.099 9        56.563    28271341.084 9 112389894.99809     -1612.339 9        58.063
E10  25638513.203 7 134731296.23007      2661.618 7        44.375    25638513.141 9 100611032.76109      1987.650 9        54.063    25638512.061 9 103235663.71309      2039.442 9        57.375    25638512.652 9 101923348.31009      2013.540 9        58.813
E11  27787161.793 7 146022519.89107      3069.729 7        43.688    27787158.472 8 109042778.62108      2292.322 8        53.250    27787157.402 9 111887368.16209      2352.130 9        56.563    27787158.006 9 110465074.46509      2322.226 9        58.063
E12  24095641.471 7 126623449.66307      1716.710 7        44.938    24095638.825 9  94556462.54809      1281.955 9        54.563    24095637.759 9  97023148.19309      1315.413 9        58.000    24095638.358 9  95789806.44409      1298.684 9        59.375
E24  25546928.165 7 134250014.14207      1791.410 7        44.563    25546927.547 9 100251631.19909      1337.729 9        54.125    25546926.463 9 102866886.45409      1372.675 9        57.500    25546927.056 9 101559258.90009      1355.202 9        58.938
E26  28605811.562 7 150324553.95607     -2751.810 7        43.563    28605810.411 8 112255343.56608     -2054.923 8        53.188    28605809.311 9 115183740.17209     -2108.485 9        56.563    28605809.918 9 113719542.44309     -2081.702 9        58.000
E31  23915212.974 7 125675292.20507       164.866 7        45.000    23915213.915 9  93848436.49009       123.067 9        54.688    23915212.849 9  96296651.88109       126.330 9        58.063    23915213.449 9  95072544.25709       124.704 9        59.500
E33  24404771.944 7 128247941.77207     -1147.427 7        44.813    24404770.820 9  95769562.86509      -856.899 9        54.438    24404769.742 9  98267894.60209      -879.221 9        57.875    24404770.333 9  97018728.80709      -868.056 9        59.250
G01  21187800.335 7 111342642.53907     -1688.916 7        43.250    21187800.357 6        41.563    21187801.189 6  86760505.58106     -1316.042 6        41.563    21187801.292 8  86760500.58508     -1316.010 8        48.563    21187800.330 9  83145479.17609     -1261.160 9        55.125
G03  24624304.360 7 129401593.00007      2206.936 7        42.063    24624304.391 6        39.063    24624304.637 6 100832411.80906      1719.687 6        39.063    24624304.727 7 100832407.82107      1719.576 7        47.313    24624304.344 8  96631059.07308      1647.958 8        53.875
G06  24011327.346 7 126180379.45407      3760.015 7        42.125    24011327.381 6        39.250    24011328.312 6  98322376.98706      2929.882 6        39.250    24011328.366 7  98322373.99307      2929.812 7        47.438    24011327.605 9  94225606.65509      2807.729 9        54.000
G07  22119585.129 7 116239204.38507     -3180.495 7        42.813    22119585.173 6        40.813    22119583.051 6  90575995.52106     -2478.312 6        40.813    22119583.181 8  90575992.52208     -2478.287 8        48.188    22119585.243 9  86802003.38109     -2375.052 9        54.688
G13  24078413.331 7 126532916.64107     -1100.667 7        42.125    24078413.348 6        39.250    24078410.885 6  98597067.07806      -857.659 6        39.250    24078410.955 7  98597065.08007      -857.675 7        47.375    24078413.207 9  94488864.93409      -821.950 9        54.000
G14  20853510.615 7 109585935.39907       965.818 7        43.438    20853510.628 7        42.000    20853508.679 7  85391632.66707       752.585 7        42.000    20853508.749 8  85391630.66908       752.667 8        48.750    20853510.271 9  81833653.16409       721.275 9        55.313
G17  20957389.372 7 110131822.65407       172.723 7        43.250    20957389.385 6        41.688    20957386.751 6  85816994.99106       134.589 6        41.688    20957386.837 8  85816994.99108       134.626 8        48.563    20957388.940 9  82241295.49009       129.044 9        55.125
G19  22684211.866 7 119206337.21207      2122.740 7        42.625    22684211.897 6        40.438    22684208.835 6  92888041.74806      1654.083 6        40.438    22684208.898 8  92888041.75608      1654.071 8        48.000    22684211.864 9  89017720.45709      1585.155 9        54.438
G21  23798566.914 7 125062312.52907     -3240.318 7        42.250    23798566.940 6        39.500    23798564.504 6  97451142.89906     -2524.923 6        39.500    23798564.568 7  97451142.90807     -2524.919 7        47.500    23798566.531 9  93390686.54109     -2419.765 9        54.063
G30  20806719.032 7 109340045.50607     -1374.108 7        43.438    20806719.049 7        42.125    20806719.685 7  85200039.39807     -1070.733 7        42.125    20806719.745 8  85200037.39708     -1070.754 8        48.813    20806718.967 9  81650034.08509     -1026.100 9        55.375
> 2023 01 08 11 55  0.0000000  0 20
E01  26881253.276 7 141261939.29607     -1708.664 7        44.188    26881253.093 8 105487811.24408     -1275.955 8        53.875    26881252.008 9 108239662.50809     -1309.333 9        56.938    26881252.597 9 106863736.94909     -1292.653 9        58.500
E05  28366266.561 7 149065736.13307     -1308.887 7        43.625    28366267.169 8 111315325.34108      -977.341 8        53.250    28366266.059 9 114219198.70709     -1002.825 9        56.438    28366266.655 9 112767262.09709      -990.081 9        58.000
E09  28392539.131 7 149203799.83707     -2113.764 7        43.688    28392539.397 8 111418423.34108     -1578.449 8        53.313    28392538.313 9 114324986.21909     -1619.585 9        56.500    28392538.913 9 112871704.85309     -1599.013 9        58.063
E10  25488704.427 7 133944046.24107      2585.761 7        44.625    25488704.445 9 100023151.28109      1930.918 9        54.313    25488703.367 9 102632446.18909      1981.277 9        57.438    25488703.964 9 101327798.80709      1956.104 9        59.000
E11  27612482.028 7 145104571.47707      3048.908 7        43.813    27612478.724 8 108357297.66408      2276.751 8        53.438    27612477.645 9 111184005.08809      2336.181 9        56.563    27612478.238 9 109770652.44909      2306.468 9        58.188
E12  24001059.910 7 126126419.83307      1596.170 7        45.250    24001057.202 9  94185303.91209      1191.953 9        54.750    24001056.118 9  96642307.15609      1223.027 9        58.000    24001056.713 9  95413806.60709      1207.492 9        59.500
E24  25444867.512 7 133713681.20807      1783.496 7        44.688    25444866.781 9  99851122.83809      1331.796 9        54.375    25444865.705 9 102455930.04809      1366.615 9        57.500    25444866.296 9 101153526.51609      1349.215 9        59.063
E26  28763905.398 7 151155342.07407     -2785.936 7        43.625    28763904.105 8 112875737.29108     -2080.427 8        53.313    28763903.031 9 115820318.08209     -2134.698 9        56.438    28763903.633 9 114348028.26009     -2107.563 9        58.063
E31  23907400.757 7 125634238.92307       108.159 7        45.188    23907401.742 9  93817779.81509        80.811 9        54.875    23907400.682 9  96265195.47209        82.847 9        58.000    23907401.274 9  95041487.71709        81.822 9        59.563
E33  24473798.806 7 128610680.84307     -1270.174 7        44.938    24473797.763 9  96040439.43409      -948.463 9        54.625    24473796.681 9  98545837.52009      -973.274 9        57.813    24473797.269 9  97293138.55109      -960.878 9        59.313
G01  21289766.132 7 111878475.34407     -1882.117 7        43.125    21289766.167 6        41.563    21289766.777 6  87178037.63606     -1466.585 6        41.563    21289766.910 8  87178032.63808     -1466.646 8        48.750    21289765.923 9  83545614.06409     -1405.563 9        55.250
G03  24499698.934 7 128746786.43807      2156.724 7        42.063    24499698.956 6        39.125    24499699.131 6 100322172.93406      1680.564 6        39.125    24499699.226 7 100322168.94107      1680.544 7        47.563    24499698.787 9  96142080.14609      1610.521 9        54.125
G06  23797682.889 7 125057668.55307      3723.077 7        42.125    23797682.924 6        39.563    23797683.501 6  97447537.31606      2901.099 6        39.563    23797683.550 7  97447534.31207      2901.275 7        47.688    23797682.792 9  93387218.63109      2780.330 9        54.313
G07  22304042.155 7 117208530.13207     -3280.298 7        42.688    22304042.190 6        40.688    22304039.598 6  91331314.28206     -2556.077 6        40.688    22304039.665 8  91331311.28408     -2556.097 8        48.375    22304041.820 9  87525850.52409     -2449.573 9        54.875
G13  24144974.070 7 126882695.05507     -1229.957 7        42.188    24144974.087 6        39.375    24144971.497 6  98869621.68606      -958.412 6        39.375    24144971.567 7  98869619.69107      -958.359 7        47.563    24144973.802 9  94750063.10509      -918.513 9        54.188
G14  20800455.677 7 109307130.84207       891.869 7        43.375    20800455.708 7        42.063    20800453.955 7  85174382.36207       694.963 7        42.063    20800454.011 8  85174380.36708       694.979 8        48.938    20800455.519 9  81625454.96109       665.971 9        55.500
G17  20949998.337 7 110092982.75207        86.860 7        43.250    20949998.363 6        41.813    20949995.785 6  85786730.13406        67.683 6        41.813    20949995.897 8  85786730.13708        67.663 8        48.750    20949997.961 9  82212291.67909        64.789 9        55.375
G19  22565334.844 7 118581632.93407      2041.907 7        42.625    22565334.866 6        40.500    22565331.537 6  92401259.19606      1591.096 6        40.500    22565331.724 8  92401259.19608      1591.092 8        48.188    22565334.571 9  88551220.51109      1524.742 9        54.750
G21  23985437.668 7 126044326.43707     -3305.076 7        42.125    23985437.703 6        39.500    23985435.543 6  98216348.54606     -2575.384 6        39.500    23985435.640 7  98216348.54907     -2575.412 7        47.750    23985437.539 9  94124008.60809     -2468.052 9        54.188
G30  20890306.480 7 109779299.31807     -1553.583 7        43.438    20890306.506 7        42.063    20890306.903 7  85542315.09307     -1210.584 7        42.063    20890307.020 8  85542313.09508     -1210.588 8        48.938    20890306.183 9  81978048.29709     -1160.159 9        55.563
> 2023 01 08 12 00  0.0000000  0 20
E01  26980316.718 7 141782521.59307     -1761.903 7        44.188    26980316.602 8 105876557.76408     -1315.668 8        53.688    26980315.528 9 108638550.23609     -1350.010 9        56.625    26980316.110 9 107257554.07309     -1332.840 9        58.250
E05  28443084.405 7 149469417.63907     -1381.333 7        43.688    28443085.178 8 111616775.82608     -1031.547 8        53.125    28443084.090 9 114528513.11209     -1058.440 9        56.125    28443084.673 9 113072644.54309     -1044.994 9        57.750
E09  28512534.438 7 149834379.93707     -2089.103 7        43.688    28512534.803 8 111889311.07808     -1560.021 8        53.188    28512533.714 9 114808157.98209     -1600.656 9        56.125    28512534.310 9 113348734.60309     -1580.333 9        57.813
E10  25343353.364 7 133180220.33507      2505.722 7        44.688    25343353.228 9  99452761.80409      1871.148 9        54.188    25343352.144 9 102047176.98809      1919.960 9        57.125    25343352.733 9 100749969.46809      1895.554 9        58.813
E11  27439125.321 7 144193575.43907      3023.621 7        44.000    27439121.923 8 107677008.41808      2257.852 8        53.438    27439120.849 9 110485969.16409      2316.809 9        56.375    27439121.440 9 109081489.86509      2287.326 9        58.063
E12  23913426.122 7 125665901.48207      1473.612 7        45.125    23913423.462 9  93841410.34009      1100.397 9        54.688    23913422.384 9  96289442.44309      1129.139 9        57.688    23913422.991 9  95065427.46409      1114.774 9        59.313
E24  25343332.557 7 133180111.47807      1773.207 7        44.750    25343331.834 9  99452677.90809      1324.148 9        54.250    25343330.770 9 102047090.90409      1358.687 9        57.188    25343331.349 9 100749884.48009      1341.415 9        58.813
E26  28923770.002 7 151995436.48207     -2813.535 7        43.625    28923768.784 8 113503080.52008     -2101.087 8        53.125    28923767.692 9 116464026.78809     -2155.910 9        56.125    28923768.307 9 114983554.22709     -2128.497 9        57.750
E31  23902906.998 7 125610623.92307        48.772 7        45.188    23902907.960 9  93800145.23709        36.436 9        54.688    23902906.891 9  96247100.86209        37.387 9        57.688    23902907.486 9  95023623.12309        36.912 9        59.313
E33  24549688.681 7 129009485.60907     -1387.645 7        44.938    24549687.800 9  96338248.19609     -1036.224 9        54.438    24549686.721 9  98851415.19909     -1063.268 9        57.438    24549687.295 9  97594831.77109     -1049.744 9        59.063
G01  21402535.493 7 112471083.79907     -2067.016 7        42.938    21402535.524 6        41.250    21402536.430 6  87639810.45806     -1610.661 6        41.250    21402536.558 8  87639805.46608     -1610.735 8        48.688    21402535.561 9  83988146.35409     -1543.566 9        55.000
G03  24378236.237 6 128108495.76206      2096.954 6        41.938    24378236.254 6        39.125    24378236.448 6  99824803.57206      1633.990 6        39.125    24378236.506 7  99824799.57607      1633.973 7        47.625    24378236.117 9  95665434.50709      1565.891 9        54.125
G06  23586368.149 7 123947201.38507      3678.467 7        42.063    23586368.171 6        39.500    23586368.651 6  96582238.22206      2866.334 6        39.500    23586368.712 7  96582235.21607      2866.420 7        47.813    23586367.925 9  92557973.66409      2746.966 9        54.250
G07  22493920.373 7 118206346.81507     -3370.196 7        42.438    22493920.404 6        40.375    22493917.803 6  92108833.78306     -2626.131 6        40.375    22493917.889 8  92108830.78108     -2626.106 8        48.250    22493919.990 9  88270973.37809     -2516.689 9        54.688
G13  24218675.869 6 127270002.04206     -1350.591 6        41.813    24218675.895 6        39.063    24218673.599 6  99171419.33806     -1052.409 6        39.063    24218673.687 7  99171417.34307     -1052.442 7        47.563    24218675.865 9  95039285.84809     -1008.578 9        54.063
G14  20751751.528 7 109051187.53307       813.653 7        43.313    20751751.559 6        41.875    20751749.570 6  84974946.01706       634.015 6        41.875    20751749.638 8  84974944.02108       634.044 8        48.938    20751751.127 9  81434328.45909       607.653 9        55.438
G17  20947371.109 7 110079177.35607         6.054 7        43.063    20947371.131 6        41.500    20947368.694 6  85775972.68106         4.713 6        41.500    20947368.779 8  85775972.68808         4.721 8        48.750    20947370.871 9  82201982.45309         4.548 9        55.313
G19  22451056.028 7 117981094.71407      1961.878 7        42.563    22451056.045 6        40.375    22451052.936 6  91933307.33406      1528.736 6        40.375    22451052.998 8  91933307.33808      1528.769 8        48.250    22451055.978 9  88102766.64209      1465.063 9        54.688
G21  24175733.697 6 127044336.36506     -3360.038 6        41.938    24175733.723 6        39.188    24175731.098 6  98995577.06306     -2618.211 6        39.188    24175731.137 7  98995577.07107     -2618.359 7        47.625    24175733.119 9  94870769.27809     -2509.186 9        54.063
G30  20983983.137 7 110271573.50507     -1727.278 7        43.125    20983983.163 6        41.813    20983983.547 6  85925905.37106     -1345.931 6        41.813    20983983.661 8  85925903.37208     -1345.914 8        48.875    20983982.852 9  82345655.64509     -1289.831 9        55.438
> 2023 01 08 12 05  0.0000000  0 18
E01  27082454.808 7 142319260.70007     -1815.956 7        44.188    27082454.652 9 106277369.43509     -1356.040 9        54.125    27082453.564 9 109049817.86609     -1391.483 9        57.625    27082454.171 9 107663593.72309     -1373.763 9        59.000
E09  28630970.557 7 150456765.91807     -2058.708 7        43.750    28630970.898 8 112354079.83208     -1537.335 8        53.688    28630969.833 9 115285051.14109     -1577.439 9        57.125    28630970.434 9 113819565.56009     -1557.395 9        58.563
E10  25202728.699 7 132441232.96107      2420.611 7        44.750    25202728.565 9  98900920.58509      1807.639 9        54.750    25202727.516 9 101480939.91109      1854.774 9        58.250    25202728.105 9 100190930.32109      1831.208 9        59.688
E11  27267388.637 7 143291092.97707      2992.564 7        44.000    27267385.247 9 107003076.70109      2234.715 9        54.063    27267384.132 9 109794456.62509      2293.036 9        57.438    27267384.743 9 108398767.73609      2263.879 9        58.813
E12  23832889.131 7 125242677.65207      1348.048 7        45.125    23832886.653 9  93525366.57009      1006.691 9        55.250    23832885.568 9  95965154.05409      1032.976 9        58.750    23832886.163 9  94745261.38509      1019.829 9        60.125
E24  25242507.495 7 132650271.68007      1758.934 7        44.813    25242506.675 9  99057018.31509      1313.568 9        54.750    25242505.596 9 101641109.76209      1347.827 9        58.313    25242506.196 9 100349064.11109      1330.698 9        59.688
E31  23901925.733 7 125605467.57107       -14.520 7        45.188    23901926.753 9  93796294.70909       -10.760 9        55.250    23901925.664 9  96243149.88809       -11.081 9        58.688    23901926.260 9  95019722.37209       -10.928 9        60.188
E33  24632172.905 7 129442942.47007     -1500.728 7        45.000    24632171.878 9  96661933.51509     -1120.646 9        54.938    24632170.819 9  99183544.48909     -1149.892 9        58.438    24632171.405 9  97922739.07509     -1135.267 9        59.875
G01  21525648.853 7 113118048.17307     -2244.131 7        42.938    21525648.870 6        41.375    21525649.667 6  88143938.54006     -1748.674 6        41.375    21525649.695 8  88143933.54108     -1748.666 8        48.750    21525648.783 9  84471269.09509     -1675.734 9        55.500
G03  24260510.144 7 127489840.46007      2026.336 7        42.063    24260510.145 6        39.438    24260510.239 6  99342734.50606      1578.968 6        39.438    24260510.354 7  99342730.51707      1578.857 7        47.750    24260509.943 9  95203451.65609      1513.122 9        54.563
G06  23377883.473 7 122851606.71107      3624.524 7        42.250    23377883.517 6        39.938    23377883.895 6  95728528.09306      2824.309 6        39.938    23377883.946 8  95728525.09508      2824.288 8        48.000    23377883.171 9  91739834.79309      2706.688 9        54.688
G07  22688687.269 7 119229854.54807     -3451.171 7        42.563    22688687.300 6        40.500    22688684.864 6  92906372.26906     -2689.220 6        40.500    22688685.003 8  92906369.27208     -2689.232 8        48.250    22688687.057 9  89035281.09609     -2577.130 9        55.000
G13  24299052.963 6 127692386.44906     -1463.344 6        41.938    24299053.003 6        39.250    24299050.680 6  99500550.04906     -1140.264 6        39.250    24299050.718 7  99500548.05207     -1140.272 7        47.688    24299052.948 9  95354702.78309     -1092.756 9        54.438
G14  20707677.249 7 108819576.75607       730.030 7        43.438    20707677.280 7        42.188    20707675.470 7  84794470.08607       568.854 7        42.188    20707675.556 8  84794468.09208       568.887 8        49.125    20707677.077 9  81261372.36209       545.211 9        55.938
G17  20949249.702 7 110089048.84607       -70.643 7        43.125    20949249.737 6        41.750    20949247.165 6  85783664.74906       -55.047 6        41.750    20949247.291 8  85783664.74608       -54.940 8        48.938    20949249.396 9  82209354.01109       -52.722 9        55.750
G19  22341359.594 7 117404635.31107      1881.812 7        42.625    22341359.620 6        40.750    22341356.362 6  91484118.18406      1466.351 6        40.750    22341356.488 8  91484118.18708      1466.368 8        48.375    22341359.348 9  87672293.70609      1405.253 9        55.188
G21  24368955.000 7 128059722.60907     -3407.128 7        42.000    24368955.031 6        39.188    24368952.663 6  99786787.12606     -2654.905 6        39.188    24368952.773 7  99786787.13207     -2654.946 7        47.688    24368954.703 9  95629012.24809     -2544.300 9        54.438
G30  21087436.090 7 110815223.04107     -1895.465 7        43.250    21087436.107 6        41.938    21087436.606 6  86349528.38706     -1476.982 6        41.938    21087436.741 8  86349526.38908     -1476.998 8        49.000    21087435.920 9  82751627.70209     -1415.480 9        55.813
> 2023 01 08 12 10  0.0000000  0 17
E01  27187693.594 7 142872294.35907     -1870.777 7        43.813    27187693.478 9 106690349.11609     -1397.028 9        54.313    27187692.391 9 109473570.93109     -1433.481 9        57.750    27187692.986 9 108081960.09809     -1415.258 9        59.188
E10  25067088.698 7 131728439.68307      2330.687 7        44.563    25067088.540 9  98368639.88909      1740.464 9        55.063    25067087.474 9 100934773.62909      1785.948 9        58.438    25067088.054 9  99651706.83209      1763.213 9        60.000
E11  27097567.392 7 142398676.42807      2956.136 7        43.813    27097563.990 9 106336661.75109      2207.485 9        54.250    27097562.940 9 109110656.93709      2265.083 9        57.625    27097563.514 9 107723660.41809      2236.290 9        59.125
E12  23759577.008 7 124857419.05207      1220.119 7        44.875    23759574.366 9  93237673.45509       911.183 9        55.563    23759573.313 9  95669955.90209       934.949 9        58.938    23759573.885 9  94453815.75309       923.068 9        60.375
E24  25142590.017 7 132125202.23807      1740.967 7        44.563    25142589.278 9  98664921.00409      1300.081 9        55.063    25142588.208 9 101238783.82309      1333.964 9        58.500    25142588.783 9  99951852.48709      1317.022 9        60.063
E31  23904651.719 7 125619792.66007       -81.469 7        45.000    23904652.699 9  93806992.01909       -60.821 9        55.563    23904651.640 9  96254126.25409       -62.392 9        58.875    23904652.224 9  95030559.20909       -61.603 9        60.375
E33  24720969.706 7 129909572.86007     -1609.076 7        44.563    24720968.706 9  97010391.27509     -1201.610 9        55.250    24720967.619 9  99541092.44909     -1232.989 9        58.563    24720968.206 9  98275741.93509     -1217.307 9        60.188
G01  21658615.382 7 113816791.08207     -2412.545 7        43.125    21658615.399 6        41.313    21658616.025 6  88688413.53706     -1879.905 6        41.313    21658616.120 8  88688408.54408     -1879.897 8        48.563    21658615.138 9  84993057.63909     -1801.576 9        55.563
G03  24147113.638 7 126893936.57407      1944.841 7        42.313    24147113.651 6        39.563    24147113.514 6  98878393.81606      1515.461 6        39.563    24147113.575 7  98878389.81707      1515.469 7        47.625    24147113.193 9  94758458.48809      1452.368 9        54.688
G06  23172729.257 7 121773514.47707      3561.479 7        42.500    23172729.292 6        40.063    23172729.747 6  94888456.21706      2775.179 6        40.063    23172729.837 7  94888453.22207      2775.146 7        47.875    23172729.073 9  90934765.91709      2659.503 9        54.938
G07  22887804.453 7 120276221.55807     -3522.923 7        42.750    22887804.484 6        40.313    22887801.866 6  93721723.18906     -2745.135 6        40.313    22887801.919 8  93721720.19508     -2745.176 8        48.063    22887804.086 9  89816659.06609     -2630.750 9        55.063
G13  24385619.406 7 128147295.64907     -1567.661 7        42.000    24385619.459 6        39.125    24385616.965 6  99855024.74306     -1221.550 6        39.125    24385617.143 7  99855022.74607     -1221.616 7        47.438    24385619.290 9  95694407.69809     -1170.699 9        54.500
G14  20668519.710 7 108613802.93807       641.114 7        43.625    20668519.723 7        42.250    20668518.026 7  84634126.85207       499.570 7        42.250    20668518.079 8  84634124.85708       499.553 8        49.063    20668519.600 9  81107710.09609       478.723 9        56.063
G17  20955376.281 7 110121245.60407      -143.074 7        43.375    20955376.316 6        41.813    20955373.995 6  85808753.12906      -111.486 6        41.813    20955374.080 8  85808753.13408      -111.527 8        48.750    20955376.215 9  82233397.05009      -106.849 9        55.813
G19  22236218.097 7 116852112.64707      1801.946 7        43.000    22236218.128 6        40.875    22236214.774 6  91053581.04406      1404.114 6        40.875    22236214.883 8  91053581.04608      1404.098 8        48.313    22236217.823 9  87259695.61409      1345.621 9        55.313
G21  24564616.318 7 129087930.91707     -3445.958 7        42.063    24564616.358 6        39.125    24564614.201 6 100587988.40306     -2685.162 6        39.125    24564614.238 7 100587988.41007     -2685.244 7        47.375    24564616.222 9  96396830.14809     -2573.390 9        54.438
G30  21200316.543 7 111408413.48807     -2057.756 7        43.438    21200316.556 6        41.938    21200316.994 6  86811754.71006     -1603.447 6        41.938    21200317.087 8  86811752.71508     -1603.487 8        48.750    21200316.300 9  83194594.59509     -1536.656 9        55.875
> 2023 01 08 12 15  0.0000000  0 17
E01  27296042.654 7 143441672.47007     -1925.219 7        44.000    27296042.497 9 107115534.06809     -1437.648 9        54.313    27296041.442 9 109909847.65909     -1475.156 9        57.938    27296042.024 9 108512690.93609     -1456.404 9        59.313
E10  24936670.494 7 131043088.37207      2237.452 7        44.750    24936670.519 9  97856851.57109      1670.836 9        55.000    24936669.450 9 100409634.31709      1714.391 9        58.688    24936670.025 9  99133243.01709      1692.610 9        60.125
E11  26929946.216 7 141517821.64007      2915.220 7        44.063    26929942.904 9 105678880.57209      2176.993 9        54.313    26929941.857 9 108435716.25009      2233.785 9        57.938    26929942.421 9 107057299.48509      2205.389 9        59.313
E12  23693586.822 7 124510638.04707      1091.324 7        45.250    23693584.131 9  92978713.62209       814.926 9        55.500    23693583.073 9  95404240.59109       836.237 9        59.125    23693583.660 9  94191478.17909       825.583 9        60.563
E24  25043783.972 7 131605972.26207      1719.773 7        44.750    25043783.111 9  98277184.33709      1284.231 9        55.063    25043782.037 9 100840932.28109      1317.809 9        58.688    25043782.613 9  99559058.38209      1301.029 9        60.125
E31  23911270.541 7 125654575.45207      -151.214 7        45.188    23911271.668 9  93832966.17809      -112.817 9        55.438    23911270.601 9  96280778.00209      -115.780 9        59.063    23911271.183 9  95056872.16309      -114.305 9        60.500
E33  24815779.180 7 130407800.44507     -1711.670 7        44.813    24815778.278 9  97382444.33909     -1278.183 9        55.063    24815777.192 9  99922851.24209     -1311.503 9        58.688    24815777.766 9  98652647.86409     -1294.839 9        60.125
G01  21800910.804 7 114564559.99407     -2571.126 7        43.250    21800910.839 6        41.375    21800911.708 6  89271090.60806     -2003.479 6        41.375    21800911.759 8  89271085.61408     -2003.458 8        48.563    21800910.836 9  85551456.49909     -1919.993 9        55.375
G03  24038627.084 7 126323838.20607      1853.924 7        42.438    24038627.106 6        39.813    24038627.408 6  98434161.32106      1444.612 6        39.813    24038627.452 7  98434157.32007      1444.637 7        47.750    24038627.063 9  94332735.68009      1384.424 9        54.563
G06  22971396.213 7 120715502.56307      3490.463 7        42.750    22971396.244 6        40.375    22971396.771 6  94064031.35106      2719.841 6        40.375    22971396.892 8  94064028.35108      2719.776 8        48.125    22971396.094 9  90144692.08409      2606.452 9        54.875
G07  23090720.926 7 121342555.88407     -3584.560 7        42.813    23090720.952 6        40.375    23090718.544 6  94552633.05406     -2793.159 6        40.375    23090718.650 8  94552630.06008     -2793.184 8        48.063    23090720.746 9  90612947.68009     -2676.734 9        54.813
G13  24477864.998 7 128632048.92607     -1662.646 7        42.313    24477865.029 6        39.250    24477862.470 6 100232754.57506     -1295.568 6        39.250    24477862.528 7 100232752.56907     -1295.433 7        47.563    24477864.763 9  96056398.78309     -1241.523 9        54.313
G14  20634561.597 7 108435350.76707       547.585 7        43.875    20634561.623 7        42.375    20634559.716 7  84495073.21107       426.690 7        42.375    20634559.790 8  84495071.21008       426.751 8        49.063    20634561.293 9  80974450.35009       408.974 9        55.938
G17  20965489.226 7 110174389.83807      -210.548 7        43.563    20965489.261 6        41.875    20965487.017 6  85850164.22506      -164.064 6        41.875    20965487.090 8  85850164.24008      -164.129 8        48.813    20965489.229 9  82273082.68709      -157.232 9        55.625
G19  22135586.266 7 116323291.80007      1723.515 7        43.188    22135586.297 6        41.063    22135583.552 6  90641512.85706      1342.999 6        41.063    22135583.641 8  90641512.86208      1343.011 8        48.438    22135586.573 9  86864796.93409      1287.048 9        55.188
G21  24762237.666 7 130126438.52507     -3476.190 7        42.188    24762237.701 6        39.125    24762235.620 6 101397215.10806     -2708.724 6        39.125    24762235.658 7 101397215.10607     -2708.617 7        47.438    24762237.683 9  97172339.06809     -2595.801 9        54.250
G30  21322234.024 7 112049093.28007     -2212.344 7        43.625    21322234.041 6        41.938    21322234.327 6  87310985.71506     -1723.904 6        41.938    21322234.402 8  87310983.71408     -1723.867 8        48.875    21322233.612 9  83673024.30509     -1652.047 9        55.688
> 2023 01 08 12 20  0.0000000  0 17
E01  27407502.270 7 144027396.89407     -1979.509 7        44.313    27407502.176 9 107552925.68309     -1478.173 9        54.250    27407501.093 9 110358649.48909     -1516.718 9        58.063    27407501.675 9 108955787.66009     -1497.442 9        59.313
E10  24811698.375 7 130386354.90107      2140.344 7        45.000    24811698.313 9  97366433.72309      1598.297 9        54.938    24811697.231 9  99906422.96209      1639.940 9        58.938    24811697.816 9  98636428.41609      1619.117 9        60.188
E11  26764806.068 7 140650004.26007      2869.449 7        44.250    26764802.736 9 105030835.12909      2142.770 9        54.313    26764801.671 9 107770765.27209      2198.701 9        58.188    26764802.261 9 106400801.27409      2170.735 9        59.438
E12  23634993.411 7 124202727.71907       961.409 7        45.438    23634990.762 9  92748780.58209       717.904 9        55.438    23634989.694 9  95168309.30009       736.636 9        59.375    23634990.269 9  93958546.01409       727.272 9        60.625
E24  24946305.275 7 131093718.30707      1694.681 7        45.063    24946304.427 9  97894657.03009      1265.563 9        55.063    24946303.343 9 100448426.01009      1298.501 9        58.938    24946303.920 9  99171541.59409      1282.027 9        60.188
E31  23921966.220 7 125710780.75307      -224.006 7        45.375    23921967.177 9  93874937.67609      -167.285 9        55.313    23921966.104 9  96323844.40709      -171.645 9        59.250    23921966.683 9  95099391.11509      -169.463 9        60.500
E33  24916292.868 7 130936002.59207     -1808.678 7        44.938    24916291.775 9  97776881.00509     -1350.601 9        54.938    24916290.708 9 100327577.56409     -1385.866 9        58.875    24916291.288 9  99052229.35909     -1368.237 9        60.125
G01  21951991.799 7 115358493.64707     -2719.975 7        43.063    21951991.839 6        41.063    21951992.247 6  89889740.20406     -2119.461 6        41.063    21951992.303 8  89889735.21208     -2119.490 8        48.250    21951991.380 9  86144329.03009     -2031.162 9        55.500
G03  23935626.088 7 125782562.55307      1753.069 7        42.313    23935626.101 6        39.688    23935626.060 6  98012388.08606      1366.028 6        39.688    23935626.185 7  98012384.09207      1365.971 7        47.563    23935625.742 9  93928536.33309      1309.087 9        54.813
G06  22774370.970 7 119680127.33707      3410.776 7        42.688    22774370.992 6        40.375    22774371.398 6  93257245.46106      2657.747 6        40.375    22774371.551 7  93257242.46907      2657.813 7        47.938    22774370.743 9  89371522.27909      2547.047 9        55.125
G07  23296886.074 7 122425960.30007     -3636.332 7        42.563    23296886.100 6        40.000    23296883.553 6  95396844.28106     -2833.505 6        40.000    23296883.688 7  95396841.28807     -2833.563 7        47.688    23296885.760 9  91421983.44809     -2715.564 9        55.000
G13  24575266.292 7 129143895.15407     -1748.077 7        42.000    24575266.300 6        39.000    24575263.558 6 100631595.78806     -1362.138 6        39.000    24575263.631 7 100631593.79307     -1362.150 7        47.188    24575265.887 9  96438621.61809     -1305.366 9        54.500
G14  20606086.780 7 108285715.89007       449.158 7        43.500    20606086.802 7        42.250    20606085.139 7  84378474.60607       349.994 7        42.250    20606085.298 8  84378472.61008       350.010 8        48.813    20606086.727 9  80862710.02209       335.458 9        56.188
G17  20979331.373 7 110247128.97007      -273.535 7        43.375    20979331.413 6        41.813    20979328.826 6  85906844.06806      -213.140 6        41.813    20979328.914 8  85906844.07108      -213.128 8        48.563    20979331.024 9  82327400.86409      -204.244 9        55.875
G19  22039412.028 7 115817891.59607      1646.140 7        43.063    22039412.059 6        40.938    22039409.057 6  90247694.51006      1282.706 6        40.938    22039409.164 8  90247694.51608      1282.702 8        48.250    22039412.100 9  86487387.69109      1229.213 9        55.500
G21  24961354.450 7 131172803.10407     -3498.282 7        42.000    24961354.472 6        38.813    24961352.206 6 102212564.13506     -2725.926 6        38.813    24961352.225 7 102212564.13607     -2725.844 7        47.125    24961354.224 9  97953715.21909     -2612.318 9        54.375
G30  21452767.193 7 112735051.32507     -2359.280 7        43.313    21452767.201 6        41.688    21452767.800 6  87845498.47606     -1838.400 6        41.688    21452767.864 8  87845496.47408     -1838.424 8        48.563    21452767.093 9  84185265.70209     -1761.816 9        55.875
> 2023 01 08 12 25  0.0000000  0 17
E01  27522062.221 7 144629412.42007     -2033.594 7        43.750    27522061.922 9 108002482.73509     -1518.659 9        54.188    27522060.841 9 110819934.11709     -1558.256 9        57.875    27522061.421 9 109411208.50009     -1538.456 9        59.250
E10  24692379.365 7 129759329.82707      2039.495 7        44.563    24692379.404 9  96898200.71009      1522.992 9        55.188    24692378.321 9  99425975.16609      1562.730 9        58.750    24692378.905 9  98162088.01009      1542.865 9        60.188
E11  26602421.338 7 139796666.89207      2818.880 7        44.000    26602418.070 9 104393602.68009      2104.969 9        54.438    26602417.002 9 107116909.36509      2159.901 9        58.063    26602417.564 9 105755257.09509      2132.433 9        59.438
E12  23583847.244 7 123933952.49007       830.606 7        45.063    23583844.522 9  92548071.80709       620.238 9        55.563    23583843.473 9  94962364.64409       636.438 9        59.188    23583844.039 9  93755219.29809       628.336 9        60.563
E24  24850380.991 7 130589633.44507      1665.415 7        44.688    24850380.246 9  97518230.03109      1243.611 9        55.125    24850379.202 9 100062179.16409      1276.122 9        58.813    24850379.773 9  98790204.67009      1259.884 9        60.250
E31  23936917.062 7 125789347.81807      -300.057 7        44.875    23936917.998 9  93933607.88109      -224.022 9        55.500    23936916.930 9  96384045.14409      -229.950 9        59.063    23936917.500 9  95158826.58609      -226.991 9        60.500
E33  25022193.117 7 131492512.51407     -1900.268 7        44.500    25022192.109 9  98192456.60109     -1419.024 9        55.063    25022191.028 9 100753994.25709     -1456.033 9        58.688    25022191.607 9  99473225.50009     -1437.525 9        60.125
G01  22111295.075 7 116195638.98307     -2859.055 7        42.688    22111295.092 6        40.813    22111295.693 6  90542061.25206     -2227.835 6        40.813    22111295.792 8  90542056.25008     -2227.802 8        48.313    22111294.829 9  86769470.03009     -2135.020 9        55.688
G03  23838672.064 7 125273064.93507      1642.288 7        42.188    23838672.072 6        39.625    23838671.875 6  97615376.95306      1279.709 6        39.625    23838671.983 7  97615372.95807      1279.717 7        47.750    23838671.560 9  93548067.33109      1226.368 9        55.063
G06  22582131.941 7 118669904.37507      3322.701 7        42.563    22582131.958 6        40.313    22582132.378 6  92470058.73806      2589.118 6        40.313    22582132.492 8  92470055.73508      2589.220 8        48.125    22582131.691 9  88617134.99309      2481.332 9        55.438
G07  23505747.812 7 123523537.41807     -3678.809 7        42.438    23505747.838 6        39.750    23505745.539 6  96252099.18306     -2866.600 6        39.750    23505745.647 7  96252096.19107     -2866.702 7        47.750    23505747.753 9  92241602.72909     -2747.249 9        55.125
G13  24677287.370 6 129680020.87006     -1824.259 6        41.875    24677287.401 6        38.813    24677284.897 6 101049356.09106     -1421.497 6        38.813    24677285.030 7 101049354.09807     -1421.562 7        47.250    24677287.221 9  96838975.24609     -1362.330 9        54.688
G14  20583379.108 7 108166385.88307       345.634 7        43.375    20583379.121 7        42.125    20583377.377 7  84285490.18707       269.325 7        42.125    20583377.487 8  84285488.18708       269.407 8        48.938    20583378.959 9  80773599.95209       258.154 9        56.375
G17  20996649.609 7 110338137.40807      -332.281 7        43.188    20996649.640 6        41.563    20996647.157 6  85977759.73106      -258.920 6        41.563    20996647.240 8  85977759.73608      -258.908 8        48.688    20996649.354 9  82395361.71209      -248.163 9        56.125
G19  21947631.967 7 115335582.36307      1569.695 7        42.750    21947631.989 6        41.000    21947628.673 6  89871869.13606      1223.139 6        41.000    21947628.797 8  89871869.13908      1223.167 8        48.375    21947631.711 9  86127221.70309      1172.175 9        55.750
G21  25161516.390 6 132224661.58506     -3512.618 6        41.500    25161516.407 6        38.500    25161514.208 6 103032194.12006     -2737.101 6        38.500    25161514.287 7 103032194.12307     -2737.183 7        47.188    25161516.243 9  98739193.95609     -2623.141 9        54.500
G30  21591467.498 7 113463926.18807     -2498.291 7        43.063    21591467.502 6        41.438    21591468.084 6  88413452.91806     -1946.716 6        41.438    21591468.107 8  88413450.91508     -1946.655 8        48.625    21591467.369 9  84729555.37609     -1865.580 9        56.000
> 2023 01 08 12 30  0.0000000  0 17
E01  27639695.821 7 145247581.85307     -2086.906 7        43.750    27639695.682 9 108464102.75809     -1558.349 9        54.063    27639694.582 9 111293596.40209     -1599.010 9        58.000    27639695.157 9 109878849.65309     -1578.679 9        59.188
E10  24578899.645 7 129162989.28407      1936.134 7        44.688    24578899.556 9  96452881.47109      1445.802 9        55.000    24578898.510 9  98969038.91409      1483.503 9        59.000    24578899.078 9  97710960.26609      1464.649 9        60.188
E11  26443054.888 7 138959190.01807      2764.159 7        44.063    26443051.503 9 103768214.10309      2064.161 9        54.313    26443050.439 9 106475206.31009      2117.944 9        58.250    26443051.011 9 105121711.28009      2091.045 9        59.438
E12  23540169.307 7 123704423.61507       700.128 7        45.000    23540166.638 9  92376670.37209       522.843 9        55.375    23540165.582 9  94786491.86609       536.482 9        59.313    23540166.151 9  93581582.19309       529.662 9        60.563
E24  24756243.897 7 130094939.84507      1632.435 7        44.688    24756243.189 9  97148815.97909      1218.928 9        55.000    24756242.127 9  99683128.22809      1250.802 9        58.938    24756242.701 9  98415972.17709      1234.875 9        60.188
E31  23956291.149 7 125891160.04307      -378.662 7        44.875    23956292.217 9  94009636.49609      -282.732 9        55.250    23956291.141 9  96462057.10709      -290.095 9        59.125    23956291.717 9  95235846.87409      -286.408 9        60.438
E33  25133151.986 7 132075605.12107     -1985.515 7        44.438    25133150.939 9  98627882.89709     -1482.721 9        54.813    25133149.875 9 101200779.50009     -1521.373 9        58.750    25133150.446 9  99914331.27209     -1502.041 9        60.000
G01  22278242.029 7 117072951.11507     -2987.430 7        42.688    22278242.051 6        40.813    22278242.671 6  91225681.09206     -2327.867 6        40.813    22278242.749 8  91225676.10008     -2327.900 8        48.250    22278241.793 9  87424605.71409     -2230.893 9        55.375
G03  23748307.532 7 124798197.08307      1522.536 7        42.375    23748307.545 6        39.875    23748307.561 6  97245350.06006      1186.392 6        39.875    23748307.630 7  97245346.06207      1186.461 7        47.813    23748307.210 9  93193458.22509      1136.982 9        54.875
G06  22395143.216 7 117687272.52807      3227.285 7        42.750    22395143.251 6        40.688    22395143.776 6  91704371.58406      2514.768 6        40.688    22395143.829 8  91704368.58608      2514.764 8        48.188    22395143.098 9  87883351.47709      2409.947 9        55.313
G07  23716753.215 7 124632377.74207     -3711.174 7        42.125    23716753.246 6        39.813    23716750.833 6  97116130.60506     -2891.824 6        39.813    23716750.877 7  97116127.61607     -2891.857 7        47.688    23716753.033 9  93069632.84409     -2771.375 9        54.813
G13  24783380.224 6 130237541.85306     -1890.425 6        41.938    24783380.246 6        38.875    24783377.635 6 101483788.02406     -1473.059 6        38.875    24783377.749 7 101483786.02307     -1473.034 7        47.250    24783379.921 9  97255305.83509     -1411.638 9        54.438
G14  20566713.115 7 108078804.63007       237.948 7        43.438    20566713.119 7        42.313    20566711.233 7  84217245.05407       185.414 7        42.313    20566711.350 8  84217243.05508       185.414 8        48.938    20566712.806 9  80708198.37009       177.661 9        56.125
G17  21017194.614 7 110446101.67007      -386.198 7        43.250    21017194.627 6        41.813    21017192.072 6  86061887.73106      -300.933 6        41.813    21017192.138 8  86061887.73408      -300.978 8        48.688    21017194.259 9  82475984.37109      -288.438 9        55.875
G19  21860170.007 7 114875967.99107      1495.194 7        42.938    21860170.038 6        41.125    21860166.965 6  89513728.06606      1165.082 6        41.125    21860167.033 8  89513728.07408      1165.033 8        48.313    21860169.999 9  85784003.17909      1116.514 9        55.563
G21  25362285.789 6 133279711.79706     -3519.287 6        41.688    25362285.806 6        38.625    25362283.604 6 103854311.16606     -2742.306 6        38.625    25362283.721 7 103854311.16407     -2742.285 7        47.000    25362285.637 9  99527056.11609     -2628.000 9        54.188
G30  21737855.370 7 114233199.68407     -2628.180 7        43.125    21737855.387 6        41.500    21737855.932 6  89012886.80606     -2047.932 6        41.500    21737856.020 8  89012884.81208     -2047.990 8        48.500    21737855.255 9  85304012.85709     -1962.633 9        55.688
> 2023 01 08 12 35  0.0000000  0 17
E01  27760368.816 7 145881722.36107     -2140.008 7        43.813    27760368.571 9 108937649.24809     -1598.058 9        54.000    27760367.520 9 111779496.28109     -1639.750 9        57.563    27760368.085 9 110358572.83709     -1618.906 9        58.938
E10  24471428.975 7 128598227.37007      1829.183 7        44.875    24471428.939 9  96031143.67909      1365.984 9        55.063    24471427.873 9  98536299.26609      1401.574 9        58.688    24471428.451 9  97283721.54609      1383.773 9        60.125
E11  26286963.288 7 138138923.90307      2704.310 7        44.250    26286960.053 9 103155677.72309      2019.409 9        54.375    26286958.992 9 105846690.71509      2072.097 9        58.000    26286959.569 9 104501185.29209      2045.757 9        59.313
E12  23503958.959 7 123514136.52807       569.152 7        45.250    23503956.209 9  92234572.87309       425.055 9        55.438    23503955.144 9  94640687.47709       436.144 9        59.000    23503955.717 9  93437631.24809       430.603 9        60.438
E24  24664138.398 7 129610921.83507      1594.267 7        44.875    24664137.626 9  96787373.95509      1190.564 9        55.063    24664136.572 9  99312257.28409      1221.642 9        58.688    24664137.140 9  98049815.69309      1206.105 9        60.125
E31  23980252.256 7 126017075.77907      -460.604 7        45.063    23980253.184 9  94103664.48209      -343.993 9        55.313    23980252.130 9  96558537.99609      -352.950 9        58.813    23980252.706 9  95331101.31209      -348.468 9        60.250
E33  25248838.931 7 132683543.60407     -2065.754 7        44.625    25248837.773 9  99081862.93009     -1542.566 9        54.813    25248836.728 9 101666602.49509     -1582.847 9        58.438    25248837.282 9 100374232.78609     -1562.706 9        59.813
G01  22452246.917 7 117987353.22607     -3106.167 7        42.875    22452246.921 6        40.875    22452247.582 6  91938202.21806     -2420.390 6        40.875    22452247.648 8  91938197.21408     -2420.374 8        48.125    22452246.735 9  88107438.45309     -2319.552 9        55.375
G03  23665059.382 7 124360726.11807      1393.068 7        42.375    23665059.386 6        40.063    23665059.588 6  96904463.59206      1085.503 6        40.063    23665059.647 7  96904459.59407      1085.528 7        47.750    23665059.255 9  92866775.35509      1040.294 9        54.938
G06  22213859.175 7 116734618.77407      3123.036 7        42.938    22213859.210 6        40.938    22213859.785 6  90962043.98606      2433.535 6        40.938    22213859.861 8  90962040.98308      2433.641 8        48.250    22213859.105 9  87171954.18909      2332.212 9        55.375
G07  23929355.172 7 125749607.87707     -3734.791 7        42.188    23929355.185 6        39.750    23929352.643 6  97986699.54406     -2910.226 6        39.750    23929352.823 7  97986696.54307     -2910.157 7        47.625    23929354.845 9  93903928.06909     -2788.939 9        54.750
G13  24892991.771 6 130813554.96006     -1947.432 6        41.750    24892991.797 6        38.938    24892989.285 6 101932629.40706     -1517.479 6        38.938    24892989.379 7 101932627.41307     -1517.520 7        47.250    24892991.570 9  97685445.50309     -1454.255 9        54.438
G14  20556359.576 7 108024397.32107       124.765 7        43.375    20556359.602 7        42.500    20556357.863 7  84174849.75007        97.215 7        42.500    20556357.943 8  84174847.75608        97.146 8        48.938    20556359.435 9  80667569.53809        93.126 9        56.250
G17  21040727.000 7 110569765.85007      -436.862 7        43.250    21040727.008 6        41.938    21040724.580 6  86158249.42806      -340.416 6        41.938    21040724.683 8  86158249.43008      -340.375 8        48.625    21040726.781 9  82568330.99609      -326.177 9        55.938
G19  21776947.410 7 114438629.27407      1421.361 7        43.188    21776947.432 6        41.375    21776944.180 6  89172944.65506      1107.554 6        41.375    21776944.263 8  89172944.65708      1107.579 8        48.375    21776947.205 9  85457419.07609      1061.378 9        55.625
G21  25563243.762 6 134335754.16406     -3519.240 6        41.938    25563243.797 6        38.625    25563241.774 6 104677201.32106     -2742.265 6        38.625    25563241.845 7 104677201.32407     -2742.252 7        47.000    25563243.780 9 100315659.19009     -2628.003 9        54.188
G30  21891432.192 7 115040251.56107     -2750.013 7        43.063    21891432.200 6        41.500    21891432.772 6  89641758.40306     -2142.867 6        41.500    21891432.915 8  89641756.40308     -2142.847 8        48.500    21891432.110 9  85906681.46509     -2053.530 9        55.688
> 2023 01 08 12 40  0.0000000  0 17
E01  27884031.916 7 146531576.87207     -2192.737 7        43.875    27884031.776 9 109422930.21009     -1637.390 9        54.000    27884030.695 9 112277436.74809     -1680.105 9        57.750    27884031.286 9 110850183.55209     -1658.744 9        59.000
E10  24370116.055 7 128065823.45907      1719.279 7        45.063    24370115.852 9  95633569.33309      1283.877 9        55.125    24370114.772 9  98128353.40909      1317.390 9        58.938    24370115.369 9  96880961.44409      1300.636 9        60.250
E11  26134391.874 7 137337155.11707      2639.751 7        44.313    26134388.538 9 102556954.28009      1971.192 9        54.438    26134387.454 9 105232348.40009      2022.618 9        58.188    26134388.044 9 103894652.41309      1996.907 9        59.500
E12  23475187.843 7 123362943.73307       438.375 7        45.375    23475185.185 9  92121669.15809       327.382 9        55.500    23475184.095 9  94524838.44709       335.978 9        59.250    23475184.695 9  93323254.87609       331.684 9        60.563
E24  24574314.370 7 129138893.08807      1551.218 7        45.063    24574313.540 9  96434884.95309      1158.448 9        55.125    24574312.466 9  98950572.91909      1188.640 9        58.938    24574313.056 9  97692729.00909      1173.542 9        60.250
E31  24008951.814 7 126167893.81507      -545.767 7        45.188    24008952.893 9  94216288.33509      -407.534 9        55.250    24008951.811 9  96674099.86609      -418.173 9        59.063    24008952.407 9  95445194.17309      -412.857 9        60.375
E33  25368917.278 7 133314560.26707     -2140.486 7        44.688    25368916.265 9  99553076.67409     -1598.439 9        54.750    25368915.184 9 102150108.77109     -1640.117 9        58.563    25368915.766 9 100851592.79509     -1619.272 9        59.875
G01  22632716.744 7 118935729.75507     -3215.015 7        42.813    22632716.761 6        40.563    22632717.641 6  92677196.91606     -2505.206 6        40.563    22632717.776 8  92677191.92308     -2505.264 8        48.188    22632716.798 9  88815641.70809     -2400.858 9        55.188
G03  23589429.510 7 123963287.78907      1254.592 7        42.500    23589429.523 6        40.125    23589429.592 6  96594771.39006       977.604 6        40.125    23589429.701 7  96594767.39407       977.596 7        47.938    23589429.250 9  92569986.99709       936.906 9        54.875
G06  22038716.655 7 115814237.09807      3011.056 7        43.000    22038716.677 6        41.000    22038716.977 6  90244863.45806      2346.274 6        41.000    22038717.028 8  90244860.45908      2346.237 8        48.375    22038716.274 9  86484656.18809      2248.477 9        55.438
G07  24143009.982 7 126872372.42807     -3749.305 7        42.250    24143009.995 6        39.563    24143007.650 6  98861581.00906     -2921.536 6        39.563    24143007.757 7  98861578.01007     -2921.524 7        47.625    24143009.859 9  94742356.13909     -2799.782 9        54.625
G13  25005563.879 7 131405124.18107     -1995.216 7        42.000    25005563.892 6        38.750    25005561.167 6 102393592.43106     -1554.714 6        38.750    25005561.288 7 102393590.43207     -1554.681 7        47.250    25005563.444 9  98127201.73109     -1489.914 9        54.313
G14  20552578.945 7 108004529.84007         6.569 7        43.625    20552578.962 7        42.375    20552577.227 7  84159368.58907         5.119 7        42.375    20552577.317 8  84159366.58908         5.098 8        49.063    20552578.778 9  80652733.42009         4.901 9        56.125
G17  21067015.376 7 110707911.03207      -483.994 7        43.375    21067015.384 6        41.750    21067012.744 6  86265895.02306      -377.142 6        41.750    21067012.813 8  86265895.02208      -377.114 8        48.750    21067014.950 9  82671491.35909      -361.408 9        55.813
G19  21697874.924 7 114023102.06007      1348.626 7        43.125    21697874.950 6        41.375    21697871.969 6  88849157.21506      1050.877 6        41.375    21697872.078 8  88849157.21608      1050.914 8        48.563    21697875.008 9  85147122.77909      1007.059 9        55.563
G21  25763987.376 6 135390667.27606     -3512.828 6        41.750    25763987.416 6        38.375    25763985.037 6 105499211.54206     -2737.273 6        38.375    25763985.167 7 105499211.54507     -2737.236 7        47.000    25763987.090 9 101103418.98509     -2623.232 9        54.063
G30  22051677.799 7 115882348.84907     -2863.017 7        43.125    22051677.825 6        41.313    22051678.599 6  90297938.10606     -2230.922 6        41.313    22051678.703 8  90297936.10108     -2230.861 8        48.500    22051677.884 9  86535520.34609     -2137.900 9        55.500
> 2023 01 08 12 45  0.0000000  0 17
E01  28010624.670 7 147196826.23307     -2243.427 7        43.625    28010624.533 9 109919707.33209     -1675.247 9        54.188    28010623.448 9 112787173.27209     -1718.978 9        57.250    28010624.030 9 111353440.37409     -1697.118 9        58.875
E10  24275088.369 7 127566450.76407      1608.225 7        44.813    24275088.386 9  95260661.15109      1200.971 9        55.438    24275087.325 9  97745717.18909      1232.296 9        58.563    24275087.903 9  96503189.24309      1216.635 9        60.188
E11  25985574.345 7 136555113.78707      2572.051 7        44.188    25985570.996 9 101972962.37309      1920.625 9        54.750    25985569.927 9 104633121.92209      1970.748 9        57.813    25985570.505 9 103303043.22009      1945.692 9        59.438
E12  23453803.677 7 123250569.24307       309.611 7        45.125    23453801.030 9  92037753.14309       231.278 9        55.750    23453799.958 9  94438733.32109       237.303 9        58.813    23453800.533 9  93238244.30509       234.290 9        60.438
E24  24487028.644 7 128680204.04607      1504.622 7        44.875    24487027.933 9  96092357.42109      1123.632 9        55.375    24487026.839 9  98599109.88809      1152.864 9        58.500    24487027.426 9  97345733.72909      1138.240 9        60.188
E25  28541466.808 7 149986420.41407      2480.597 7        43.375    28541467.744 9 112002849.19509      1852.328 9        54.063    28541466.670 9 114924658.98709      1900.689 9        57.063    28541467.254 9 113463755.66409      1876.520 9        58.688
E31  24042532.309 7 126344359.62907      -632.380 7        44.813    24042533.237 9  94348064.75409      -472.209 9        55.563    24042532.143 9  96809313.93309      -484.551 9        58.563    24042532.732 9  95578689.41709      -478.384 9        60.250
E33  25493049.125 7 133966877.67707     -2208.523 7        44.375    25493048.122 9 100040196.81409     -1649.245 9        55.000    25493047.046 9 102649936.39209     -1692.189 9        58.125    25493047.642 9 101345066.67609     -1670.710 9        59.750
G01  22819058.015 7 119914958.87907     -3312.648 7        42.438    22819058.028 6        40.438    22819058.748 6  93440232.59206     -2581.284 6        40.438    22819058.844 8  93440227.60308     -2581.338 8        48.625    22819057.882 9  89546884.23309     -2473.719 9        55.375
G03  23521892.587 7 123608380.59007      1108.854 7        42.188    23521892.595 6        40.063    23521893.009 6  96318220.32106       864.042 6        40.063    23521893.062 8  96318216.32108       864.088 8        48.438    23521892.672 9  92304958.88709       828.041 9        55.250
G06  21870133.499 7 114928328.09107      2892.640 7        42.688    21870133.516 6        41.125    21870134.092 6  89554544.74906      2254.005 6        41.125    21870134.215 8  89554541.75008      2253.984 8        49.000    21870133.404 9  85823100.75709      2160.084 9        55.813
G07  24357182.324 6 127997855.79906     -3753.609 6        41.875    24357182.350 6        39.375    24357180.001 6  99738581.04006     -2924.886 6        39.375    24357180.095 8  99738578.04908     -2924.951 8        48.063    24357182.211 9  95582814.50609     -2803.051 9        54.875
G13  25120535.606 6 132009306.21806     -2032.222 6        41.500    25120535.628 6        38.688    25120533.170 6 102864383.63006     -1583.546 6        38.688    25120533.281 7 102864381.64307     -1583.652 7        47.813    25120535.495 9  98578376.63609     -1517.612 9        54.563
G14  20555619.821 7 108020508.66407      -115.106 7        43.375    20555619.838 7        42.375    20555617.900 7  84171819.62807       -89.689 7        42.375    20555617.964 8  84171817.62808       -89.628 8        49.625    20555619.456 9  80664665.66509       -85.862 9        56.375
G17  21095837.554 7 110859374.69207      -526.418 7        43.188    21095837.571 6        41.688    21095835.308 6  86383918.65906      -410.192 6        41.688    21095835.369 8  86383918.66308      -410.179 8        49.250    21095837.513 9  82784597.34909      -393.112 9        56.063
G19  21622860.418 7 113628896.25607      1278.498 7        42.813    21622860.449 6        41.375    21622857.125 6  88541983.85806       996.236 6        41.375    21622857.175 8  88541983.85608       996.224 8        49.125    21622860.134 9  84852748.30809       954.663 9        55.875
G30  22218057.036 7 116756675.51507     -2965.579 7        42.625    22218057.053 6        41.125    22218057.422 6  90979231.61306     -2310.837 6        41.125    22218057.538 8  90979229.62208     -2310.882 8        49.000    22218056.754 9  87188426.63009     -2214.568 9        55.750
> 2023 01 08 12 50  0.0000000  0 19
E01  28140073.636 7 147877085.08607     -2292.462 7        43.500    28140073.465 8 110427692.84108     -1711.923 8        53.688    28140072.386 9 113308410.57309     -1756.542 9        57.125    28140072.987 9 111868051.78009     -1734.225 9        58.563
E10  24186453.038 7 127100668.74507      1495.720 7        44.750    24186452.993 9  94912836.91409      1116.965 9        55.063    24186451.939 9  97388819.28009      1146.023 9        58.500    24186452.515 9  96150828.17109      1131.486 9        60.000
E11  25840732.405 7 135793964.17507      2500.756 7        44.188    25840729.071 9 101404571.43309      1867.416 9        54.375    25840727.988 9 104049903.38809      1916.164 9        57.813    25840728.561 9 102727238.48409      1891.794 9        59.250
E12  23439729.223 7 123176607.23207       182.686 7        45.063    23439726.524 9  91982521.77009       136.433 9        55.313    23439725.454 9  94382061.13109       140.000 9        58.750    23439726.030 9  93182292.52409       138.221 9        60.250
E24  24402543.518 7 128236232.12307      1453.453 7        44.813    24402542.885 9  95760819.95209      1085.367 9        55.000    24402541.804 9  98258923.61109      1113.705 9        58.438    24402542.388 9  97009871.85409      1099.536 9        59.938
E25  28399141.236 7 149238494.82607      2504.161 7        43.438    28399142.231 8 111444333.32808      1869.979 8        53.563    28399141.135 9 114351573.14409      1918.801 9        57.000    28399141.750 9 112897954.80909      1894.394 9        58.500
E31  24081123.073 7 126547155.22407      -720.923 7        44.875    24081123.950 9  94499503.02709      -538.371 9        55.063    24081122.864 9  96964702.76809      -552.444 9        58.500    24081123.461 9  95732102.97109      -545.405 9        60.000
E33  25620895.148 7 134638712.57507     -2270.396 7        44.313    25620894.078 9 100541891.70609     -1695.375 9        54.563    25620892.982 9 103164718.97909     -1739.646 9        58.000    25620893.572 9 101853305.41709     -1717.516 9        59.375
G01  23010677.537 7 120921926.56307     -3399.719 7        42.875    23010677.559 6        40.000    23010678.333 6  94224882.74106     -2649.132 6        40.000    23010678.450 7  94224877.74307     -2649.124 7        47.875    23010677.463 9  90298840.62309     -2538.747 9        54.625
G03  23462894.787 7 123298343.16007       955.922 7        42.750    23462894.804 6        39.813    23462894.820 6  96076632.71206       744.875 6        39.813    23462894.964 7  96076628.72107       744.821 7        47.813    23462894.485 9  92073437.43809       713.771 9        54.563
G06  21708508.081 7 114078981.59207      2767.696 7        43.500    21708508.112 6        40.813    21708508.825 6  88892716.30706      2156.646 6        40.813    21708508.978 8  88892713.31108      2156.625 8        48.313    21708508.131 9  85188848.50609      2066.688 9        55.063
G07  24571344.738 7 129123286.41007     -3748.843 7        42.313    24571344.755 6        38.750    24571342.349 6 100615539.95406     -2921.176 6        38.750    24571342.421 7 100615536.95207     -2921.086 7        47.250    24571344.525 9  96423233.45609     -2799.354 9        54.063
G11  25229412.461 7 132581456.35007      3636.295 7        42.063    25229412.537 6        38.438    25229410.430 6 103310218.90106      2833.473 6        38.438    25229410.539 7 103310215.90807      2833.416 7        47.063    25229412.223 8  99005632.35208      2715.396 8        53.875
G13  25237347.963 7 132623158.87507     -2059.433 7        42.188    25237347.989 6        38.250    25237345.456 6 103342710.37606     -1604.753 6        38.250    25237345.507 7 103342708.38007     -1604.765 7        47.000    25237347.736 8  99036773.09708     -1537.884 8        53.813
G14  20565715.807 7 108073564.22407      -240.371 7        43.938    20565715.829 7        42.000    20565714.006 7  84213161.62107      -187.298 7        42.000    20565714.120 8  84213159.62208      -187.298 8        48.813    20565715.613 9  80704285.07809      -179.501 9        55.688
G17  21126984.678 7 111023052.76007      -565.190 7        43.500    21126984.700 6        41.313    21126982.194 6  86511460.00706      -440.407 6        41.313    21126982.293 8  86511460.01008      -440.346 8        48.563    21126984.419 9  82906824.47009      -422.045 9        55.313
G19  21551805.254 7 113255498.24307      1210.240 7        43.375    21551805.285 6        41.063    21551801.826 6  88251024.37006       943.044 6        41.063    21551801.991 8  88251024.37608       943.036 8        48.438    21551804.853 9  84573912.14109       903.684 9        55.188
G24  25016820.077 7 131464277.50807      2518.618 7        42.188    25016820.078 6        38.500    25016820.444 6 102439698.39906      1962.563 6        38.500    25016820.521 7 102439696.40507      1962.617 7        47.188    25016819.941 9  98171374.67409      1880.849 9        54.000
G30  22390019.655 7 117660345.00807     -3058.310 7        43.250    22390019.690 6        40.625    22390020.000 6  91683389.65806     -2383.099 6        40.625    22390020.122 8  91683387.65708     -2383.045 8        48.188    22390019.326 9  87863244.75209     -2283.775 9        54.938
> 2023 01 08 12 55  0.0000000  0 18
E01  28272293.263 7 148571904.13007     -2339.484 7        43.438    28272293.165 8 110946551.21408     -1746.935 8        53.938    28272292.070 9 113840804.38809     -1792.559 9        57.500    28272292.651 9 112393677.87409     -1769.745 9        58.875
E10  24104294.378 7 126668922.28807      1382.374 7        44.813    24104294.397 9  94590428.85009      1032.257 9        55.313    24104293.325 9  97058000.56509      1059.226 9        58.875    24104293.896 9  95824214.78109      1045.737 9        60.313
E11  25700074.384 7 135054801.63707      2426.350 7        44.188    25700071.076 9 100852599.40409      1811.900 9        54.625    25700070.009 9 103483532.09009      1859.167 9        58.250    25700070.601 9 102168066.81909      1835.538 9        59.625
E12  23432863.497 7 123140527.66007        58.126 7        45.000    23432860.810 9  91955579.23909        43.414 9        55.563    23432859.721 9  94354415.75009        44.570 9        59.125    23432860.320 9  93154998.56809        43.992 9        60.500
E24  24321125.668 7 127808377.61807      1397.987 7        44.688    24321124.876 9  95441318.20409      1044.006 9        55.250    24321123.808 9  97931087.03309      1071.265 9        58.875    24321124.381 9  96686202.69109      1057.635 9        60.250
E25  28255555.011 7 148483943.05407      2525.654 7        43.500    28255555.814 8 110880869.34108      1886.048 8        53.938    28255554.737 9 113773410.10409      1935.217 9        57.500    28255555.320 9 112327141.29609      1910.633 9        58.875
E31  24124841.077 7 126776895.30407      -811.078 7        44.813    24124842.037 9  94671062.17209      -605.612 9        55.313    24124840.960 9  97140737.37109      -621.455 9        58.875    24124841.532 9  95905899.84509      -613.539 9        60.313
E33  25752116.506 7 135328285.57107     -2325.900 7        44.188    25752115.431 9 101056832.58209     -1736.850 9        54.688    25752114.366 9 103693093.08709     -1782.126 9        58.313    25752114.951 9 102374962.90709     -1759.484 9        59.688
G01  23206988.043 7 121953545.28507     -3476.059 7        42.375    23206988.060 6        40.063    23206988.851 6  95028741.48506     -2708.617 6        40.063    23206988.905 7  95028736.49207     -2708.638 7        47.813    23206987.978 9  91069205.25709     -2595.774 9        54.750
G03  23412846.646 7 123035338.72707       796.353 7        42.250    23412846.663 6        40.063    23412846.762 6  95871694.19306       620.539 6        40.063    23412846.848 7  95871690.19507       620.523 7        47.813    23412846.423 9  91877038.01709       594.691 9        54.750
G06  21554215.142 7 113268165.69607      2636.777 7        42.938    21554215.159 6        41.188    21554215.708 6  88260911.71506      2054.632 6        41.188    21554215.776 8  88260908.72508      2054.591 8        48.375    21554215.006 9  84583369.10209      1969.018 9        55.375
G07  24784980.143 6 130245946.12606     -3734.165 6        41.750    24784980.192 6        38.813    24784977.350 6 101490339.73506     -2909.739 6        38.813    24784977.496 7 101490336.74107     -2909.841 7        47.188    24784979.593 9  97261583.25909     -2788.610 9        54.188
G11  25022486.113 6 131494052.00406      3611.833 6        41.750    25022486.157 6        38.750    25022484.294 6 102462890.84006      2814.416 6        38.750    25022484.373 7 102462887.84307      2814.399 7        47.125    25022486.042 9  98193609.62209      2697.172 9        54.125
G14  20583084.874 7 108164840.44907      -368.825 7        43.438    20583084.905 7        42.125    20583083.313 7  84284285.94807      -287.396 7        42.125    20583083.451 8  84284283.94608      -287.367 8        48.875    20583084.885 9  80772445.89209      -275.437 9        55.938
G17  21160258.373 7 111197906.95507      -599.994 7        42.938    21160258.413 6        41.438    21160255.850 6  86647710.03006      -467.532 6        41.438    21160255.940 8  86647710.03308      -467.605 8        48.500    21160258.074 9  83037397.41209      -448.110 9        55.563
G19  21484608.761 7 112902379.60707      1144.147 7        42.875    21484608.783 6        41.313    21484605.592 6  87975866.98606       891.543 6        41.313    21484605.650 8  87975866.98508       891.609 8        48.438    21484608.606 9  84310219.63709       854.423 9        55.438
G24  24876573.500 6 130727276.35706      2393.185 6        41.688    24876573.522 6        38.813    24876573.794 6 101865411.78906      1864.820 6        38.813    24876573.870 7 101865409.78307      1865.000 7        47.125    24876573.315 9  97621016.66309      1787.296 9        54.188
G30  22567006.718 7 118590418.15807     -3140.509 7        42.563    22567006.753 6        40.688    22567007.071 6  92408121.98206     -2447.150 6        40.688    22567007.107 8  92408119.99108     -2447.256 8        48.125    22567006.354 9  88557779.90409     -2345.291 9        55.125
> 2023 01 08 13 00  0.0000000  0 17
E01  28407187.831 7 149280778.98407     -2385.996 7        43.625    28407187.553 8 111475905.81708     -1781.786 8        53.688    28407186.477 9 114383968.24009     -1828.283 9        56.875    28407187.051 9 112929937.10309     -1805.031 9        58.438
E10  24028676.591 7 126271547.89307      1266.695 7        45.000    24028676.576 9  94293688.22609       945.928 9        55.125    24028675.483 9  96753518.88309       970.604 9        58.438    24028676.067 9  95523603.62709       958.270 9        60.000
E11  25563796.475 7 134338655.98707      2347.293 7        44.375    25563793.113 9 100317815.31509      1752.939 9        54.500    25563792.038 9 102934797.11509      1798.640 9        57.750    25563792.623 9 101626307.28809      1775.787 9        59.250
E12  23433084.500 7 123141689.07807       -65.409 7        45.313    23433081.813 9  91956446.53809       -48.919 9        55.375    23433080.733 9  94355305.66909       -50.139 9        58.625    23433081.326 9  93155877.17609       -49.526 9        60.188
E24  24243045.826 7 127398065.42707      1336.513 7        45.063    24243045.063 9  95134916.24209       998.081 9        55.125    24243043.981 9  97616691.97809      1024.118 9        58.375    24243044.570 9  96375804.18309      1011.103 9        60.000
E25  28110871.563 7 147723626.98607      2542.628 7        43.688    28110872.463 8 110313100.85408      1898.739 8        53.750    28110871.371 9 113190830.25609      1948.255 9        57.000    28110871.948 9 111751967.12709      1923.497 9        58.563
E31  24173791.150 7 127034130.06507      -904.160 7        45.000    24173792.189 9  94863153.06609      -675.185 9        55.125    24173791.109 9  97337839.33109      -692.794 9        58.375    24173791.700 9  96100496.27109      -683.987 9        59.938
E33  25886378.333 7 136033836.54907     -2376.837 7        44.438    25886377.344 9 101583705.06909     -1774.926 9        54.500    25886376.254 9 104233710.08209     -1821.221 9        57.750    25886376.840 9 102908707.64909     -1798.073 9        59.250
G01  23407411.512 7 123006777.29307     -3543.885 7        42.375    23407411.525 6        40.188    23407412.247 6  95849441.75106     -2761.465 6        40.188    23407412.284 8  95849436.75608     -2761.396 8        48.000    23407411.373 9  91855709.67709     -2646.333 9        55.250
G03  23372125.268 7 122821346.32807       629.201 7        42.438    23372125.281 6        40.313    23372125.350 6  95704946.87006       490.291 6        40.313    23372125.395 8  95704942.87008       490.360 8        48.000    23372125.040 9  91717238.49909       469.893 9        55.188
G06  21407604.600 7 112497722.30207      2498.596 7        43.125    21407604.622 6        41.625    21407605.193 6  87660566.21306      1946.958 6        41.625    21407605.254 8  87660563.21208      1946.954 8        48.625    21407604.515 9  84008037.99609      1865.846 9        56.000
G11  24817197.462 7 130415250.80107      3579.068 7        42.063    24817197.475 6        39.250    24817195.259 6 101622266.52506      2788.888 6        39.250    24817195.300 7 101622263.52807      2788.872 7        47.375    24817197.008 9  97388011.32609      2672.618 9        54.750
G14  20607928.135 7 108295391.10507      -502.056 7        43.625    20607928.157 7        42.500    20607926.254 7  84386013.73307      -391.208 7        42.500    20607926.431 8  84386011.73708      -391.175 8        49.063    20607927.856 9  80869935.02009      -374.912 9        56.375
G17  21195476.170 7 111382977.96707      -633.248 7        43.188    21195476.192 6        41.875    21195473.688 6  86791921.20906      -493.436 6        41.875    21195473.798 8  86791921.21508      -493.419 8        48.688    21195475.918 9  83175599.79109      -472.895 9        56.063
G19  21421171.159 7 112569011.93107      1078.607 7        43.188    21421171.190 6        41.813    21421167.787 6  87716099.97006       840.477 6        41.813    21421167.867 8  87716099.97308       840.526 8        48.688    21421170.851 9  84061276.25009       805.437 9        56.000
G24  24743720.249 7 130029127.68107      2259.713 7        42.063    24743720.275 6        39.250    24743720.524 6 101321399.83406      1760.815 6        39.250    24743720.593 7 101321397.83607      1760.860 7        47.375    24743720.004 9  97099671.87709      1687.522 9        54.750
G30  22748453.180 7 119543926.87107     -3214.453 7        42.625    22748453.220 6        40.813    22748453.733 6  93151115.78506     -2504.768 6        40.813    22748453.822 8  93151113.78708     -2504.736 8        48.188    22748453.040 9  89269815.62509     -2400.383 9        55.563
> 2023 01 08 13 05  0.0000000  0 17
E01  28544647.300 7 150003132.89707     -2429.382 7        43.563    28544646.936 8 112015325.94908     -1814.196 8        53.625    28544645.838 9 114937460.19609     -1861.450 9        56.875    28544646.424 9 113476393.14509     -1837.812 9        58.438
E10  23959639.325 7 125908754.10607      1151.772 7        45.063    23959639.194 9  94022770.79209       860.082 9        55.125    23959638.123 9  96475534.03609       882.559 9        58.438    23959638.705 9  95249152.48709       871.324 9        60.063
E11  25432077.637 7 133646468.76107      2266.586 7        44.500    25432074.270 9  99800922.25309      1692.643 9        54.500    25432073.186 9 102404419.89209      1736.711 9        57.875    25432073.768 9 101102672.14709      1714.666 9        59.313
E12  23440246.549 7 123179325.69707      -185.145 7        45.188    23440243.822 9  91984551.79909      -138.219 9        55.375    23440242.755 9  94384144.11009      -141.800 9        58.688    23440243.323 9  93184349.02609      -140.002 9        60.125
E24  24168575.223 7 127006720.03407      1271.482 7        45.063    24168574.505 9  94842677.80509       949.523 9        55.125    24168573.427 9  97316829.93109       974.269 9        58.500    24168574.017 9  96079753.94209       961.892 9        60.000
E25  27965265.806 7 146958463.83007      2557.883 7        43.750    27965266.789 8 109741712.78508      1910.053 8        53.750    27965265.696 9 112604536.41409      1959.864 9        57.125    27965266.276 9 111173126.17309      1934.958 9        58.563
E31  24228061.478 7 127319322.02807      -997.490 7        45.000    24228062.414 9  95076121.08809      -744.847 9        55.063    24228061.320 9  97556363.04009      -764.262 9        58.375    24228061.910 9  96316242.13709      -754.559 9        59.938
E33  26023347.190 7 136753613.23007     -2420.664 7        44.313    26023346.277 9 102121200.64109     -1807.752 9        54.438    26023345.214 9 104785227.27709     -1854.911 9        57.750    26023345.783 9 103453214.03309     -1831.336 9        59.250
G01  23611378.250 7 124078629.82907     -3600.383 7        42.438    23611378.263 6        39.938    23611378.996 6  96684651.52106     -2805.489 6        39.938    23611379.072 8  96684646.51908     -2805.464 8        48.188    23611378.109 9  92656119.03609     -2688.597 9        54.813
G03  23341065.268 7 122658127.05107       457.929 7        42.500    23341065.281 6        40.250    23341065.752 6  95577763.01806       356.828 6        40.250    23341065.875 8  95577759.02408       356.836 8        48.375    23341065.433 9  91595353.97909       341.952 9        54.938
G06  21268997.502 7 111769336.65207      2356.368 7        43.313    21268997.515 6        41.563    21268998.023 6  87092992.98306      1836.131 6        41.563    21268998.080 8  87092989.98608      1836.123 8        49.063    21268997.325 9  83464113.64409      1759.653 9        55.688
G11  24613941.268 7 129347134.88907      3540.554 7        42.063    24613941.285 6        39.188    24613939.529 6 100789968.41506      2758.869 6        39.188    24613939.659 7 100789965.41907      2758.865 7        47.938    24613941.299 9  96590392.30009      2643.897 9        54.500
G14  20640422.630 7 108466150.20107      -636.963 7        43.625    20640422.661 7        42.250    20640420.624 7  84519072.77207      -496.335 7        42.250    20640420.700 8  84519070.77908      -496.363 8        49.438    20640422.220 9  80997449.93309      -475.615 9        56.063
G17  21232467.999 7 111577371.35007      -662.360 7        43.125    21232468.012 6        41.625    21232465.539 6  86943396.57306      -516.125 6        41.625    21232465.580 8  86943396.57508      -516.055 8        49.063    21232467.758 9  83320763.68009      -494.600 9        55.688
G19  21361388.873 7 112254855.49807      1016.066 7        43.250    21361388.904 6        41.563    21361385.847 6  87471302.74406       791.736 6        41.563    21361385.872 8  87471302.74908       791.703 8        49.063    21361388.856 9  83826678.91309       758.700 9        55.750
G24  24618642.940 7 129371843.05007      2121.016 7        42.125    24618642.962 6        39.188    24618643.438 6 100809229.98906      1652.740 6        39.188    24618643.520 7 100809227.99307      1652.699 7        47.875    24618642.931 9  96608842.44909      1583.833 9        54.500
G30  22933788.590 7 120517870.25407     -3276.988 7        42.688    22933788.616 6        40.500    22933788.984 6  93910032.70906     -2553.501 6        40.500    22933789.037 8  93910030.71108     -2553.509 8        48.500    22933788.291 9  89997111.01109     -2447.093 9        55.125
> 2023 01 08 13 10  0.0000000  0 16
E10  23897201.193 7 125580640.16907      1035.957 7        45.438    23897201.215 9  93777750.64109       773.635 9        55.625    23897200.119 9  96224122.06109       793.708 9        58.875    23897200.711 9  95000936.42409       783.663 9        60.438
E11  25305083.105 7 132979108.10107      2182.327 7        44.813    25305079.733 9  99302568.51909      1629.648 9        54.938    25305078.668 9 101893065.61809      1672.181 9        58.250    25305079.259 9 100597818.14209      1650.916 9        59.813
E12  23454184.943 7 123252572.56607      -302.369 7        45.563    23454182.238 9  92039249.13509      -225.831 9        55.813    23454181.179 9  94440268.34209      -231.726 9        59.063    23454181.747 9  93239759.81109      -228.784 9        60.563
E24  24097987.202 7 126635777.41207      1200.902 7        45.375    24097986.471 9  94565675.20009       896.789 9        55.563    24097985.401 9  97032601.17209       920.192 9        58.875    24097985.976 9  95799138.25909       908.490 9        60.438
E25  27818926.185 7 146189444.43907      2568.777 7        44.125    27818927.244 9 109167445.04909      1918.191 9        54.250    27818926.179 9 112015287.78209      1968.247 9        57.563    27818926.736 9 110591367.98909      1943.219 9        59.063
E31  24287725.756 7 127632860.57107     -1092.616 7        45.250    24287726.794 9  95310257.02009      -815.962 9        55.500    24287725.737 9  97796606.86509      -837.260 9        58.750    24287726.314 9  96553432.01509      -826.613 9        60.313
E33  26162696.256 7 137485896.52707     -2459.956 7        44.563    26162695.137 9 102668035.56709     -1836.878 9        54.813    26162694.081 9 105346327.45809     -1884.816 9        58.125    26162694.653 9 104007181.58609     -1860.849 9        59.625
G01  23818333.682 7 125166186.16407     -3648.219 7        42.750    23818333.686 6        40.250    23818334.064 6  97532098.01306     -2842.768 6        40.250    23818334.154 8  97532093.01308     -2842.727 8        48.000    23818333.219 9  93468255.25609     -2724.233 9        55.188
G03  23319962.249 7 122547228.90207       281.050 7        42.813    23319962.266 6        40.750    23319962.556 6  95491348.88006       219.000 6        40.750    23319962.685 8  95491344.88608       218.943 8        48.188    23319962.211 9  91512540.43009       209.828 9        55.438
G06  21138686.137 7 111084545.02307      2208.408 7        43.688    21138686.154 7        42.250    21138686.504 7  86559389.11207      1720.837 7        42.250    21138686.579 8  86559386.11008      1720.895 8        49.000    21138685.806 9  82952743.27009      1649.175 9        56.250
G11  24413112.026 7 128291768.04407      3494.420 7        42.500    24413112.052 6        39.875    24413109.897 6  99967604.63406      2722.925 6        39.875    24413110.001 7  99967601.63907      2722.912 7        47.813    24413111.674 9  95802293.67709      2609.450 9        55.000
G14  20680724.536 7 108677940.48207      -775.112 7        43.938    20680724.562 7        42.688    20680723.014 7  84684104.16307      -603.984 7        42.688    20680723.080 8  84684102.16608      -603.971 8        49.250    20680724.571 9  81155605.01309      -578.814 9        56.500
G17  21271080.083 7 111780280.19107      -689.660 7        43.625    21271080.100 7        42.125    21271077.790 7  87101507.35507      -537.394 7        42.125    21271077.835 8  87101507.36008      -537.426 8        48.938    21271080.012 9  83472286.51409      -515.010 9        56.188
G19  21305162.995 7 111959384.92507       954.351 7        43.688    21305163.026 7        42.188    21305159.675 7  87241065.93807       743.650 7        42.188    21305159.744 8  87241065.93708       743.712 8        49.000    21305162.700 9  83606035.30309       712.677 9        56.188
G24  24501701.281 7 128757310.29107      1975.268 7        42.375    24501701.282 6        39.750    24501701.726 6 100330373.29306      1539.170 6        39.750    24501701.812 7 100330371.30007      1539.121 7        47.813    24501701.222 9  96149938.11509      1475.038 9        55.000
G30  23122441.392 7 121509247.45907     -3330.347 7        43.000    23122441.414 6        40.938    23122441.799 6  94682534.42706     -2595.076 6        40.938    23122441.851 8  94682532.42408     -2594.969 8        48.375    23122441.089 9  90737425.15409     -2486.896 9        55.563
> 2023 01 08 13 15  0.0000000  0 16
E10  23841358.886 7 125287186.65307       920.220 7        45.250    23841358.862 9  93558613.27509       687.126 9        55.750    23841357.789 9  95999268.06509       705.075 9        59.000    23841358.374 9  94778940.74309       696.104 9        60.625
E11  25182961.567 7 132337355.32807      2095.314 7        44.625    25182958.269 9  98823337.55209      1564.702 9        55.125    25182957.191 9 101401332.97609      1605.524 9        58.500    25182957.767 9 100112336.33709      1585.115 9        60.000
E12  23474715.867 7 123360462.76207      -416.609 7        45.438    23474713.059 9  92119816.48809      -311.100 9        55.875    23474711.995 9  94522937.45009      -319.208 9        59.250    23474712.576 9  93321378.04309      -315.154 9        60.688
E24  24031553.807 7 126286667.85007      1125.408 7        45.188    24031553.145 9  94304976.49909       840.355 9        55.688    24031552.051 9  96765101.63309       862.293 9        59.125    24031552.645 9  95535039.13909       851.328 9        60.625
E25  27672053.448 7 145417622.52007      2575.819 7        44.063    27672054.418 9 108591084.53409      1923.442 9        54.375    27672053.344 9 111423891.76909      1973.687 9        57.813    27672053.927 9 110007489.72409      1948.574 9        59.250
E31  24352842.111 7 127975048.34507     -1189.057 7        45.000    24352842.966 9  95565786.85409      -887.893 9        55.563    24352841.902 9  98058802.69309      -911.059 9        58.875    24352842.485 9  96812294.84609      -899.474 9        60.438
E33  26304103.536 7 138228996.72307     -2493.651 7        44.438    26304102.418 9 103222948.05109     -1862.056 9        54.813    26304101.337 9 105915715.92009     -1910.619 9        58.250    26304101.923 9 104569332.05909     -1886.343 9        59.750
G01  24027736.003 7 126266606.34207     -3686.781 7        42.375    24027736.020 6        40.000    24027737.076 6  98389568.28306     -2872.820 6        40.000    24027737.144 8  98389563.28608     -2872.869 8        48.063    24027736.229 9  94289997.60109     -2753.131 9        54.813
G03  23309065.597 7 122489964.69007        99.741 7        42.688    23309065.623 6        40.625    23309065.539 6  95446727.41206        77.720 6        40.625    23309065.616 8  95446723.41108        77.781 8        48.375    23309065.192 9  91469778.18009        74.595 9        55.188
G06  21016930.404 7 110444714.39607      2056.101 7        43.438    21016930.421 7        42.250    21016930.782 7  86060819.79307      1602.156 7        42.250    21016930.868 8  86060816.80308      1602.120 8        49.250    21016930.108 9  82474947.67809      1535.380 9        56.000
G11  24215094.041 7 127251178.24807      3441.433 7        42.313    24215094.063 6        40.000    24215092.248 6  99156755.44806      2681.632 6        40.000    24215092.370 8  99156752.45008      2681.628 8        48.063    24215094.026 9  95025229.87009      2569.894 9        54.813
G14  20728966.767 7 108931454.03607      -915.574 7        43.563    20728966.780 7        42.625    20728965.012 7  84881647.18607      -713.439 7        42.625    20728965.099 8  84881645.19708      -713.529 8        49.438    20728966.608 9  81344917.08309      -683.740 9        56.188
G17  21311174.339 7 111990978.40607      -714.974 7        43.375    21311174.352 7        42.000    21311172.307 7  87265687.78507      -557.122 7        42.000    21311172.436 8  87265687.78508      -557.073 8        49.063    21311174.516 9  83629626.09209      -533.874 9        55.875
G19  21252394.747 7 111682086.18407       894.291 7        43.500    21252394.778 7        42.188    21252391.475 7  87024988.99707       696.846 7        42.188    21252391.589 8  87024988.99908       696.764 8        49.125    21252394.485 9  83398961.56409       667.776 9        56.000
G24  24393226.148 7 128187268.84207      1823.865 7        42.250    24393226.165 6        39.813    24393226.428 6  99886185.15506      1421.194 6        39.813    24393226.552 8  99886183.15308      1421.181 8        48.000    24393225.950 9  95724257.81309      1361.914 9        54.688
G30  23313841.198 7 122515060.71707     -3373.906 7        42.625    23313841.220 6        40.625    23313841.674 6  95466285.01406     -2629.022 6        40.625    23313841.798 8  95466283.01508     -2628.960 8        48.375    23313841.012 9  91488519.46709     -2519.413 9        55.188
> 2023 01 08 13 20  0.0000000  0 16
E10  23792085.505 7 125028253.29807       804.972 7        44.875    23792085.456 9  93365253.95809       601.072 9        55.438    23792084.396 9  95800864.59209       616.736 9        59.000    23792084.979 9  94583059.34809       608.904 9        60.438
E11  25065843.974 7 131721898.25207      2006.036 7        44.375    25065840.688 9  98363742.97809      1498.006 9        54.938    25065839.586 9 100929748.97909      1537.121 9        58.438    25065840.177 9  99646747.05309      1517.565 9        59.938
E12  23501636.339 7 123501931.34007      -527.217 7        44.938    23501633.655 9  92225458.61109      -393.740 9        55.625    23501632.571 9  94631335.45009      -403.927 9        59.125    23501633.158 9  93428398.10309      -398.828 9        60.563
E24  23969544.247 7 125960804.87307      1044.985 7        44.875    23969543.480 9  94061637.26509       780.314 9        55.500    23969542.392 9  96515414.41909       800.679 9        59.000    23969542.979 9  95288525.91509       790.500 9        60.438
E25  27524858.844 7 144644110.09607      2579.051 7        43.563    27524859.905 9 108013461.61809      1925.879 9        54.250    27524858.815 9 110831200.43409      1976.067 9        57.750    27524859.403 9 109422332.59909      1950.967 9        59.125
E31  24423449.805 7 128346094.46607     -1286.060 7        44.625    24423450.706 9  95842866.74409      -960.314 9        55.188    24423449.607 9  98343110.75409      -985.394 9        58.750    24423450.206 9  97092988.82309      -972.860 9        60.188
E33  26447253.556 7 138981255.53507     -2521.934 7        44.063    26447252.505 9 103784699.76009     -1883.227 9        54.563    26447251.449 9 106492122.02709     -1932.383 9        58.063    26447252.020 9 105138410.96709     -1907.811 9        59.500
G01  24239062.380 7 127377132.90507     -3716.582 7        42.125    24239062.384 6        39.875    24239063.267 6  99254913.65706     -2896.038 6        39.875    24239063.303 8  99254908.66008     -2895.989 8        48.125    24239062.382 9  95119286.92009     -2775.374 9        55.000
G03  23308576.890 7 122487398.13507       -84.485 7        42.688    23308576.916 6        40.625    23308577.140 6  95444727.50206       -65.833 6        40.625    23308577.217 8  95444723.51008       -65.865 8        48.500    23308576.785 9  91467861.60909       -63.109 9        55.438
G06  20903956.057 7 109851029.77207      1899.879 7        43.500    20903956.074 7        42.375    20903956.370 7  85598208.39807      1480.425 7        42.375    20903956.389 8  85598205.40208      1480.397 8        49.313    20903955.657 9  82031611.75409      1418.757 9        56.313
G11  24020265.139 7 126227346.53807      3381.715 7        42.438    24020265.165 6        40.000    24020263.542 6  98358964.50306      2635.103 6        40.000    24020263.616 8  98358961.50208      2635.160 8        48.125    24020265.320 9  94260680.21309      2525.314 9        55.125
G14  20785252.763 7 109227240.27207     -1057.954 7        43.625    20785252.776 7        42.563    20785251.244 7  85112129.97107      -824.384 7        42.563    20785251.377 8  85112127.96908      -824.245 8        49.438    20785252.865 9  81565796.41109      -789.980 9        56.438
G17  21352628.670 7 112208819.78807      -738.322 7        43.313    21352628.696 6        41.875    21352626.158 6  87435434.31606      -575.316 6        41.875    21352626.279 8  87435434.31308      -575.299 8        49.063    21352628.381 9  83792299.84709      -551.348 9        56.125
G19  21202989.244 7 111422459.68207       835.593 7        43.438    21202989.275 7        42.188    21202986.181 7  86822682.63407       651.111 7        42.188    21202986.233 8  86822682.63408       651.136 8        49.188    21202989.223 9  83205084.63709       623.946 9        56.188
G24  24293516.491 7 127663292.07607      1667.249 7        42.250    24293516.504 6        39.813    24293516.982 6  99477891.56706      1299.155 6        39.813    24293517.076 8  99477889.57108      1299.151 8        48.125    24293516.476 9  95332976.46009      1245.032 9        55.000
G30  23507419.820 7 123532323.81507     -3407.602 7        42.625    23507419.851 6        40.563    23507420.429 6  96258957.56006     -2655.278 6        40.563    23507420.435 8  96258955.56308     -2655.270 8        48.438    23507419.743 9  92248163.99509     -2544.669 9        55.375
> 2023 01 08 13 25  0.0000000  0 16
E10  23749336.007 7 124803602.47307       692.819 7        45.188    23749335.860 9  93197495.22509       517.286 9        55.438    23749334.771 9  95628729.54309       530.841 9        59.188    23749335.347 9  94413112.45809       524.073 9        60.500
E11  24953846.896 7 131133349.73407      1917.016 7        44.688    24953843.602 9  97924242.46209      1431.589 9        55.000    24953842.541 9 100478783.23309      1468.911 9        58.625    24953843.114 9  99201513.92109      1450.246 9        60.063
E12  23534730.818 7 123675844.67607      -631.734 7        45.250    23534728.242 9  92355328.95909      -471.742 9        55.625    23534727.169 9  94764593.72509      -484.060 9        59.250    23534727.757 9  93559962.41609      -477.903 9        60.563
E24  23912226.655 7 125659598.71707       962.134 7        45.250    23912225.837 9  93836710.58909       718.461 9        55.500    23912224.763 9  96284620.09309       737.171 9        59.188    23912225.341 9  95060665.41409       727.812 9        60.563
E25  27377569.329 7 143870097.32107      2580.186 7        44.000    27377570.163 9 107435465.06509      1926.762 9        54.250    27377569.086 9 110238125.70909      1977.045 9        57.938    27377569.665 9 108836796.96009      1951.902 9        59.250
E31  24499574.502 7 128746133.11707     -1381.192 7        44.938    24499575.534 9  96141596.90709     -1031.433 9        55.188    24499574.471 9  98649633.87609     -1058.291 9        58.875    24499575.042 9  97395615.46509     -1044.854 9        60.250
E33  26591842.036 7 139741072.46507     -2542.891 7        44.188    26591840.856 9 104352095.52409     -1898.924 9        54.438    26591839.807 9 107074319.41109     -1948.421 9        58.188    26591840.367 9 105713207.54009     -1923.668 9        59.500
G01  24451808.947 7 128495119.97007     -3735.474 7        42.125    24451808.955 6        39.813    24451809.126 6 100126072.40906     -2910.759 6        39.813    24451809.205 8 100126067.40908     -2910.746 8        48.000    24451808.234 9  95954147.38609     -2789.493 9        54.563
G03  23318654.251 7 122540357.17107      -269.053 7        42.375    23318654.255 6        40.750    23318654.886 6  95485994.28106      -209.651 6        40.750    23318654.995 8  95485990.28808      -209.713 8        48.375    23318654.576 9  91507408.93909      -200.916 9        55.063
G06  20799956.142 7 109304507.25907      1742.843 7        43.438    20799956.155 7        42.500    20799956.577 7  85172346.70107      1358.059 7        42.500    20799956.600 8  85172343.70708      1358.064 8        49.313    20799955.902 9  81623494.29709      1301.458 9        56.000
G11  23828996.243 7 125222220.40307      3317.872 7        42.250    23828996.274 6        40.313    23828994.430 6  97575749.33106      2585.355 6        40.313    23828994.505 8  97575746.32808      2585.334 8        48.188    23828996.180 9  93510099.00509      2477.612 9        54.813
G14  20849663.498 7 109565719.83807     -1198.989 7        43.438    20849663.515 7        42.688    20849661.771 7  85375880.27907      -934.277 7        42.688    20849661.908 8  85375878.28908      -934.355 8        49.313    20849663.349 9  81818557.13109      -895.419 9        56.063
G17  21395338.416 7 112433261.18107      -757.923 7        43.063    21395338.438 7        42.125    21395335.949 7  87610323.71307      -590.585 7        42.125    21395336.076 8  87610323.71308      -590.540 8        49.000    21395338.147 9  83959902.18709      -565.966 9        55.750
G19  21156859.925 7 111180047.95807       780.536 7        43.250    21156859.947 7        42.313    21156856.771 7  86633790.37907       608.214 7        42.313    21156856.899 8  86633790.38208       608.206 8        49.188    21156859.786 9  83024062.89309       582.836 9        55.875
G24  24202842.152 7 127186795.17507      1508.474 7        42.250    24202842.165 6        40.063    24202842.659 6  99106595.28306      1175.434 6        40.063    24202842.719 8  99106593.28608      1175.442 8        48.063    24202842.127 9  94977150.85309      1126.454 9        54.688
G30  23702617.512 7 124558094.41907     -3429.426 7        42.438    23702617.543 6        40.563    23702618.107 6  97058259.33406     -2672.280 6        40.563    23702618.167 8  97058257.33908     -2672.304 8        48.313    23702617.390 9  93014161.53409     -2561.013 9        54.938
> 2023 01 08 13 30  0.0000000  0 16
E10  23713039.367 7 124612862.71907       580.046 7        44.938    23713039.271 9  93055059.68709       433.174 9        55.625    23713038.204 9  95482578.29909       444.414 9        59.188    23713038.767 9  94268819.06609       438.789 9        60.625
E11  24847064.759 7 130572206.18007      1824.559 7        44.438    24847061.543 9  97505206.69109      1362.542 9        55.125    24847060.485 9 100048816.09209      1398.099 9        58.625    24847061.050 9  98777012.46509      1380.319 9        60.125
E12  23573764.925 7 123880969.53407      -734.060 7        45.063    23573762.211 9  92508506.61209      -548.177 9        55.688    23573761.137 9  94921767.31509      -562.454 9        59.188    23573761.714 9  93715138.03609      -555.316 9        60.625
E24  23859859.666 7 125384408.96707       872.788 7        44.938    23859858.957 9  93631211.75109       651.647 9        55.688    23859857.902 9  96073760.41009       668.735 9        59.188    23859858.474 9  94852486.15409       660.195 9        60.625
E25  27230417.796 7 143096811.49807      2575.198 7        43.813    27230418.754 9 106858011.36109      1923.112 9        54.438    27230417.713 9 109645607.99409      1973.289 9        58.000    27230418.270 9 108251811.25009      1948.204 9        59.375
E31  24581219.918 7 129175182.15207     -1478.236 7        44.563    24581220.816 9  96461990.66809     -1103.842 9        55.313    24581219.778 9  98978385.73709     -1132.634 9        58.813    24581220.337 9  97720188.27609     -1118.232 9        60.313
E33  26737568.456 7 140506870.07807     -2560.731 7        43.813    26737567.300 9 104923957.37509     -1912.203 9        54.563    26737566.247 9 107661099.40009     -1962.010 9        58.125    26737566.803 9 106292528.46109     -1937.105 9        59.500
G01  24665485.729 7 129618000.52507     -3748.123 7        42.063    24665485.751 6        39.813    24665486.178 6 101001044.26506     -2920.611 6        39.813    24665486.203 7 101001039.26207     -2920.566 7        47.688    24665485.306 9  96792662.08009     -2798.852 9        54.500
G03  23339402.837 7 122649388.65207      -457.078 7        42.563    23339402.863 6        40.875    23339402.890 6  95570953.87406      -356.160 6        40.875    23339403.024 8  95570949.87308      -356.083 8        48.250    23339402.552 9  91588828.54409      -341.273 9        55.000
G06  20705083.707 7 108805948.27007      1581.393 7        43.500    20705083.729 7        42.688    20705083.959 7  84783859.17107      1232.258 7        42.688    20705084.027 8  84783856.17308      1232.291 8        49.125    20705083.254 9  81251193.74409      1180.945 9        56.000
G11  23641642.202 7 124237666.60507      3245.778 7        42.375    23641642.219 6        40.563    23641640.032 6  96808564.55406      2529.182 6        40.563    23641640.166 8  96808561.55408      2529.214 8        48.125    23641641.806 9  92774880.26609      2423.795 9        54.875
G14  20922245.166 7 109947139.16107     -1342.809 7        43.500    20922245.197 7        42.688    20922243.485 7  85673090.14307     -1046.340 7        42.688    20922243.552 8  85673088.14708     -1046.365 8        49.188    20922245.050 9  82103383.24709     -1002.774 9        56.000
G17  21439212.741 7 112663824.53907      -777.966 7        43.125    21439212.772 7        42.125    21439210.691 7  87789983.47007      -606.203 7        42.125    21439210.770 8  87789983.47508      -606.256 8        48.875    21439212.901 9  84132076.12609      -580.984 9        55.625
G19  21113920.928 7 110954402.42807       724.969 7        43.313    21113920.959 7        42.438    21113917.868 7  86457962.69707       564.915 7        42.438    21113917.936 8  86457962.70308       564.923 8        49.063    21113920.881 9  82855561.36409       541.353 9        55.813
G24  24121432.545 7 126758983.49307      1343.975 7        42.250    24121432.553 6        40.188    24121432.783 6  98773235.53206      1047.258 6        40.188    24121432.834 7  98773233.53007      1047.286 7        47.938    24121432.274 9  94657681.08909      1003.630 9        54.625
G30  23898876.948 7 125589444.88007     -3443.656 7        42.313    23898876.974 6        40.438    23898877.550 6  97861909.03706     -2683.360 6        40.438    23898877.603 8  97861907.04408     -2683.385 8        48.063    23898876.861 9  93784325.82909     -2571.569 9        54.750
> 2023 01 08 13 35  0.0000000  0 16
E10  23683110.463 7 124455585.75707       469.327 7        45.250    23683110.443 9  92937612.60109       350.515 9        55.688    23683109.375 9  95362067.38109       359.590 9        59.188    23683109.974 9  94149840.06509       355.047 9        60.625
E11  24745580.007 7 130038899.14207      1731.124 7        44.750    24745576.580 9  97106957.93209      1292.754 9        55.188    24745575.505 9  99640178.23409      1326.478 9        58.688    24745576.096 9  98373569.15609      1309.616 9        60.125
E12  23618496.447 7 124116035.03207      -831.793 7        45.313    23618493.685 9  92684042.53909      -621.117 9        55.750    23618492.610 9  95101882.43609      -637.284 9        59.188    23618493.197 9  93892963.56109      -629.195 9        60.625
E24  23812701.158 7 125136589.68007       779.253 7        45.250    23812700.523 9  93446151.89109       581.894 9        55.688    23812699.455 9  95883872.90309       597.098 9        59.188    23812700.036 9  94665012.47009       589.500 9        60.563
E25  27083655.112 7 142325568.36207      2566.160 7        44.063    27083656.087 9 106282083.05609      1916.292 9        54.500    27083655.006 9 109054655.47409      1966.262 9        58.000    27083655.584 9 107668370.83809      1941.275 9        59.375
E31  24668376.766 7 129633194.90007     -1574.572 7        44.875    24668377.784 9  96804013.17509     -1175.828 9        55.313    24668376.688 9  99329330.57009     -1206.482 9        58.813    24668377.283 9  98066671.94609     -1191.149 9        60.250
E33  26884147.945 7 141277151.47207     -2573.123 7        44.125    26884147.003 9 105499167.51409     -1921.574 9        54.563    26884145.903 9 108251315.01609     -1971.650 9        58.063    26884146.492 9 106875241.33809     -1946.602 9        59.438
G01  24879631.214 7 130743345.14507     -3752.411 7        42.125    24879631.249 6        39.375    24879632.137 6 101877936.17706     -2923.956 6        39.375    24879632.243 7 101877931.18007     -2923.919 7        47.563    24879631.295 9  97633016.83409     -2802.105 9        54.438
G03  23370881.046 7 122814808.31607      -645.071 7        42.563    23370881.063 6        40.500    23370881.199 6  95699852.31606      -502.653 6        40.500    23370881.311 8  95699848.32708      -502.796 8        48.188    23370880.892 9  91712356.22509      -481.846 9        55.000
G06  20619458.951 7 108355987.66207      1418.555 7        43.688    20619458.955 7        42.500    20619459.306 7  84433240.52307      1105.367 7        42.500    20619459.373 8  84433237.51808      1105.417 8        49.125    20619458.606 9  80915184.20109      1059.369 9        56.063
G11  23458550.865 7 123275516.65007      3168.014 7        42.625    23458550.873 6        40.438    23458549.017 6  96058837.31806      2468.582 6        40.438    23458549.140 8  96058834.32308      2468.648 8        48.125    23458550.777 9  92056391.66409      2365.792 9        55.000
G14  21003021.433 7 110371618.88207     -1486.355 7        43.563    21003021.464 7        42.375    21003019.283 7  86003853.56107     -1158.199 7        42.375    21003019.354 8  86003851.56808     -1158.248 8        49.063    21003020.849 9  82420364.85909     -1109.992 9        56.000
G17  21484184.440 7 112900150.97107      -796.663 7        43.313    21484184.466 6        41.750    21484182.103 6  87974133.94106      -620.777 6        41.750    21484182.205 8  87974133.95208      -620.887 8        48.813    21484184.336 9  84308553.66209      -595.005 9        55.688
G19  21074100.126 7 110745142.54107       670.884 7        43.563    21074100.161 7        42.250    21074097.005 7  86294903.04107       522.771 7        42.250    21074097.127 8  86294903.04508       522.734 8        49.000    21074100.053 9  82699295.86209       500.981 9        55.938
G24  24049484.502 7 126380894.68107      1176.708 7        42.375    24049484.519 6        40.000    24049484.895 6  98478620.87306       916.915 6        40.000    24049484.949 7  98478618.87507       916.931 7        47.875    24049484.373 9  94375342.04309       878.738 9        54.750
G30  24095655.819 7 126623524.65407     -3448.060 7        42.313    24095655.845 6        40.125    24095656.389 6  98667685.48406     -2686.800 6        40.125    24095656.494 7  98667683.48907     -2686.849 7        47.875    24095655.691 9  94556528.25209     -2574.885 9        54.813
> 2023 01 08 13 40  0.0000000  0 15
E10  23659439.355 7 124331193.47407       360.485 7        45.375    23659439.400 9  92844722.26709       269.201 9        56.125    23659438.308 9  95266753.81209       276.216 9        59.063    23659438.891 9  94055738.11309       272.704 9        60.750
E11  24649450.695 7 129533736.77007      1636.670 7        44.875    24649447.385 9  96729726.29609      1222.142 9        55.688    24649446.318 9  99253105.76909      1254.072 9        58.625    24649446.894 9  97991417.10609      1238.111 9        60.313
E12  23668667.127 7 124379684.11407      -924.928 7        45.375    23668664.452 9  92880923.34309      -690.752 9        56.125    23668663.358 9  95303899.26509      -708.747 9        59.063    23668663.944 9  94092412.37709      -699.742 9        60.750
E24  23770995.370 7 124917423.72507       681.368 7        45.500    23770994.645 9  93282488.99909       508.806 9        56.125    23770993.556 9  95715940.55009       522.075 9        59.125    23770994.139 9  94499214.84809       515.438 9        60.750
E25  26937537.029 7 141557712.37807      2552.281 7        44.250    26937537.937 9 105708684.10509      1905.921 9        54.938    26937536.874 9 108466298.28709      1955.644 9        57.938    26937537.447 9 107087492.76909      1930.784 9        59.625
E31  24761013.011 7 130120001.84207     -1670.486 7        45.000    24761014.049 9  97167537.84009     -1247.418 9        55.750    24761012.965 9  99702338.48709     -1280.003 9        58.625    24761013.554 9  98434938.23609     -1263.712 9        60.375
E33  27031301.292 7 142050446.60807     -2581.174 7        44.313    27031300.158 9 106076628.16309     -1927.441 9        54.938    27031299.078 9 108843839.86009     -1977.790 9        57.875    27031299.663 9 107460234.08509     -1952.621 9        59.563
G03  23413094.225 7 123036642.60007      -833.370 7        42.813    23413094.233 6        40.938    23413094.882 6  95872710.20006      -649.383 6        40.938    23413094.988 8  95872706.19908      -649.346 8        48.875    23413094.561 9  91878011.68909      -622.275 9        55.250
G06  20543159.562 7 107955033.08907      1254.535 7        43.938    20543159.563 7        43.063    20543160.194 7  84120808.38407       977.555 7        43.063    20543160.294 8  84120805.38708       977.584 8        49.938    20543159.484 9  80615770.07909       936.785 9        56.313
G11  23280052.918 7 122337501.45907      3084.511 7        42.750    23280052.919 6        41.000    23280050.668 6  95327916.38906      2403.515 6        41.000    23280050.719 8  95327913.39008      2403.561 8        48.875    23280052.423 9  91355925.77109      2303.428 9        55.250
G14  21091977.880 7 110839092.98907     -1629.697 7        43.750    21091977.906 7        42.688    21091976.647 7  86368119.09907     -1269.898 7        42.688    21091976.716 8  86368117.10108     -1269.910 8        49.750    21091978.228 9  82769452.66309     -1217.017 9        56.188
G17  21530195.809 7 113141943.54807      -814.867 7        43.438    21530195.840 7        42.250    21530193.727 7  88162543.73707      -634.965 7        42.250    21530193.810 8  88162543.74408      -635.006 8        49.563    21530195.938 9  84489113.04809      -608.501 9        55.938
G19  21037327.816 7 110551903.64907       617.729 7        43.688    21037327.851 7        42.750    21037324.894 7  86144327.27907       481.348 7        42.750    21037324.976 8  86144327.27708       481.360 8        49.875    21037327.894 9  82554994.08409       461.299 9        56.125
G24  23987151.457 7 126053331.60907      1006.775 7        42.563    23987151.474 6        40.500    23987151.689 6  98223376.92006       784.496 6        40.500    23987151.817 8  98223374.92008       784.603 8        48.625    23987151.185 9  94130733.25509       751.907 9        54.938
G30  24292416.952 7 127657511.27107     -3443.451 7        42.500    24292416.987 6        40.375    24292417.503 6  99473389.34306     -2683.213 6        40.375    24292417.536 8  99473387.34108     -2683.205 8        48.563    24292416.812 9  95328661.11809     -2571.397 9        54.938
> 2023 01 08 13 45  0.0000000  0 15
E10  23641901.523 7 124239030.52307       254.580 7        45.125    23641901.358 9  92775899.28109       190.105 9        56.125    23641900.285 9  95196135.44509       195.072 9        58.750    23641900.866 9  93986017.43609       192.588 9        60.563
E11  24558721.426 7 129056950.83607      1542.106 7        44.688    24558718.038 9  96373684.84709      1151.565 9        55.625    24558716.980 9  98887776.28609      1181.610 9        58.250    24558717.543 9  97630731.64009      1166.589 9        60.125
E12  23724013.332 7 124670530.07007     -1012.982 7        45.000    23724010.585 9  93098113.50509      -756.436 9        56.000    23724009.506 9  95526755.25509      -776.148 9        58.688    23724010.089 9  94312435.45309      -766.294 9        60.500
E24  23734980.123 7 124728162.05407       579.972 7        45.125    23734979.313 9  93141157.23409       433.096 9        56.063    23734978.249 9  95570921.86609       444.394 9        58.750    23734978.837 9  94356039.62309       438.749 9        60.563
E25  26792333.358 7 140794661.51407      2534.157 7        44.125    26792334.192 9 105138873.39009      1892.386 9        54.938    26792333.111 9 107881622.94509      1941.769 9        57.625    26792333.690 9 106510249.74109      1917.081 9        59.438
E31  24859081.992 7 130635357.87707     -1764.788 7        44.688    24859083.034 9  97552381.62909     -1317.873 9        55.688    24859081.972 9 100097221.67609     -1352.192 9        58.250    24859082.547 9  98824801.72509     -1335.019 9        60.125
E33  27178762.791 7 142825363.12807     -2583.953 7        43.875    27178761.850 9 106655299.59009     -1929.615 9        54.750    27178760.795 9 109437607.06309     -1979.908 9        57.438    27178761.366 9 108046453.40009     -1954.748 9        59.250
G03  23466003.248 7 123314677.71507     -1019.635 7        42.500    23466003.270 6        40.500    23466003.202 6  96089360.93506      -794.524 6        40.500    23466003.293 8  96089356.93808      -794.594 8        48.625    23466002.879 9  92085635.31509      -761.482 9        55.438
G06  20476229.155 7 107603310.98407      1090.641 7        43.625    20476229.177 7        42.625    20476229.691 7  83846739.21507       849.850 7        42.625    20476229.745 8  83846736.22308       849.768 8        49.813    20476229.003 9  80353120.46109       814.345 9        56.500
G11  23106464.685 7 121425291.24207      2996.216 7        42.625    23106464.693 6        40.688    23106462.839 6  94617103.23306      2334.714 6        40.688    23106462.885 8  94617100.23208      2334.718 8        48.688    23106464.570 9  90674729.82909      2237.450 9        55.563
G14  21189078.069 7 111349354.28507     -1771.462 7        43.375    21189078.082 7        42.250    21189076.139 7  86765725.30007     -1380.360 7        42.250    21189076.215 8  86765723.30408     -1380.425 8        49.563    21189077.722 9  83150491.94209     -1322.892 9        56.313
G17  21577212.375 7 113389014.46107      -831.946 7        43.000    21577212.410 6        41.750    21577209.739 6  88355066.52606      -648.273 6        41.750    21577209.831 8  88355066.52708      -648.232 8        49.188    21577211.948 9  84673614.05509      -621.266 9        56.063
G19  21003548.479 7 110374389.59207       566.104 7        43.438    21003548.510 7        42.313    21003545.068 7  86006004.64107       441.116 7        42.313    21003545.133 8  86006004.64508       441.104 8        49.500    21003548.097 9  82422434.89109       422.744 9        56.375
G24  23934548.468 7 125776901.77807       835.940 7        42.313    23934548.476 6        40.125    23934548.833 6  98007977.04806       651.381 6        40.125    23934548.856 8  98007975.05208       651.422 8        48.375    23934548.332 9  93924308.38009       624.299 9        55.250
G30  24488638.999 7 128688665.39207     -3429.115 7        42.125    24488639.016 6        39.875    24488639.585 6 100276886.06206     -2672.038 6        39.875    24488639.694 8 100276884.06108     -2672.046 8        48.250    24488638.911 9  96098678.80609     -2560.778 9        55.063
> 2023 01 08 13 50  0.0000000  0 15
E10  23630352.309 7 124178339.75307       151.687 7        45.313    23630352.292 9  92730578.25609       113.237 9        56.125    23630351.223 9  95149632.13009       116.191 9        59.188    23630351.805 9  93940105.26609       114.710 9        60.813
E11  24473415.649 7 128608666.51607      1447.578 7        44.875    24473412.377 9  96038927.07309      1080.984 9        55.688    24473411.306 9  98544285.70109      1109.204 9        58.750    24473411.881 9  97291607.46009      1095.099 9        60.375
E12  23784261.276 7 124987135.28207     -1095.696 7        45.188    23784258.571 9  93334539.47909      -818.262 9        56.000    23784257.476 9  95769348.86109      -839.583 9        59.063    23784258.067 9  94551945.24209      -828.919 9        60.688
E24  23704880.097 7 124569985.27707       475.124 7        45.313    23704879.302 9  93023038.21409       354.816 9        56.125    23704878.222 9  95449721.48209       364.003 9        59.188    23704878.803 9  94236379.92109       359.400 9        60.813
E25  26648321.384 7 140037873.98307      2511.455 7        44.125    26648322.302 9 104573739.84309      1875.398 9        55.000    26648321.236 9 107301746.78409      1924.370 9        58.125    26648321.812 9 105937744.88709      1899.891 9        59.750
E31  24962517.021 7 131178912.41607     -1857.419 7        44.750    24962518.047 9  97958282.74909     -1387.073 9        55.625    24962516.967 9 100513711.52609     -1423.249 9        58.625    24962517.540 9  99235997.21109     -1405.161 9        60.313
E33  27326277.896 7 143600559.04507     -2582.020 7        44.063    27326276.747 9 107234179.66209     -1928.226 9        54.750    27326275.671 9 110031588.35909     -1978.507 9        57.875    27326276.255 9 108632884.08409     -1953.365 9        59.500
G03  23529514.869 7 123648433.69307     -1203.687 7        42.688    23529514.877 6        40.813    23529514.852 6  96349430.52706      -937.946 6        40.813    23529514.959 8  96349426.53608      -937.962 8        48.625    23529514.522 9  92334868.67309      -898.873 9        55.375
G06  20418670.264 7 107300836.71307       927.230 7        43.875    20418670.281 7        43.125    20418670.733 7  83611044.97207       722.513 7        43.125    20418670.781 8  83611041.97108       722.496 8        49.813    20418670.064 9  80127246.80109       692.432 9        56.500
G11  22938086.392 7 120540457.75707      2903.034 7        42.938    22938086.396 6        41.250    22938084.612 6  93927622.59306      2262.100 6        41.250    22938084.748 8  93927619.59708      2262.129 8        48.875    22938086.362 9  90013977.55509      2167.858 9        55.688
G14  21294246.937 7 111902023.50007     -1911.419 7        43.563    21294246.954 7        42.563    21294245.612 7  87196376.64207     -1489.422 7        42.563    21294245.707 8  87196374.64708     -1489.434 8        49.500    21294247.165 9  83563199.47709     -1427.359 9        56.313
G17  21625211.400 7 113641253.96907      -848.431 7        43.313    21625211.417 7        42.063    21625209.339 7  88551616.79107      -661.115 7        42.063    21625209.422 8  88551616.79208      -661.119 8        49.250    21625211.527 9  84861974.72309      -633.592 9        56.125
G19  20972712.478 7 110212346.99807       515.503 7        43.625    20972712.504 7        42.688    20972709.421 7  85879737.68407       401.691 7        42.688    20972709.532 8  85879737.68408       401.707 8        49.563    20972712.435 9  82301429.05809       384.938 9        56.375
G24  23891747.282 7 125551980.77607       664.536 7        42.500    23891747.283 6        40.438    23891747.835 6  97832713.93206       517.816 6        40.438    23891747.930 8  97832711.93808       517.833 8        48.438    23891747.298 9  93756347.89409       496.241 9        55.188
G30  24683812.238 7 129714307.28607     -3405.831 7        42.375    24683812.260 6        40.063    24683812.777 6 101076087.53506     -2653.898 6        40.063    24683812.901 8 101076085.53308     -2653.824 8        48.188    24683812.063 9  96864580.21809     -2543.295 9        54.938
> 2023 01 08 13 55  0.0000000  0 15
E10  23624632.720 7 124148282.27207        50.249 7        45.375    23624632.552 9  92708132.73409        37.574 9        56.000    23624631.451 9  95126601.07209        38.555 9        59.125    23624632.055 9  93917366.97609        38.064 9        60.688
E11  24393540.077 7 128188916.90307      1351.779 7        45.063    24393536.680 9  95725477.68009      1009.504 9        55.563    24393535.597 9  98222659.36809      1035.771 9        58.750    24393536.183 9  96974069.59809      1022.624 9        60.313
E12  23849132.112 7 125328034.00307     -1175.005 7        45.250    23849129.419 9  93589106.70109      -877.431 9        55.938    23849128.343 9  96030556.97409      -900.369 9        59.000    23849128.929 9  94809832.91209      -888.903 9        60.625
E24  23680907.735 7 124444009.42807       365.183 7        45.438    23680906.884 9  92928965.33709       272.749 9        56.063    23680905.818 9  95353194.52609       279.864 9        59.188    23680906.395 9  94141080.00509       276.306 9        60.750
E25  26505788.337 7 139288858.61007      2482.342 7        44.375    26505789.423 9 104014410.18709      1853.583 9        54.938    26505788.349 9 106727825.91809      1901.974 9        58.125    26505788.933 9 105371119.62509      1877.784 9        59.688
E31  25071234.159 7 131750224.13707     -1949.912 7        44.875    25071235.063 9  98384911.63109     -1456.096 9        55.438    25071233.965 9 100951469.85709     -1494.121 9        58.563    25071234.557 9  99668190.81809     -1475.112 9        60.188
E33  27473603.123 7 144374759.15607     -2577.600 7        44.000    27473602.127 9 107812316.09909     -1924.753 9        54.625    27473601.038 9 110624806.61709     -1974.972 9        57.813    27473601.632 9 109218561.43109     -1949.866 9        59.375
G03  23603491.628 7 124037184.71707     -1386.299 7        42.438    23603491.632 6        40.438    23603491.731 6  96652353.40406     -1080.233 6        40.438    23603491.733 8  96652349.41108     -1080.311 8        48.625    23603491.383 9  92625169.76509     -1035.271 9        55.125
G06  20370448.825 7 107047430.58207       763.452 7        43.625    20370448.847 7        42.813    20370449.172 7  83413585.65107       594.893 7        42.813    20370449.223 8  83413582.65308       594.910 8        49.813    20370448.476 9  79938014.95809       570.078 9        56.313
G11  22775199.768 7 119684480.88907      2803.745 7        42.625    22775199.785 6        41.000    22775197.618 6  93260627.63306      2184.733 6        41.000    22775197.720 8  93260624.63908      2184.724 8        48.875    22775199.383 9  89374774.05409      2093.667 9        55.375
G14  21407384.756 7 112496563.87407     -2050.720 7        43.188    21407384.787 7        42.063    21407382.842 7  87659654.85107     -1597.968 7        42.063    21407382.968 8  87659652.85808     -1597.976 8        49.438    21407384.449 9  84007174.42309     -1531.370 9        56.000
G17  21674191.256 7 113898642.80907      -866.440 7        42.875    21674191.264 6        41.688    21674188.800 6  88752179.52506      -675.152 6        41.688    21674188.887 8  88752179.52308      -675.107 8        49.188    21674191.008 9  85054180.67409      -647.001 9        55.750
G19  20944784.012 7 110065583.04507       464.162 7        43.313    20944784.038 7        42.438    20944781.151 7  85765376.16107       361.680 7        42.438    20944781.234 8  85765376.16308       361.627 8        49.563    20944784.177 9  82191832.60309       346.540 9        56.125
G24  23858777.030 7 125378721.63407       491.656 7        42.188    23858777.034 6        40.250    23858777.686 6  97697706.80806       383.100 6        40.250    23858777.813 8  97697704.81008       383.076 8        48.438    23858777.183 9  93626966.06709       367.126 9        54.938
G30  24877441.269 7 130731836.66107     -3375.262 7        42.063    24877441.286 6        39.563    24877442.154 6 101868967.57106     -2630.074 6        39.563    24877442.278 8 101868965.57308     -2630.083 8        48.125    24877441.469 9  97624423.58709     -2520.468 9        54.625
> 2023 01 08 14 00  0.0000000  0 17
E10  23624567.425 7 124147939.63607       -47.253 7        45.125    23624567.371 9  92707876.86809       -35.298 9        55.563    23624566.266 9  95126338.53009       -36.215 9        58.375    23624566.850 9  93917107.77209       -35.755 9        60.125
E11  24319082.372 7 127797639.73207      1256.989 7        44.813    24319079.090 9  95433290.19009       938.668 9        55.125    24319078.038 9  97922849.59309       963.159 9        58.063    24319078.614 9  96678070.96409       950.912 9        59.750
E12  23918342.416 7 125691736.58607     -1248.623 7        45.000    23918339.724 9  93860702.78909      -932.397 9        55.375    23918338.658 9  96309238.17009      -956.705 9        58.250    23918339.241 9  95084971.55209      -944.547 9        60.000
E24  23663260.661 7 124351273.58007       252.820 7        45.125    23663259.869 9  92859714.55109       188.708 9        55.563    23663258.771 9  95282137.19909       193.634 9        58.438    23663259.361 9  94070925.94809       191.169 9        60.188
E25  26365029.853 7 138549166.44807      2448.515 7        44.188    26365030.696 9 103462042.66609      1828.374 9        54.563    26365029.625 9 106161048.81309      1876.067 9        57.375    26365030.192 9 104811547.31209      1852.226 9        59.125
E31  25185131.271 7 132348757.88907     -2039.768 7        44.500    25185132.224 9  98831868.65209     -1523.192 9        54.938    25185131.152 9 101410086.62809     -1562.915 9        57.813    25185131.739 9 100120977.71309     -1543.052 9        59.500
E33  27620508.683 7 145146752.59407     -2568.309 7        43.750    27620507.591 9 108388804.70909     -1917.831 9        54.188    27620506.499 9 111216334.05509     -1967.889 9        56.938    27620507.096 9 109802569.45609     -1942.866 9        58.688
E36  28559944.065 7 150083517.54207      2441.784 7        43.375    28559945.118 8 112075359.40108      1823.422 8        53.875    28559944.047 9 114999059.74009      1870.989 9        56.625    28559944.634 9 113537209.64309      1847.205 9        58.375
G03  23687749.691 7 124479963.42507     -1564.587 7        42.313    23687749.695 6        40.313    23687749.693 6  96997375.77506     -1219.159 6        40.313    23687749.791 8  96997371.77908     -1219.163 8        48.063    23687749.365 9  92955816.20309     -1168.388 9        55.063
G06  20331493.093 7 106842717.61807       601.970 7        43.625    20331493.115 7        42.750    20331493.614 7  83254069.05507       469.063 7        42.750    20331493.707 8  83254066.06608       468.989 8        49.313    20331492.891 9  79785144.89109       449.440 9        56.313
G11  22618065.486 7 118858737.29107      2700.705 7        42.625    22618065.499 6        41.063    22618063.858 6  92617191.06306      2104.445 6        41.063    22618063.920 8  92617188.06208      2104.482 8        48.438    22618065.606 9  88758147.33309      2016.803 9        55.500
G14  21528357.326 7 113132278.63407     -2186.678 7        43.125    21528357.348 6        41.938    21528355.360 6  88155017.00706     -1703.909 6        41.938    21528355.411 8  88155015.01508     -1703.925 8        48.813    21528356.942 9  84481896.49409     -1632.917 9        55.938
G17  21724162.875 7 114161245.81407      -884.123 7        43.000    21724162.892 6        41.563    21724160.497 6  88956805.24506      -688.931 6        41.563    21724160.540 8  88956805.24108      -688.915 8        48.688    21724162.690 9  85250280.32009      -660.214 9        55.750
G19  20919738.296 7 109933964.47707       413.624 7        43.313    20919738.322 7        42.375    20919734.959 7  85662816.23707       322.304 7        42.375    20919735.055 8  85662816.24008       322.333 8        49.063    20919738.000 9  82093546.00509       308.891 9        56.125
G20  25048907.544 6 131632898.07506      3488.687 6        41.688    25048907.597 6        39.125    25048905.887 6 102571082.95006      2718.453 6        39.125    25048905.941 7 102571080.95307      2718.420 7        47.438    25048907.573 9  98297293.37209      2605.184 9        54.563
G24  23835623.933 7 125257047.81807       319.885 7        42.250    23835623.959 6        40.188    23835623.952 6  97602896.04106       249.261 6        40.188    23835623.973 7  97602894.04607       249.302 7        47.938    23835623.414 9  93536105.74809       238.930 9        55.000
G30  25069047.990 6 131738733.58506     -3335.718 6        41.875    25069048.016 6        39.375    25069048.283 6 102653562.57606     -2599.265 6        39.375    25069048.401 7 102653560.57407     -2599.277 7        47.563    25069047.605 9  98376327.13309     -2491.037 9        54.625
